[{"coord":{"lat":42.216670999999998,"lon":-8.2666699999999995},"country":"ES","_id":3119890,"name":"A Cañiza"},{"coord":{"lat":43.371349000000002,"lon":-8.3960000000000008},"country":"ES","_id":3119841,"name":"A Coruna"},{"coord":{"lat":38.790661,"lon":-9.2283000000000008},"country":"PT","_id":2272413,"name":"A da Beja"},{"coord":{"lat":38.846038999999998,"lon":-9.3336600000000001},"country":"PT","_id":2272388,"name":"A do Fação"},{"coord":{"lat":39.156478999999997,"lon":-9.3220600000000005},"country":"PT","_id":8012562,"name":"A Dos Cunhados"},{"coord":{"lat":39.152369999999998,"lon":-9.2972000000000001},"country":"PT","_id":2272379,"name":"A dos Cunhados"},{"coord":{"lat":39.314467999999998,"lon":-9.0454699999999999},"country":"PT","_id":8012339,"name":"A Dos Francos"},{"coord":{"lat":42.683331000000003,"lon":-8.4833300000000005},"country":"ES","_id":3119746,"name":"A Estrada"},{"coord":{"lat":41.901310000000002,"lon":-8.8742300000000007},"country":"ES","_id":3119646,"name":"A Guarda"},{"coord":{"lat":42.400478,"lon":-7.1026800000000003},"country":"ES","_id":3119053,"name":"A Rua"},{"coord":{"lat":42.138592000000003,"lon":-7.9306700000000001},"country":"ES","_id":3118700,"name":"A Veiga"},{"coord":{"lat":41.403381000000003,"lon":-8.7719100000000001},"country":"PT","_id":8012865,"name":"A Ver-O-Mar"},{"coord":{"lat":55.044338000000003,"lon":9.4174100000000003},"country":"DK","_id":2625070,"name":"Aabenraa"},{"coord":{"lat":47.849997999999999,"lon":8.8499999999999996},"country":"DE","_id":2959946,"name":"Aach"},{"coord":{"lat":49.783298000000002,"lon":6.5999999999999996},"country":"DE","_id":6554718,"name":"Aach"},{"coord":{"lat":49.783329000000002,"lon":6.5999999999999996},"country":"DE","_id":2959944,"name":"Aach"},{"coord":{"lat":50.776642000000002,"lon":6.0834200000000003},"country":"DE","_id":3247449,"name":"Aachen"},{"coord":{"lat":50.776031000000003,"lon":6.0872299999999999},"country":"DE","_id":6553047,"name":"Aachen, Stadt"},{"coord":{"lat":47.493160000000003,"lon":8.9101700000000008},"country":"CH","_id":7285012,"name":"Aadorf"},{"coord":{"lat":47.492038999999998,"lon":8.9009900000000002},"country":"CH","_id":2661882,"name":"Aadorf"},{"coord":{"lat":57.048000000000002,"lon":9.9186999999999994},"country":"DK","_id":2624886,"name":"Aalborg"},{"coord":{"lat":51.754821999999997,"lon":5.1315600000000003},"country":"NL","_id":2760144,"name":"Aalburg"},{"coord":{"lat":48.837769000000002,"lon":10.093299999999999},"country":"DE","_id":2959927,"name":"Aalen"},{"coord":{"lat":33.805278999999999,"lon":35.599997999999999},"country":"LB","_id":280425,"name":"Aaley"},{"coord":{"lat":52.259171000000002,"lon":4.7597199999999997},"country":"NL","_id":2760134,"name":"Aalsmeer"},{"coord":{"lat":50.943320999999997,"lon":4.0735099999999997},"country":"BE","_id":2803451,"name":"Aalst"},{"coord":{"lat":50.936039000000001,"lon":4.0354999999999999},"country":"BE","_id":2803448,"name":"Aalst"},{"coord":{"lat":51.924999,"lon":6.5805600000000002},"country":"NL","_id":2760123,"name":"Aalten"},{"coord":{"lat":51.083328000000002,"lon":3.4333300000000002},"country":"BE","_id":2803444,"name":"Aalter"},{"coord":{"lat":51.090172000000003,"lon":3.44693},"country":"BE","_id":2803443,"name":"Aalter"},{"coord":{"lat":62.599997999999999,"lon":25.733329999999999},"country":"FI","_id":662095,"name":"Aanekoski"},{"coord":{"lat":13.0748,"lon":123.703003},"country":"PH","_id":1730632,"name":"Aanislag"},{"coord":{"lat":47.388779,"lon":8.0482600000000009},"country":"CH","_id":7285013,"name":"Aarau"},{"coord":{"lat":47.392539999999997,"lon":8.0442199999999993},"country":"CH","_id":2661881,"name":"Aarau"},{"coord":{"lat":47.046149999999997,"lon":7.2829499999999996},"country":"CH","_id":7285014,"name":"Aarberg"},{"coord":{"lat":47.044392000000002,"lon":7.2757800000000001},"country":"CH","_id":2661880,"name":"Aarberg"},{"coord":{"lat":47.324181000000003,"lon":7.9073500000000001},"country":"CH","_id":7285015,"name":"Aarburg"},{"coord":{"lat":47.320670999999997,"lon":7.8998600000000003},"country":"CH","_id":2661879,"name":"Aarburg"},{"coord":{"lat":51.509762000000002,"lon":5.6383900000000002},"country":"NL","_id":6698718,"name":"Aarle-Rixtel"},{"coord":{"lat":56.803989000000001,"lon":9.5144099999999998},"country":"DK","_id":2624602,"name":"Aars"},{"coord":{"lat":50.987499,"lon":4.8333000000000004},"country":"BE","_id":2803430,"name":"Aarschot"},{"coord":{"lat":50.987147999999998,"lon":4.8369499999999999},"country":"BE","_id":2803429,"name":"Aarschot"},{"coord":{"lat":51.135421999999998,"lon":4.3826900000000002},"country":"BE","_id":2803421,"name":"Aartselaar"},{"coord":{"lat":51.134121,"lon":4.3867799999999999},"country":"BE","_id":2803420,"name":"Aartselaar"},{"coord":{"lat":47.235290999999997,"lon":7.7634400000000001},"country":"CH","_id":7285016,"name":"Aarwangen"},{"coord":{"lat":47.25,"lon":7.75},"country":"CH","_id":2661875,"name":"Aarwangen"},{"coord":{"lat":47.238449000000003,"lon":7.7685399999999998},"country":"CH","_id":2661874,"name":"Aarwangen"},{"coord":{"lat":54.066668999999997,"lon":9.4333299999999998},"country":"DE","_id":2959908,"name":"Aasbuttel"},{"coord":{"lat":54.066699999999997,"lon":9.4333299999999998},"country":"DE","_id":6552159,"name":"Aasbüttel"},{"coord":{"lat":68.709807999999995,"lon":-52.869880999999999},"country":"GL","_id":3424901,"name":"Aasiaat"},{"coord":{"lat":43.283329000000002,"lon":-0.083330000000000001},"country":"FR","_id":6452451,"name":"Aast"},{"coord":{"lat":43.283329000000002,"lon":-0.083330000000000001},"country":"FR","_id":3038809,"name":"Aast"},{"coord":{"lat":47.298931000000003,"lon":8.9169499999999999},"country":"CH","_id":6292463,"name":"Aatal"},{"coord":{"lat":47.513289999999998,"lon":8.9007799999999992},"country":"CH","_id":7670044,"name":"Aawangen"},{"coord":{"lat":35.087958999999998,"lon":63.067799000000001},"country":"AF","_id":1149550,"name":"Ab-e Kamari"},{"coord":{"lat":5.1065800000000001,"lon":7.3666700000000001},"country":"NG","_id":2353151,"name":"Aba"},{"coord":{"lat":32.902191000000002,"lon":101.70665700000001},"country":"CN","_id":1818177,"name":"Aba"},{"coord":{"lat":47.029071999999999,"lon":18.521720999999999},"country":"HU","_id":3056450,"name":"Aba"},{"coord":{"lat":43.098671000000003,"lon":40.803452},"country":"GE","_id":874453,"name":"Abaakhuda"},{"coord":{"lat":40.551471999999997,"lon":-0.82611999999999997},"country":"ES","_id":6361427,"name":"Ababuj"},{"coord":{"lat":40.549079999999996,"lon":-0.80757999999999996},"country":"ES","_id":3131144,"name":"Ababuj"},{"coord":{"lat":11.1342,"lon":122.715599},"country":"PH","_id":1732526,"name":"Abaca"},{"coord":{"lat":9.9204000000000008,"lon":124.50509599999999},"country":"PH","_id":1732531,"name":"Abaca"},{"coord":{"lat":30.339199000000001,"lon":48.304298000000003},"country":"IR","_id":145459,"name":"Abadan"},{"coord":{"lat":41.554259999999999,"lon":-8.6382300000000001},"country":"PT","_id":8014765,"name":"Abade de Neiva"},{"coord":{"lat":31.160800999999999,"lon":52.650599999999997},"country":"IR","_id":145449,"name":"Abadeh"},{"coord":{"lat":40.908729999999998,"lon":-4.2698099999999997},"country":"ES","_id":6360747,"name":"Abades"},{"coord":{"lat":40.916457999999999,"lon":-4.2693700000000003},"country":"ES","_id":3131141,"name":"Abades"},{"coord":{"lat":40.259219999999999,"lon":-5.9782799999999998},"country":"ES","_id":3131138,"name":"Abadia"},{"coord":{"lat":-18.485558999999999,"lon":-47.403061000000001},"country":"BR","_id":3473269,"name":"Abadia dos Dourados"},{"coord":{"lat":-16.204170000000001,"lon":-48.706940000000003},"country":"BR","_id":3473268,"name":"Abadiania"},{"coord":{"lat":43.366669000000002,"lon":-7.4833299999999996},"country":"ES","_id":3131136,"name":"Abadin"},{"coord":{"lat":43.1511,"lon":-2.6094200000000001},"country":"ES","_id":3131137,"name":"Abadino"},{"coord":{"lat":43.133709000000003,"lon":-2.6189200000000001},"country":"ES","_id":6362353,"name":"Abadiño"},{"coord":{"lat":31.579170000000001,"lon":-7.3130800000000002},"country":"MA","_id":2562202,"name":"Abadou"},{"coord":{"lat":47.466670999999998,"lon":20.600000000000001},"country":"HU","_id":723044,"name":"Abadszalok"},{"coord":{"lat":44.393889999999999,"lon":40.22139},"country":"RU","_id":584534,"name":"Abadzekhskaya"},{"coord":{"lat":44.360000999999997,"lon":40.229999999999997},"country":"RU","_id":584535,"name":"Abadzekhskaya"},{"coord":{"lat":40.281689,"lon":-6.0065799999999996},"country":"ES","_id":6356698,"name":"Abadía"},{"coord":{"lat":43.379798999999998,"lon":-7.5062499999999996},"country":"ES","_id":6359165,"name":"Abadín"},{"coord":{"lat":-19.16,"lon":-45.445830999999998},"country":"BR","_id":3473267,"name":"Abaete"},{"coord":{"lat":-1.7180599999999999,"lon":-48.8825},"country":"BR","_id":3408424,"name":"Abaetetuba"},{"coord":{"lat":53.730801,"lon":87.252601999999996},"country":"RU","_id":1512238,"name":"Abagur"},{"coord":{"lat":-26.033331,"lon":-55.933331000000003},"country":"PY","_id":3439483,"name":"Abai"},{"coord":{"lat":42.648232,"lon":-2.1418200000000001},"country":"ES","_id":3131135,"name":"Abaigar"},{"coord":{"lat":42.623600000000003,"lon":-3.5794800000000002},"country":"ES","_id":6356331,"name":"Abajas"},{"coord":{"lat":42.623100000000001,"lon":-3.5808599999999999},"country":"ES","_id":3131133,"name":"Abajas"},{"coord":{"lat":4.9797000000000002,"lon":7.7917100000000001},"country":"NG","_id":2353100,"name":"Abak"},{"coord":{"lat":6.3162500000000001,"lon":8.1169100000000007},"country":"NG","_id":2353099,"name":"Abakaliki"},{"coord":{"lat":53.715561000000001,"lon":91.429169000000002},"country":"RU","_id":1512236,"name":"Abakan"},{"coord":{"lat":58.128608999999997,"lon":68.594436999999999},"country":"RU","_id":1512223,"name":"Abalak"},{"coord":{"lat":15.450900000000001,"lon":6.2793000000000001},"country":"NE","_id":2448245,"name":"Abalak"},{"coord":{"lat":43.047440000000002,"lon":-2.1053199999999999},"country":"ES","_id":3131131,"name":"Abalcisqueta"},{"coord":{"lat":42.571541000000003,"lon":-2.7095600000000002},"country":"ES","_id":3131128,"name":"Abalos"},{"coord":{"lat":43.051158999999998,"lon":-2.1103800000000001},"country":"ES","_id":6358093,"name":"Abaltzisketa"},{"coord":{"lat":56.669998,"lon":96.059997999999993},"country":"RU","_id":1512218,"name":"Aban"},{"coord":{"lat":41.978580000000001,"lon":34.011001999999998},"country":"TR","_id":752926,"name":"Abana"},{"coord":{"lat":40.892609,"lon":-2.4852599999999998},"country":"ES","_id":3131126,"name":"Abanades"},{"coord":{"lat":-13.633889999999999,"lon":-72.881393000000003},"country":"PE","_id":3948642,"name":"Abancay"},{"coord":{"lat":-8.3865999999999996,"lon":115.601303},"country":"ID","_id":7087209,"name":"Abang"},{"coord":{"lat":10.966670000000001,"lon":122.650002},"country":"PH","_id":1732483,"name":"Abangay"},{"coord":{"lat":38.215912000000003,"lon":-1.0545100000000001},"country":"ES","_id":6359506,"name":"Abanilla"},{"coord":{"lat":38.205379000000001,"lon":-1.04152},"country":"ES","_id":2522505,"name":"Abanilla"},{"coord":{"lat":45.360988999999996,"lon":11.791410000000001},"country":"IT","_id":6541001,"name":"Abano Terme"},{"coord":{"lat":45.360988999999996,"lon":11.791410000000001},"country":"IT","_id":3183587,"name":"Abano Terme"},{"coord":{"lat":41.133839000000002,"lon":-1.67899},"country":"ES","_id":6363004,"name":"Abanto"},{"coord":{"lat":41.137507999999997,"lon":-1.69818},"country":"ES","_id":3131117,"name":"Abanto"},{"coord":{"lat":43.316668999999997,"lon":-3.0833300000000001},"country":"ES","_id":3131115,"name":"Abanto y Ciérvana"},{"coord":{"lat":-18.83333,"lon":-63.466670999999998},"country":"BO","_id":3924668,"name":"Abapo"},{"coord":{"lat":38.205508999999999,"lon":-1.39907},"country":"ES","_id":2522499,"name":"Abaran"},{"coord":{"lat":-8.7202800000000007,"lon":-39.113892},"country":"BR","_id":3408421,"name":"Abaré"},{"coord":{"lat":31.341578999999999,"lon":34.345920999999997},"country":"PS","_id":6967863,"name":"Abasan al Jadidah"},{"coord":{"lat":31.319130000000001,"lon":34.340049999999998},"country":"PS","_id":281165,"name":"Abasan al Kabirah"},{"coord":{"lat":47.797049999999999,"lon":20.003240999999999},"country":"HU","_id":723041,"name":"Abasar"},{"coord":{"lat":42.209591000000003,"lon":42.221111000000001},"country":"GE","_id":616022,"name":"Abasha"},{"coord":{"lat":44.021270999999999,"lon":144.26971399999999},"country":"JP","_id":2130741,"name":"Abashiri"},{"coord":{"lat":20.450001,"lon":-101.51667},"country":"MX","_id":4019869,"name":"Abasolo"},{"coord":{"lat":25.950001,"lon":-100.400002},"country":"MX","_id":4019867,"name":"Abasolo"},{"coord":{"lat":24.066669000000001,"lon":-98.366669000000002},"country":"MX","_id":3533505,"name":"Abasolo"},{"coord":{"lat":-34.985149,"lon":-58.089218000000002},"country":"AR","_id":3436521,"name":"Abasto"},{"coord":{"lat":41.707500000000003,"lon":42.845717999999998},"country":"GE","_id":584502,"name":"Abastumani"},{"coord":{"lat":-23.303609999999999,"lon":-50.3125},"country":"BR","_id":3473258,"name":"Abatiá"},{"coord":{"lat":56.287478999999998,"lon":70.455528000000001},"country":"RU","_id":1512210,"name":"Abatskoye"},{"coord":{"lat":48.283329000000002,"lon":21.200001},"country":"HU","_id":723036,"name":"Abaujszanto"},{"coord":{"lat":49.631110999999997,"lon":72.853888999999995},"country":"KZ","_id":1526970,"name":"Abay"},{"coord":{"lat":52.654998999999997,"lon":90.092781000000002},"country":"RU","_id":1512205,"name":"Abaza"},{"coord":{"lat":41.220790999999998,"lon":-7.6869100000000001},"country":"PT","_id":8013712,"name":"Abaças"},{"coord":{"lat":45.312168,"lon":9.5941600000000005},"country":"IT","_id":6535707,"name":"Abbadia Cerreto"},{"coord":{"lat":45.099997999999999,"lon":7.7166699999999997},"country":"IT","_id":3183583,"name":"Abbadia di Stura"},{"coord":{"lat":45.900478,"lon":9.3341399999999997},"country":"IT","_id":3183582,"name":"Abbadia Lariana"},{"coord":{"lat":42.882129999999997,"lon":11.66954},"country":"IT","_id":3183581,"name":"Abbadia San Salvatore"},{"coord":{"lat":47.116669000000002,"lon":5.8833299999999999},"country":"FR","_id":6452202,"name":"Abbans-Dessus"},{"coord":{"lat":47.120547999999999,"lon":5.8818799999999998},"country":"FR","_id":3038800,"name":"Abbans-Dessus"},{"coord":{"lat":47.553139000000002,"lon":-1.532},"country":"FR","_id":3038799,"name":"Abbaretz"},{"coord":{"lat":40.126750999999999,"lon":8.8180300000000003},"country":"IT","_id":3183579,"name":"Abbasanta"},{"coord":{"lat":42.225140000000003,"lon":14.01111},"country":"IT","_id":3183578,"name":"Abbateggio"},{"coord":{"lat":52.75,"lon":10.91667},"country":"DE","_id":2959891,"name":"Abbendorf"},{"coord":{"lat":52.25,"lon":10.73333},"country":"DE","_id":2959884,"name":"Abbenrode"},{"coord":{"lat":51.616669000000002,"lon":11.283329999999999},"country":"DE","_id":2959876,"name":"Abberode"},{"coord":{"lat":52.352328999999997,"lon":10.55649},"country":"DE","_id":2959875,"name":"Abbesbüttel"},{"coord":{"lat":50.099997999999999,"lon":1.8333299999999999},"country":"FR","_id":6455375,"name":"Abbeville"},{"coord":{"lat":50.099997999999999,"lon":1.8333299999999999},"country":"FR","_id":3038789,"name":"Abbeville"},{"coord":{"lat":31.992121000000001,"lon":-83.306824000000006},"country":"US","_id":4178992,"name":"Abbeville"},{"coord":{"lat":29.974648999999999,"lon":-92.134293},"country":"US","_id":4314295,"name":"Abbeville"},{"coord":{"lat":34.178168999999997,"lon":-82.379013},"country":"US","_id":4568985,"name":"Abbeville"},{"coord":{"lat":31.571840000000002,"lon":-85.250488000000004},"country":"US","_id":4829449,"name":"Abbeville"},{"coord":{"lat":34.233452,"lon":-82.466521999999998},"country":"US","_id":4568959,"name":"Abbeville County"},{"coord":{"lat":50.733390999999997,"lon":-108.75142700000001},"country":"CA","_id":5881774,"name":"Abbey"},{"coord":{"lat":51.966670999999998,"lon":-2.8999999999999999},"country":"GB","_id":2657876,"name":"Abbey Dore"},{"coord":{"lat":51.486880999999997,"lon":0.10746},"country":"GB","_id":7302135,"name":"Abbey Wood"},{"coord":{"lat":52.349997999999999,"lon":-9.6833299999999998},"country":"IE","_id":2967096,"name":"Abbeydorney"},{"coord":{"lat":52.381390000000003,"lon":-9.3025000000000002},"country":"IE","_id":2967095,"name":"Abbeyfeale"},{"coord":{"lat":53.766669999999998,"lon":-7.4500000000000002},"country":"IE","_id":2967093,"name":"Abbeylara"},{"coord":{"lat":52.899169999999998,"lon":-7.3574999999999999},"country":"IE","_id":2967092,"name":"Abbeyleix"},{"coord":{"lat":53.583328000000002,"lon":-7.6500000000000004},"country":"IE","_id":2967090,"name":"Abbeyshrule"},{"coord":{"lat":45.400767999999999,"lon":8.9185400000000001},"country":"IT","_id":6540167,"name":"Abbiategrasso"},{"coord":{"lat":45.398209000000001,"lon":8.9167799999999993},"country":"IT","_id":3183573,"name":"Abbiategrasso"},{"coord":{"lat":60.150002000000001,"lon":14.800000000000001},"country":"SE","_id":2727731,"name":"Abborrberget"},{"coord":{"lat":51.705730000000003,"lon":-0.41757},"country":"GB","_id":2657863,"name":"Abbots Langley"},{"coord":{"lat":52.386108,"lon":-0.19209999999999999},"country":"GB","_id":2657861,"name":"Abbots Ripton"},{"coord":{"lat":49.049678999999998,"lon":-122.285873},"country":"CA","_id":5881792,"name":"Abbotsford"},{"coord":{"lat":-33.849997999999999,"lon":151.133331},"country":"AU","_id":2178377,"name":"Abbotsford"},{"coord":{"lat":49.057980000000001,"lon":-122.252571},"country":"CA","_id":5881791,"name":"Abbotsford"},{"coord":{"lat":44.946362000000001,"lon":-90.315971000000005},"country":"US","_id":5243517,"name":"Abbotsford"},{"coord":{"lat":50.508159999999997,"lon":-3.6134200000000001},"country":"GB","_id":2657864,"name":"Abbotskerswell"},{"coord":{"lat":34.146850999999998,"lon":73.214493000000004},"country":"PK","_id":1185056,"name":"Abbottabad"},{"coord":{"lat":-26.316669000000001,"lon":118.383331},"country":"AU","_id":2078058,"name":"Abbotts"},{"coord":{"lat":51.189861000000001,"lon":-1.5312600000000001},"country":"GB","_id":2657859,"name":"Abbotts Ann"},{"coord":{"lat":39.886490000000002,"lon":-76.984702999999996},"country":"US","_id":4556216,"name":"Abbottstown"},{"coord":{"lat":32.963329000000002,"lon":70.522216999999998},"country":"PK","_id":1107346,"name":"Abbās Kili"},{"coord":{"lat":47.694640999999997,"lon":17.544879999999999},"country":"HU","_id":3056445,"name":"Abda"},{"coord":{"lat":32.992598999999998,"lon":47.419800000000002},"country":"IR","_id":145233,"name":"Abdanan"},{"coord":{"lat":35.289631,"lon":1.43957},"country":"DZ","_id":2509176,"name":"Abdelmoumen"},{"coord":{"lat":38.694220999999999,"lon":-0.25725999999999999},"country":"ES","_id":2522496,"name":"Abdet"},{"coord":{"lat":55.875380999999997,"lon":50.746791999999999},"country":"RU","_id":584484,"name":"Abdi"},{"coord":{"lat":-27.611111000000001,"lon":-51.022499000000003},"country":"BR","_id":3473255,"name":"Abdon Batista"},{"coord":{"lat":54.759998000000003,"lon":52.5},"country":"RU","_id":584480,"name":"Abdrakhmanovo"},{"coord":{"lat":53.700001,"lon":53.666671999999998},"country":"RU","_id":584471,"name":"Abdulino"},{"coord":{"lat":13.82916,"lon":20.832398999999999},"country":"TD","_id":245785,"name":"Abeche"},{"coord":{"lat":43.218491,"lon":-8.2890099999999993},"country":"ES","_id":6357271,"name":"Abegondo"},{"coord":{"lat":43.216670999999998,"lon":-8.2833299999999994},"country":"ES","_id":3131093,"name":"Abegondo"},{"coord":{"lat":43.449249000000002,"lon":3.2952900000000001},"country":"FR","_id":3038782,"name":"Abeilhan"},{"coord":{"lat":7.6224100000000004,"lon":-71.510170000000002},"country":"VE","_id":3649859,"name":"Abejales"},{"coord":{"lat":41.800091000000002,"lon":-2.7808000000000002},"country":"ES","_id":6361061,"name":"Abejar"},{"coord":{"lat":41.807549000000002,"lon":-2.7840699999999998},"country":"ES","_id":3131090,"name":"Abejar"},{"coord":{"lat":41.804020000000001,"lon":-6.1442100000000002},"country":"ES","_id":3131089,"name":"Abejera"},{"coord":{"lat":5.7892799999999998,"lon":-75.427254000000005},"country":"CO","_id":3690592,"name":"Abejorral"},{"coord":{"lat":37.999980999999998,"lon":-8.5230099999999993},"country":"PT","_id":8013146,"name":"Abela"},{"coord":{"lat":38.000469000000002,"lon":-8.5587999999999997},"country":"PT","_id":2272473,"name":"Abela"},{"coord":{"lat":-26.564720000000001,"lon":-52.328330999999999},"country":"BR","_id":3473252,"name":"Abelardo Luz"},{"coord":{"lat":42.176288999999997,"lon":-7.7104299999999997},"country":"ES","_id":3131087,"name":"Abeleda"},{"coord":{"lat":42.342441999999998,"lon":-8.1815200000000008},"country":"ES","_id":3131082,"name":"Abelenda"},{"coord":{"lat":42.161628999999998,"lon":1.0922799999999999},"country":"ES","_id":3131075,"name":"Abella de la Conca"},{"coord":{"lat":49.242820999999999,"lon":10.96401},"country":"DE","_id":2959855,"name":"Abenberg"},{"coord":{"lat":39.215260000000001,"lon":-1.54843},"country":"ES","_id":6355293,"name":"Abengibre"},{"coord":{"lat":39.216670999999998,"lon":-1.5333300000000001},"country":"ES","_id":2522490,"name":"Abengibre"},{"coord":{"lat":6.7297200000000004,"lon":-3.4963899999999999},"country":"CI","_id":2293549,"name":"Abengourou"},{"coord":{"lat":49.677219000000001,"lon":8.28111},"country":"DE","_id":2959847,"name":"Abenheim"},{"coord":{"lat":38.880322,"lon":-4.3570200000000003},"country":"ES","_id":2522488,"name":"Abenojar"},{"coord":{"lat":48.816668999999997,"lon":11.85},"country":"DE","_id":2959842,"name":"Abensberg"},{"coord":{"lat":49.650002000000001,"lon":7.0999999999999996},"country":"DE","_id":6553568,"name":"Abentheuer"},{"coord":{"lat":49.650002000000001,"lon":7.0999999999999996},"country":"DE","_id":2959841,"name":"Abentheuer"},{"coord":{"lat":38.868918999999998,"lon":-4.4370000000000003},"country":"ES","_id":6357095,"name":"Abenójar"},{"coord":{"lat":7.1500000000000004,"lon":3.3500000000000001},"country":"NG","_id":2352947,"name":"Abeokuta"},{"coord":{"lat":-2.6333299999999999,"lon":140.58332799999999},"country":"ID","_id":2082727,"name":"Abepura"},{"coord":{"lat":53.233330000000002,"lon":-4.0166700000000004},"country":"GB","_id":2657857,"name":"Aber"},{"coord":{"lat":52.242469999999997,"lon":-4.2587099999999998},"country":"GB","_id":2657850,"name":"Aberaeron"},{"coord":{"lat":52.666671999999998,"lon":-3.7166700000000001},"country":"GB","_id":2657854,"name":"Aberangell"},{"coord":{"lat":56.327370000000002,"lon":-3.3520300000000001},"country":"GB","_id":2657852,"name":"Aberargie"},{"coord":{"lat":51.723610000000001,"lon":-3.3661099999999999},"country":"GB","_id":2657845,"name":"Abercanaid"},{"coord":{"lat":51.647331000000001,"lon":-3.13476},"country":"GB","_id":2657844,"name":"Abercarn"},{"coord":{"lat":57.560119999999998,"lon":-2.6285599999999998},"country":"GB","_id":2657839,"name":"Aberchirder"},{"coord":{"lat":-33.950001,"lon":149.316666},"country":"AU","_id":2178369,"name":"Abercrombie"},{"coord":{"lat":-20.148060000000001,"lon":57.516109},"country":"MU","_id":934818,"name":"Abercrombie"},{"coord":{"lat":51.714539000000002,"lon":-3.4655800000000001},"country":"GB","_id":7292206,"name":"Aberdare"},{"coord":{"lat":-32.833328000000002,"lon":151.366669},"country":"AU","_id":2178366,"name":"Aberdare"},{"coord":{"lat":51.714378000000004,"lon":-3.4491800000000001},"country":"GB","_id":2657835,"name":"Aberdare"},{"coord":{"lat":57.143687999999997,"lon":-2.0981399999999999},"country":"GB","_id":2657832,"name":"Aberdeen"},{"coord":{"lat":45.464699000000003,"lon":-98.486480999999998},"country":"US","_id":5225857,"name":"Aberdeen"},{"coord":{"lat":35.03783,"lon":-100.149277},"country":"US","_id":5516007,"name":"Aberdeen"},{"coord":{"lat":52.316780000000001,"lon":-106.284477},"country":"CA","_id":5881868,"name":"Aberdeen"},{"coord":{"lat":46.975368000000003,"lon":-123.81572},"country":"US","_id":5785243,"name":"Aberdeen"},{"coord":{"lat":39.50956,"lon":-76.164124000000001},"country":"US","_id":4346913,"name":"Aberdeen"},{"coord":{"lat":33.825111,"lon":-88.543662999999995},"country":"US","_id":4415813,"name":"Aberdeen"},{"coord":{"lat":35.131549999999997,"lon":-79.429481999999993},"country":"US","_id":4452137,"name":"Aberdeen"},{"coord":{"lat":38.655628,"lon":-83.761032},"country":"US","_id":4504988,"name":"Aberdeen"},{"coord":{"lat":41.438930999999997,"lon":-87.111419999999995},"country":"US","_id":4917466,"name":"Aberdeen"},{"coord":{"lat":42.94408,"lon":-112.83833300000001},"country":"US","_id":5583714,"name":"Aberdeen"},{"coord":{"lat":57.166671999999998,"lon":-2.1666699999999999},"country":"GB","_id":3333224,"name":"Aberdeen City"},{"coord":{"lat":39.466861999999999,"lon":-76.130661000000003},"country":"US","_id":7257914,"name":"Aberdeen Proving Ground"},{"coord":{"lat":57.166671999999998,"lon":-2.6666699999999999},"country":"GB","_id":2657830,"name":"Aberdeenshire"},{"coord":{"lat":56.049999,"lon":-3.2999999999999998},"country":"GB","_id":2657829,"name":"Aberdour"},{"coord":{"lat":56.619999,"lon":-3.8645299999999998},"country":"GB","_id":2657820,"name":"Aberfeldy"},{"coord":{"lat":53.826037999999997,"lon":-1.3423099999999999},"country":"GB","_id":2657817,"name":"Aberford"},{"coord":{"lat":-30.266670000000001,"lon":152.01666299999999},"country":"AU","_id":2178357,"name":"Aberfoyle"},{"coord":{"lat":51.820979999999999,"lon":-3.0174300000000001},"country":"GB","_id":2657815,"name":"Abergavenny"},{"coord":{"lat":53.287041000000002,"lon":-3.5808599999999999},"country":"GB","_id":7294422,"name":"Abergele"},{"coord":{"lat":53.284359000000002,"lon":-3.5821999999999998},"country":"GB","_id":2657812,"name":"Abergele"},{"coord":{"lat":-32.700001,"lon":151.53332499999999},"country":"AU","_id":2178354,"name":"Aberglasslyn"},{"coord":{"lat":51.653548999999998,"lon":-3.6025999999999998},"country":"GB","_id":2657807,"name":"Abergwynfi"},{"coord":{"lat":52.644260000000003,"lon":-3.9561099999999998},"country":"GB","_id":2657806,"name":"Abergynolwyn"},{"coord":{"lat":51.540000999999997,"lon":-3.5955599999999999},"country":"GB","_id":2657804,"name":"Aberkenfig"},{"coord":{"lat":52.666671999999998,"lon":-3.8166699999999998},"country":"GB","_id":2657799,"name":"Aberllefenni"},{"coord":{"lat":-27.566669000000001,"lon":152.78332499999999},"country":"AU","_id":2178352,"name":"Abermain"},{"coord":{"lat":-32.816668999999997,"lon":151.433334},"country":"AU","_id":2178351,"name":"Abermain"},{"coord":{"lat":52.543388,"lon":-3.2372299999999998},"country":"GB","_id":2657795,"name":"Abermule"},{"coord":{"lat":51.881390000000003,"lon":-4.4155600000000002},"country":"GB","_id":2657793,"name":"Abernant"},{"coord":{"lat":33.832298000000002,"lon":-101.842949},"country":"US","_id":5516008,"name":"Abernathy"},{"coord":{"lat":-32.900002000000001,"lon":151.39999399999999},"country":"AU","_id":2178350,"name":"Abernethy"},{"coord":{"lat":56.332470000000001,"lon":-3.3122600000000002},"country":"GB","_id":2657792,"name":"Abernethy"},{"coord":{"lat":52.132480999999999,"lon":-4.5417300000000003},"country":"GB","_id":2657789,"name":"Aberporth"},{"coord":{"lat":50.066668999999997,"lon":10.383330000000001},"country":"DE","_id":2959834,"name":"Abersfeld"},{"coord":{"lat":50.368740000000003,"lon":12.81826},"country":"CZ","_id":3079843,"name":"Abertamy"},{"coord":{"lat":51.729809000000003,"lon":-3.1343200000000002},"country":"GB","_id":2657784,"name":"Abertillery"},{"coord":{"lat":51.595829000000002,"lon":-3.2683300000000002},"country":"GB","_id":3345315,"name":"Abertridwr"},{"coord":{"lat":39.274360999999999,"lon":-5.8001399999999999},"country":"ES","_id":6356699,"name":"Abertura"},{"coord":{"lat":39.243518999999999,"lon":-5.8139399999999997},"country":"ES","_id":2522486,"name":"Abertura"},{"coord":{"lat":52.412269999999999,"lon":-4.0770799999999996},"country":"GB","_id":7292321,"name":"Aberystwyth"},{"coord":{"lat":52.415481999999997,"lon":-4.0829199999999997},"country":"GB","_id":2657782,"name":"Aberystwyth"},{"coord":{"lat":44.145248000000002,"lon":10.664300000000001},"country":"IT","_id":3183565,"name":"Abetone"},{"coord":{"lat":41.638939000000001,"lon":-5.4268599999999996},"country":"ES","_id":6362449,"name":"Abezames"},{"coord":{"lat":41.626418999999999,"lon":-5.42577},"country":"ES","_id":3131061,"name":"Abezames"},{"coord":{"lat":46.766319000000003,"lon":12.51362},"country":"AT","_id":7872587,"name":"Abfaltersbach"},{"coord":{"lat":46.760280999999999,"lon":12.54194},"country":"AT","_id":2783062,"name":"Abfaltersbach"},{"coord":{"lat":18.216391000000002,"lon":42.505279999999999},"country":"SA","_id":110690,"name":"Abha"},{"coord":{"lat":27.007435000000001,"lon":76.607605000000007},"country":"IN","_id":6698412,"name":"Abhaneri"},{"coord":{"lat":36.146801000000004,"lon":49.217998999999999},"country":"IR","_id":145034,"name":"Abhar"},{"coord":{"lat":26.33333,"lon":90.666672000000005},"country":"IN","_id":1279407,"name":"Abhayapuri"},{"coord":{"lat":42.438499,"lon":-4.4200699999999999},"country":"ES","_id":6359981,"name":"Abia de las Torres"},{"coord":{"lat":42.420158000000001,"lon":-4.4213100000000001},"country":"ES","_id":3131057,"name":"Abia de las Torres"},{"coord":{"lat":5.4166699999999999,"lon":7.5},"country":"NG","_id":2565340,"name":"Abia State"},{"coord":{"lat":-8.7129999999999992,"lon":115.18150300000001},"country":"ID","_id":7529270,"name":"Abianbase"},{"coord":{"lat":5.3094299999999999,"lon":-4.0197200000000004},"country":"CI","_id":2293538,"name":"Abidjan"},{"coord":{"lat":43.400002000000001,"lon":-0.61667000000000005},"country":"FR","_id":6452452,"name":"Abidos"},{"coord":{"lat":43.400002000000001,"lon":-0.61667000000000005},"country":"FR","_id":3038769,"name":"Abidos"},{"coord":{"lat":-1.9175,"lon":-55.518059000000001},"country":"BR","_id":3393768,"name":"Abidos"},{"coord":{"lat":42.143608,"lon":-0.068809999999999996},"country":"ES","_id":6358256,"name":"Abiego"},{"coord":{"lat":42.120941000000002,"lon":-0.068729999999999999},"country":"ES","_id":3131056,"name":"Abiego"},{"coord":{"lat":11.5749,"lon":122.089996},"country":"PH","_id":1732434,"name":"Abiera"},{"coord":{"lat":35.866669000000002,"lon":140.01666299999999},"country":"JP","_id":2113164,"name":"Abiko"},{"coord":{"lat":10.73333,"lon":122.5},"country":"PH","_id":1732426,"name":"Abilay"},{"coord":{"lat":32.448737999999999,"lon":-99.733138999999994},"country":"US","_id":4669635,"name":"Abilene"},{"coord":{"lat":38.917220999999998,"lon":-97.213913000000005},"country":"US","_id":4267354,"name":"Abilene"},{"coord":{"lat":46.941299000000001,"lon":0.72889999999999999},"country":"FR","_id":6616632,"name":"Abilly"},{"coord":{"lat":46.933331000000003,"lon":0.73333000000000004},"country":"FR","_id":3038768,"name":"Abilly"},{"coord":{"lat":2.70167,"lon":33.676108999999997},"country":"UG","_id":235574,"name":"Abim"},{"coord":{"lat":51.671089000000002,"lon":-1.28278},"country":"GB","_id":2657780,"name":"Abingdon"},{"coord":{"lat":36.709831000000001,"lon":-81.977348000000006},"country":"US","_id":4743815,"name":"Abingdon"},{"coord":{"lat":40.804482,"lon":-90.401802000000004},"country":"US","_id":4882839,"name":"Abingdon"},{"coord":{"lat":42.104819999999997,"lon":-70.945319999999995},"country":"US","_id":4928662,"name":"Abington"},{"coord":{"lat":44.872580999999997,"lon":38.161110000000001},"country":"RU","_id":584441,"name":"Abinsk"},{"coord":{"lat":42.816668999999997,"lon":141.83332799999999},"country":"JP","_id":2130732,"name":"Abira"},{"coord":{"lat":9.4666700000000006,"lon":78.449996999999996},"country":"IN","_id":1279405,"name":"Abiramam"},{"coord":{"lat":9.7172999999999998,"lon":122.94380200000001},"country":"PH","_id":1732420,"name":"Abis"},{"coord":{"lat":68.349136000000001,"lon":18.828679999999999},"country":"SE","_id":2727664,"name":"Abisko"},{"coord":{"lat":30.478531,"lon":-90.037582},"country":"US","_id":4314388,"name":"Abita Springs"},{"coord":{"lat":43.416671999999998,"lon":-0.98333000000000004},"country":"FR","_id":6452453,"name":"Abitain"},{"coord":{"lat":43.420799000000002,"lon":-0.98858000000000001},"country":"FR","_id":3038766,"name":"Abitain"},{"coord":{"lat":48.100181999999997,"lon":-77.782798999999997},"country":"CA","_id":5881941,"name":"Abitibi-Témiscamingue"},{"coord":{"lat":39.322020999999999,"lon":-8.7855000000000008},"country":"PT","_id":8013039,"name":"Abitureiras"},{"coord":{"lat":39.873280000000001,"lon":-8.5125600000000006},"country":"PT","_id":8012401,"name":"Abiul"},{"coord":{"lat":42.255718000000002,"lon":0.18310999999999999},"country":"ES","_id":6358257,"name":"Abizanda"},{"coord":{"lat":42.242359,"lon":0.19717000000000001},"country":"ES","_id":3131049,"name":"Abizanda"},{"coord":{"lat":58.093280999999998,"lon":25.251480000000001},"country":"EE","_id":7522436,"name":"Abja vald"},{"coord":{"lat":58.125278000000002,"lon":25.349720000000001},"country":"EE","_id":592626,"name":"Abja-Paluoja"},{"coord":{"lat":58.109718000000001,"lon":25.361940000000001},"country":"EE","_id":592628,"name":"Abjaku"},{"coord":{"lat":45.584999000000003,"lon":0.75860000000000005},"country":"FR","_id":6616142,"name":"Abjat-sur-Bandiat"},{"coord":{"lat":45.584789000000001,"lon":0.75831000000000004},"country":"FR","_id":3038765,"name":"Abjat-sur-Bandiat"},{"coord":{"lat":42.790832999999999,"lon":41.159939000000001},"country":"GE","_id":6643410,"name":"Abkhazia"},{"coord":{"lat":37.155659,"lon":-2.76444},"country":"ES","_id":6355518,"name":"Abla"},{"coord":{"lat":37.142448000000002,"lon":-2.7780800000000001},"country":"ES","_id":2522483,"name":"Abla"},{"coord":{"lat":50.3932,"lon":2.7088000000000001},"country":"FR","_id":3038763,"name":"Ablain-Saint-Nazaire"},{"coord":{"lat":40.896061000000003,"lon":-2.2149200000000002},"country":"ES","_id":6357807,"name":"Ablanque"},{"coord":{"lat":40.898178000000001,"lon":-2.2252299999999998},"country":"ES","_id":3131040,"name":"Ablanque"},{"coord":{"lat":51.233330000000002,"lon":12.949999999999999},"country":"DE","_id":2959821,"name":"Ablaß"},{"coord":{"lat":49.089320999999998,"lon":1.9815400000000001},"country":"FR","_id":3038759,"name":"Ableiges"},{"coord":{"lat":48.517200000000003,"lon":1.8362400000000001},"country":"FR","_id":3038756,"name":"Ablis"},{"coord":{"lat":41.969608000000001,"lon":-1.5931299999999999},"country":"ES","_id":6359555,"name":"Ablitas"},{"coord":{"lat":41.974499000000002,"lon":-1.64053},"country":"ES","_id":3131037,"name":"Ablitas"},{"coord":{"lat":49.400002000000001,"lon":0.29999999999999999},"country":"FR","_id":6452141,"name":"Ablon"},{"coord":{"lat":49.392139,"lon":0.29583999999999999},"country":"FR","_id":3038755,"name":"Ablon"},{"coord":{"lat":48.727322000000001,"lon":2.42686},"country":"FR","_id":3038754,"name":"Ablon-sur-Seine"},{"coord":{"lat":27.269600000000001,"lon":31.151050999999999},"country":"EG","_id":362973,"name":"Abnub"},{"coord":{"lat":41.282229999999998,"lon":-7.9559600000000001},"country":"PT","_id":8012630,"name":"Aboadela"},{"coord":{"lat":41.275588999999997,"lon":-7.9886900000000001},"country":"PT","_id":2743440,"name":"Aboadela"},{"coord":{"lat":5.4086100000000004,"lon":-4.0160099999999996},"country":"CI","_id":2293521,"name":"Abobo"},{"coord":{"lat":7.5677000000000003,"lon":6.9863},"country":"NG","_id":2352857,"name":"Abocho"},{"coord":{"lat":30.149999999999999,"lon":74.183327000000006},"country":"IN","_id":1279403,"name":"Abohar"},{"coord":{"lat":41.328949000000001,"lon":-8.0678400000000003},"country":"PT","_id":8012631,"name":"Aboim"},{"coord":{"lat":41.318741000000003,"lon":-8.0620899999999995},"country":"PT","_id":2743438,"name":"Aboim"},{"coord":{"lat":5.4677899999999999,"lon":-3.2071100000000001},"country":"CI","_id":2293507,"name":"Aboisso"},{"coord":{"lat":7.1828599999999998,"lon":1.99119},"country":"BJ","_id":2395915,"name":"Abomey"},{"coord":{"lat":6.4485200000000003,"lon":2.3556599999999999},"country":"BJ","_id":2395914,"name":"Abomey-Calavi"},{"coord":{"lat":9.9833300000000005,"lon":39.983330000000002},"country":"ET","_id":345704,"name":"Abomsa"},{"coord":{"lat":46.280312000000002,"lon":6.7202599999999997},"country":"FR","_id":3038745,"name":"Abondance"},{"coord":{"lat":48.785899999999998,"lon":1.4400599999999999},"country":"FR","_id":3038744,"name":"Abondant"},{"coord":{"lat":3.98333,"lon":13.18333},"country":"CM","_id":2236053,"name":"Abong Mbang"},{"coord":{"lat":47.189898999999997,"lon":20.004760999999998},"country":"HU","_id":723030,"name":"Abony"},{"coord":{"lat":55.849997999999999,"lon":38.25},"country":"RU","_id":584421,"name":"Aborino"},{"coord":{"lat":9.4351599999999998,"lon":118.54920199999999},"country":"PH","_id":1732385,"name":"Aborlan"},{"coord":{"lat":43.349997999999999,"lon":-0.56667000000000001},"country":"FR","_id":6455371,"name":"Abos"},{"coord":{"lat":43.349997999999999,"lon":-0.56667000000000001},"country":"FR","_id":3038741,"name":"Abos"},{"coord":{"lat":5.3616999999999999,"lon":-1.9473199999999999},"country":"GH","_id":2306224,"name":"Aboso"},{"coord":{"lat":36.416569000000003,"lon":1.1961599999999999},"country":"DZ","_id":2509031,"name":"Abou el Hassan"},{"coord":{"lat":45.983452,"lon":-64.348747000000003},"country":"CA","_id":5881954,"name":"Aboushagan Road"},{"coord":{"lat":40.048512000000002,"lon":44.547421},"country":"AM","_id":617027,"name":"Abovyan"},{"coord":{"lat":40.267409999999998,"lon":44.626559999999998},"country":"AM","_id":617026,"name":"Abovyan"},{"coord":{"lat":57.075459000000002,"lon":-2.78023},"country":"GB","_id":2657775,"name":"Aboyne"},{"coord":{"lat":25.937099,"lon":49.677607999999999},"country":"SA","_id":107312,"name":"Abqaiq"},{"coord":{"lat":13.4437,"lon":120.72910299999999},"country":"PH","_id":1732378,"name":"Abra de Ilog"},{"coord":{"lat":-22.720490000000002,"lon":-65.696967999999998},"country":"AR","_id":3867009,"name":"Abra Pampa"},{"coord":{"lat":-27.133329,"lon":-64.883330999999998},"country":"AR","_id":3867002,"name":"Abra Rica"},{"coord":{"lat":5.7902300000000002,"lon":6.10473},"country":"NG","_id":2352804,"name":"Abraka"},{"coord":{"lat":53.508549000000002,"lon":-2.59266},"country":"GB","_id":2657774,"name":"Abram"},{"coord":{"lat":47.316668999999997,"lon":22.383329},"country":"RO","_id":686716,"name":"Abram"},{"coord":{"lat":26.1998,"lon":-98.411133000000007},"country":"US","_id":4669672,"name":"Abram"},{"coord":{"lat":51.188599000000004,"lon":41.020198999999998},"country":"RU","_id":584401,"name":"Abramovka"},{"coord":{"lat":55.509998000000003,"lon":39},"country":"RU","_id":584394,"name":"Abramovka"},{"coord":{"lat":48.279998999999997,"lon":40.32},"country":"RU","_id":584402,"name":"Abramovka"},{"coord":{"lat":51.456470000000003,"lon":22.31521},"country":"PL","_id":776808,"name":"Abramow"},{"coord":{"lat":55.830002,"lon":37.830002},"country":"RU","_id":584374,"name":"Abramtsevo"},{"coord":{"lat":56.229999999999997,"lon":37.959999000000003},"country":"RU","_id":584373,"name":"Abramtsevo"},{"coord":{"lat":47.316668999999997,"lon":22.25},"country":"RO","_id":686715,"name":"Abramut"},{"coord":{"lat":39.471648999999999,"lon":-8.1753300000000007},"country":"PT","_id":8010594,"name":"Abrantes"},{"coord":{"lat":39.466670999999998,"lon":-8.1999999999999993},"country":"PT","_id":2272447,"name":"Abrantes"},{"coord":{"lat":39.506019999999999,"lon":-8.2112999999999996},"country":"PT","_id":8012964,"name":"Abrantes (São Vicente)"},{"coord":{"lat":44.689999,"lon":37.590000000000003},"country":"RU","_id":584365,"name":"Abrau-Dyurso"},{"coord":{"lat":44.709999000000003,"lon":37.590000000000003},"country":"RU","_id":866243,"name":"Abrau-Dyurso"},{"coord":{"lat":40.681370000000001,"lon":-7.9210200000000004},"country":"PT","_id":2743428,"name":"Abraveses"},{"coord":{"lat":-20.301109,"lon":-42.477500999999997},"country":"BR","_id":3473235,"name":"Abre Campo"},{"coord":{"lat":8.0806500000000003,"lon":-73.220543000000006},"country":"CO","_id":3690584,"name":"Abrego"},{"coord":{"lat":41.516041000000001,"lon":1.9017500000000001},"country":"ES","_id":6356039,"name":"Abrera"},{"coord":{"lat":41.516818999999998,"lon":1.901},"country":"ES","_id":3131024,"name":"Abrera"},{"coord":{"lat":48.636471,"lon":7.0946600000000002},"country":"FR","_id":3038738,"name":"Abreschviller"},{"coord":{"lat":46.099997999999999,"lon":3.4333300000000002},"country":"FR","_id":6452078,"name":"Abrest"},{"coord":{"lat":46.099072,"lon":3.448},"country":"FR","_id":3038735,"name":"Abrest"},{"coord":{"lat":-7.91167,"lon":-34.902779000000002},"country":"BR","_id":3408404,"name":"Abreu e Lima"},{"coord":{"lat":22.2775,"lon":-80.567497000000003},"country":"CU","_id":3569741,"name":"Abreus"},{"coord":{"lat":6.6314799999999998,"lon":-76.064437999999996},"country":"CO","_id":3690582,"name":"Abriaqui"},{"coord":{"lat":18.633329,"lon":-74.300003000000004},"country":"HT","_id":3731257,"name":"Abricots"},{"coord":{"lat":39.144821,"lon":-9.0255899999999993},"country":"PT","_id":8012425,"name":"Abrigada"},{"coord":{"lat":36.953978999999997,"lon":-2.4677500000000001},"country":"ES","_id":2522477,"name":"Abriojal"},{"coord":{"lat":40.508011000000003,"lon":15.81357},"country":"IT","_id":3183561,"name":"Abriola"},{"coord":{"lat":56.060001,"lon":39.25},"country":"RU","_id":584354,"name":"Abrosovo"},{"coord":{"lat":52.508400000000002,"lon":25.561001000000001},"country":"BY","_id":624273,"name":"Abrova"},{"coord":{"lat":37.151260000000001,"lon":-2.8161999999999998},"country":"ES","_id":6355519,"name":"Abrucena"},{"coord":{"lat":37.132258999999998,"lon":-2.79711},"country":"ES","_id":2522476,"name":"Abrucena"},{"coord":{"lat":46.266669999999998,"lon":23.066669000000001},"country":"RO","_id":686712,"name":"Abrud"},{"coord":{"lat":40.148139999999998,"lon":-8.4268400000000003},"country":"PT","_id":2743424,"name":"Abrunheira"},{"coord":{"lat":55.379421000000001,"lon":39.153357999999997},"country":"RU","_id":584345,"name":"Abryudkovo"},{"coord":{"lat":16.0215,"lon":43.048499999999997},"country":"YE","_id":6940589,"name":"Abs"},{"coord":{"lat":16.002950999999999,"lon":43.197239000000003},"country":"YE","_id":70357,"name":"Abs"},{"coord":{"lat":47.334530000000001,"lon":11.49926},"country":"AT","_id":7873599,"name":"Absam"},{"coord":{"lat":47.299999,"lon":11.5},"country":"AT","_id":2783058,"name":"Absam"},{"coord":{"lat":45.520499999999998,"lon":-109.44293999999999},"country":"US","_id":5636523,"name":"Absarokee"},{"coord":{"lat":49.144379000000001,"lon":10.88101},"country":"DE","_id":2959803,"name":"Absberg"},{"coord":{"lat":50.333328000000002,"lon":3.2999999999999998},"country":"FR","_id":6452421,"name":"Abscon"},{"coord":{"lat":50.333328000000002,"lon":3.2999999999999998},"country":"FR","_id":3038731,"name":"Abscon"},{"coord":{"lat":39.428452,"lon":-74.495711999999997},"country":"US","_id":4500458,"name":"Absecon"},{"coord":{"lat":53.400002000000001,"lon":8.4499999999999993},"country":"DE","_id":2959801,"name":"Absen"},{"coord":{"lat":40.416671999999998,"lon":49.333328000000002},"country":"AZ","_id":587245,"name":"Absheron Rayon"},{"coord":{"lat":48.533329000000002,"lon":13.06667},"country":"DE","_id":2959795,"name":"Abshofen"},{"coord":{"lat":49.071097999999999,"lon":9.2927800000000005},"country":"DE","_id":6555512,"name":"Abstatt"},{"coord":{"lat":49.068199,"lon":9.2906999999999993},"country":"DE","_id":2959793,"name":"Abstatt"},{"coord":{"lat":49.683331000000003,"lon":6.9500000000000002},"country":"DE","_id":2959788,"name":"Abtei"},{"coord":{"lat":47.564540999999998,"lon":13.345560000000001},"country":"AT","_id":7873283,"name":"Abtenau"},{"coord":{"lat":47.563727999999998,"lon":13.34599},"country":"AT","_id":2783050,"name":"Abtenau"},{"coord":{"lat":50.902168000000003,"lon":10.07652},"country":"DE","_id":2959783,"name":"Abteroda"},{"coord":{"lat":51.200001,"lon":9.9333299999999998},"country":"DE","_id":2959782,"name":"Abterode"},{"coord":{"lat":51.25,"lon":10.7667},"country":"DE","_id":6549952,"name":"Abtsbessingen"},{"coord":{"lat":51.25,"lon":10.76667},"country":"DE","_id":2959773,"name":"Abtsbessingen"},{"coord":{"lat":51.889839000000002,"lon":12.72526},"country":"DE","_id":2959771,"name":"Abtsdorf"},{"coord":{"lat":48.895031000000003,"lon":10.001720000000001},"country":"DE","_id":2959766,"name":"Abtsgmund"},{"coord":{"lat":48.894958000000003,"lon":10.001939999999999},"country":"DE","_id":6555574,"name":"Abtsgmünd"},{"coord":{"lat":49.766669999999998,"lon":10.366669999999999},"country":"DE","_id":2959749,"name":"Abtswind"},{"coord":{"lat":51.979171999999998,"lon":4.3555599999999997},"country":"NL","_id":2760055,"name":"Abtswoude"},{"coord":{"lat":49.75,"lon":7.6500000000000004},"country":"DE","_id":6553459,"name":"Abtweiler"},{"coord":{"lat":49.75,"lon":7.6500000000000004},"country":"DE","_id":2959747,"name":"Abtweiler"},{"coord":{"lat":47.423729000000002,"lon":9.3211300000000001},"country":"CH","_id":2661871,"name":"Abtwil"},{"coord":{"lat":24.600000000000001,"lon":72.699996999999996},"country":"IN","_id":1279396,"name":"Abu"},{"coord":{"lat":35.740107999999999,"lon":37.045341000000001},"country":"SY","_id":174611,"name":"Abu ad Duhur"},{"coord":{"lat":30.910178999999999,"lon":30.174378999999998},"country":"EG","_id":362882,"name":"Abu al Matamir"},{"coord":{"lat":16.968869999999999,"lon":42.832512000000001},"country":"SA","_id":110619,"name":"Abu Arish"},{"coord":{"lat":24.466669,"lon":54.366669000000002},"country":"AE","_id":292968,"name":"Abu Dhabi"},{"coord":{"lat":31.762149999999998,"lon":35.261662000000001},"country":"PS","_id":285279,"name":"Abu Dis"},{"coord":{"lat":31.80592,"lon":35.109299},"country":"IL","_id":295772,"name":"Abu Ghaush"},{"coord":{"lat":33.308331000000003,"lon":44.185001},"country":"IQ","_id":100077,"name":"Abu Ghurayb"},{"coord":{"lat":35.866669000000002,"lon":38.383330999999998},"country":"SY","_id":174485,"name":"Abu Hurayrah"},{"coord":{"lat":11.456200000000001,"lon":31.2285},"country":"SD","_id":380757,"name":"Abu Jibeha"},{"coord":{"lat":30.725079999999998,"lon":31.671479999999999},"country":"EG","_id":362485,"name":"Abu Kabir"},{"coord":{"lat":31.948830000000001,"lon":35.184260999999999},"country":"PS","_id":285220,"name":"Abu Qashsh"},{"coord":{"lat":27.9312,"lon":30.838408999999999},"country":"EG","_id":362277,"name":"Abu Qurqas"},{"coord":{"lat":24.483329999999999,"lon":72.783332999999999},"country":"IN","_id":1279394,"name":"Abu Road"},{"coord":{"lat":22.345699,"lon":31.616240000000001},"country":"EG","_id":362041,"name":"Abu Sunbul"},{"coord":{"lat":27.044108999999999,"lon":31.31897},"country":"EG","_id":362004,"name":"Abu Tij"},{"coord":{"lat":12.35,"lon":29.25},"country":"SD","_id":380348,"name":"Abu Zabad"},{"coord":{"lat":14.72222,"lon":120.53833},"country":"PH","_id":1732354,"name":"Abucay"},{"coord":{"lat":12.981999999999999,"lon":123.64919999999999},"country":"PH","_id":1732355,"name":"Abucay"},{"coord":{"lat":9.9290000000000003,"lon":123.914597},"country":"PH","_id":1732351,"name":"Abucayan"},{"coord":{"lat":32.016368999999997,"lon":35.068328999999999},"country":"PS","_id":285285,"name":"Abud"},{"coord":{"lat":9.0573499999999996,"lon":7.4897600000000004},"country":"NG","_id":2352778,"name":"Abuja"},{"coord":{"lat":8.8333300000000001,"lon":7.1666699999999999},"country":"NG","_id":2352776,"name":"Abuja Federal Capital Territory"},{"coord":{"lat":13.404170000000001,"lon":-16.655830000000002},"country":"GM","_id":2413990,"name":"Abuko"},{"coord":{"lat":18.44528,"lon":121.45333100000001},"country":"PH","_id":1732333,"name":"Abulug"},{"coord":{"lat":5.8471799999999998,"lon":-0.17754},"country":"GH","_id":2306119,"name":"Aburi"},{"coord":{"lat":40.714722000000002,"lon":-6.1328399999999998},"country":"ES","_id":6360259,"name":"Abusejo"},{"coord":{"lat":40.709000000000003,"lon":-6.1407400000000001},"country":"ES","_id":3131018,"name":"Abusejo"},{"coord":{"lat":17.352329000000001,"lon":121.603638},"country":"PH","_id":1732317,"name":"Abut"},{"coord":{"lat":10.66667,"lon":125.050003},"country":"PH","_id":1732313,"name":"Abuyog"},{"coord":{"lat":10.747,"lon":125.010696},"country":"PH","_id":1732312,"name":"Abuyog"},{"coord":{"lat":12.946669999999999,"lon":124.055283},"country":"PH","_id":1732311,"name":"Abuyog"},{"coord":{"lat":13.620279999999999,"lon":122.520561},"country":"PH","_id":1732304,"name":"Abuyon"},{"coord":{"lat":49.533611000000001,"lon":6.0808299999999997},"country":"LU","_id":2960844,"name":"Abweiler"},{"coord":{"lat":58.666671999999998,"lon":16.183330999999999},"country":"SE","_id":2727594,"name":"Aby"},{"coord":{"lat":57.158360000000002,"lon":9.73672},"country":"DK","_id":2625037,"name":"Abybro"},{"coord":{"lat":9.5952500000000001,"lon":28.434930999999999},"country":"SD","_id":380308,"name":"Abyei"},{"coord":{"lat":36.066668999999997,"lon":50.549999},"country":"IR","_id":144794,"name":"Abyek"},{"coord":{"lat":45.016669999999998,"lon":-0.13333},"country":"FR","_id":6452259,"name":"Abzac"},{"coord":{"lat":45.016669999999998,"lon":-0.13333},"country":"FR","_id":3038730,"name":"Abzac"},{"coord":{"lat":53.828609,"lon":58.593330000000002},"country":"RU","_id":584329,"name":"Abzakovo"},{"coord":{"lat":43.026389999999999,"lon":41.073611999999997},"country":"GE","_id":615994,"name":"Abzhaqva"},{"coord":{"lat":42.648868999999998,"lon":-2.1411099999999998},"country":"ES","_id":6359550,"name":"Abáigar"},{"coord":{"lat":40.885368,"lon":-2.4723799999999998},"country":"ES","_id":6357806,"name":"Abánades"},{"coord":{"lat":42.727218999999998,"lon":-2.0226899999999999},"country":"ES","_id":3131110,"name":"Abárzuza"},{"coord":{"lat":17.466669,"lon":44.099997999999999},"country":"SA","_id":110737,"name":"Abā as Su‘ūd"},{"coord":{"lat":33.166671999999998,"lon":44.116669000000002},"country":"IQ","_id":99914,"name":"Abū Muḩammad"},{"coord":{"lat":25.866980000000002,"lon":55.023628000000002},"country":"IR","_id":400747,"name":"Abū Mūsā"},{"coord":{"lat":23.66667,"lon":54},"country":"AE","_id":292969,"name":"Abū Z̧aby"},{"coord":{"lat":30.533331,"lon":31.66667},"country":"EG","_id":362610,"name":"Abū Ḩammād al Maḩaţţah"},{"coord":{"lat":43.745559999999998,"lon":-87.814171000000002},"country":"US","_id":7234583,"name":"Acacia Falls Mobile Home Court"},{"coord":{"lat":-27.58333,"lon":153.03332499999999},"country":"AU","_id":2178321,"name":"Acacia Ridge"},{"coord":{"lat":3.9869500000000002,"lon":-73.757973000000007},"country":"CO","_id":3690577,"name":"Acacias"},{"coord":{"lat":15.35,"lon":-92.650002000000001},"country":"MX","_id":3533491,"name":"Acacoyagua"},{"coord":{"lat":-22.610278999999998,"lon":17.067221},"country":"NA","_id":3358815,"name":"Academia"},{"coord":{"lat":51.150131000000002,"lon":-110.218323},"country":"CA","_id":5882033,"name":"Acadia Valley"},{"coord":{"lat":-25.91667,"lon":-57.150002000000001},"country":"PY","_id":3439482,"name":"Acahay"},{"coord":{"lat":-20.362499,"lon":-43.144717999999997},"country":"BR","_id":3473220,"name":"Acaiaca"},{"coord":{"lat":19.100000000000001,"lon":-97.949996999999996},"country":"MX","_id":3533486,"name":"Acajete"},{"coord":{"lat":-11.66222,"lon":-38.017220000000002},"country":"BR","_id":3473218,"name":"Acajutiba"},{"coord":{"lat":13.592779999999999,"lon":-89.827499000000003},"country":"SV","_id":3587498,"name":"Acajutla"},{"coord":{"lat":16.566669000000001,"lon":-92.800003000000004},"country":"MX","_id":3533483,"name":"Acala"},{"coord":{"lat":37.517798999999997,"lon":-5.9818499999999997},"country":"ES","_id":2522474,"name":"Acala del Rio"},{"coord":{"lat":20.033331,"lon":-100.73333},"country":"MX","_id":4019827,"name":"Acambaro"},{"coord":{"lat":19.955829999999999,"lon":-99.841667000000001},"country":"MX","_id":3533475,"name":"Acambay"},{"coord":{"lat":18.566669000000001,"lon":-99.583327999999995},"country":"MX","_id":3533473,"name":"Acamixtla"},{"coord":{"lat":20.816669000000001,"lon":-89.449996999999996},"country":"MX","_id":3533472,"name":"Acanceh"},{"coord":{"lat":8.5063300000000002,"lon":-77.277839999999998},"country":"CO","_id":3690572,"name":"Acandi"},{"coord":{"lat":16.525559999999999,"lon":120.376389},"country":"PH","_id":1732297,"name":"Acao"},{"coord":{"lat":15.283329999999999,"lon":-92.699996999999996},"country":"MX","_id":3533466,"name":"Acapetagua"},{"coord":{"lat":22.496389000000001,"lon":-105.359444},"country":"MX","_id":4019819,"name":"Acaponeta"},{"coord":{"lat":16.863358999999999,"lon":-99.890099000000006},"country":"MX","_id":3533462,"name":"Acapulco de Juarez"},{"coord":{"lat":-1.9608300000000001,"lon":-48.196671000000002},"country":"BR","_id":3408386,"name":"Acara"},{"coord":{"lat":-2.8855599999999999,"lon":-40.119999},"country":"BR","_id":3408368,"name":"Acarau"},{"coord":{"lat":-13.949999999999999,"lon":-39.116669000000002},"country":"BR","_id":3473215,"name":"Acaraí"},{"coord":{"lat":-15.43111,"lon":-74.615829000000005},"country":"PE","_id":3948613,"name":"Acari"},{"coord":{"lat":9.5545100000000005,"lon":-69.195640999999995},"country":"VE","_id":3649833,"name":"Acarigua"},{"coord":{"lat":-34.477058,"lon":-58.50177},"country":"AR","_id":3436508,"name":"Acassuso"},{"coord":{"lat":46.479751999999998,"lon":24.633240000000001},"country":"RO","_id":686705,"name":"Acatari"},{"coord":{"lat":37.025039999999997,"lon":14.492979999999999},"country":"IT","_id":2525796,"name":"Acate"},{"coord":{"lat":14.55194,"lon":-90.942222999999998},"country":"GT","_id":3600008,"name":"Acatenango"},{"coord":{"lat":20.783331,"lon":-102.883331},"country":"MX","_id":4019807,"name":"Acatic"},{"coord":{"lat":18.200001,"lon":-98.050003000000004},"country":"MX","_id":3533440,"name":"Acatlan de Osorio"},{"coord":{"lat":18.533331,"lon":-96.616669000000002},"country":"MX","_id":3533439,"name":"Acatlan de Perez Figueroa"},{"coord":{"lat":18.816669000000001,"lon":-99.233329999999995},"country":"MX","_id":3533437,"name":"Acatlipa"},{"coord":{"lat":20.149999999999999,"lon":-98.449996999999996},"country":"MX","_id":3533445,"name":"Acatlán"},{"coord":{"lat":20.41667,"lon":-103.58332799999999},"country":"MX","_id":4019790,"name":"Acatlán de Juárez"},{"coord":{"lat":18.983329999999999,"lon":-97.783332999999999},"country":"MX","_id":3533433,"name":"Acatzingo de Hidalgo"},{"coord":{"lat":20.16667,"lon":-98.199996999999996},"country":"MX","_id":3533432,"name":"Acaxochitlan"},{"coord":{"lat":18.02083,"lon":-98.545829999999995},"country":"MX","_id":3818965,"name":"Acaxtlahuacán de Albino Zertuche"},{"coord":{"lat":20.033331,"lon":-98.833327999999995},"country":"MX","_id":3533428,"name":"Acayuca"},{"coord":{"lat":17.950001,"lon":-94.916672000000005},"country":"MX","_id":3533426,"name":"Acayucan"},{"coord":{"lat":19.266670000000001,"lon":-99.433327000000006},"country":"MX","_id":3533422,"name":"Acazulco"},{"coord":{"lat":41.158821000000003,"lon":15.33145},"country":"IT","_id":3183557,"name":"Accadia"},{"coord":{"lat":44.474628000000003,"lon":6.99092},"country":"IT","_id":3183556,"name":"Acceglio"},{"coord":{"lat":40.491019999999999,"lon":16.157979999999998},"country":"IT","_id":3183554,"name":"Accettura"},{"coord":{"lat":42.176529000000002,"lon":13.7171},"country":"IT","_id":3183553,"name":"Acciano"},{"coord":{"lat":38.667622000000001,"lon":-77.028312999999997},"country":"US","_id":4346952,"name":"Accokeek"},{"coord":{"lat":37.719569999999997,"lon":-75.665481999999997},"country":"US","_id":4743873,"name":"Accomac"},{"coord":{"lat":42.983330000000002,"lon":-0.59999999999999998},"country":"FR","_id":6452454,"name":"Accous"},{"coord":{"lat":42.983330000000002,"lon":-0.59999999999999998},"country":"FR","_id":3038723,"name":"Accous"},{"coord":{"lat":5.5560200000000002,"lon":-0.19689999999999999},"country":"GH","_id":2306104,"name":"Accra"},{"coord":{"lat":53.753791999999997,"lon":-2.3586299999999998},"country":"GB","_id":2657770,"name":"Accrington"},{"coord":{"lat":53.549999,"lon":8.0166699999999995},"country":"DE","_id":2959742,"name":"Accum"},{"coord":{"lat":42.694141000000002,"lon":13.247680000000001},"country":"IT","_id":3183548,"name":"Accumoli"},{"coord":{"lat":-33.243091999999997,"lon":-60.836441000000001},"country":"AR","_id":3866985,"name":"Acebal"},{"coord":{"lat":43.035290000000003,"lon":-5.1252500000000003},"country":"ES","_id":6358552,"name":"Acebedo"},{"coord":{"lat":43.039687999999998,"lon":-5.1159999999999997},"country":"ES","_id":3131010,"name":"Acebedo"},{"coord":{"lat":42.442841000000001,"lon":-5.8439500000000004},"country":"ES","_id":3131004,"name":"Acebes del Páramo"},{"coord":{"lat":40.214390000000002,"lon":-6.7091599999999998},"country":"ES","_id":6356700,"name":"Acebo"},{"coord":{"lat":40.201050000000002,"lon":-6.7168900000000002},"country":"ES","_id":3131003,"name":"Acebo"},{"coord":{"lat":42.299999,"lon":-7.25},"country":"ES","_id":3131001,"name":"Aceboso"},{"coord":{"lat":39.950001,"lon":-3.8500000000000001},"country":"ES","_id":2522461,"name":"Aceca"},{"coord":{"lat":39.080120000000001,"lon":-5.5918999999999999},"country":"ES","_id":6355867,"name":"Acedera"},{"coord":{"lat":39.076777999999997,"lon":-5.5738399999999997},"country":"ES","_id":2522460,"name":"Acedera"},{"coord":{"lat":-31.866671,"lon":-54.200001},"country":"UY","_id":3443952,"name":"Acegua"},{"coord":{"lat":-31.865279999999998,"lon":-54.167220999999998},"country":"BR","_id":3473204,"name":"Aceguá"},{"coord":{"lat":40.138081,"lon":-6.2894300000000003},"country":"ES","_id":6356702,"name":"Aceituna"},{"coord":{"lat":40.150081999999998,"lon":-6.3329199999999997},"country":"ES","_id":3130995,"name":"Aceituna"},{"coord":{"lat":18.443279,"lon":-67.064903000000001},"country":"PR","_id":4562483,"name":"Aceitunas"},{"coord":{"lat":36.967860999999999,"lon":-3.5397400000000001},"country":"ES","_id":2522451,"name":"Acequias"},{"coord":{"lat":42.615509000000003,"lon":-4.8174299999999999},"country":"ES","_id":3130992,"name":"Acera de la Vega"},{"coord":{"lat":43.231749999999998,"lon":-3.9341200000000001},"country":"ES","_id":3130990,"name":"Acereda"},{"coord":{"lat":40.792121999999999,"lon":15.93657},"country":"IT","_id":3183546,"name":"Acerenza"},{"coord":{"lat":40.737709000000002,"lon":15.056950000000001},"country":"IT","_id":3183544,"name":"Acerno"},{"coord":{"lat":40.950710000000001,"lon":14.37623},"country":"IT","_id":6537337,"name":"Acerra"},{"coord":{"lat":40.950710000000001,"lon":14.37623},"country":"IT","_id":3183541,"name":"Acerra"},{"coord":{"lat":38.671219000000001,"lon":-6.4963499999999996},"country":"ES","_id":6355868,"name":"Aceuchal"},{"coord":{"lat":38.646270999999999,"lon":-6.4863600000000003},"country":"ES","_id":2522446,"name":"Aceuchal"},{"coord":{"lat":1.83606,"lon":-75.854979999999998},"country":"CO","_id":3690552,"name":"Acevedo"},{"coord":{"lat":-16.049999,"lon":-68.683327000000006},"country":"BO","_id":3924610,"name":"Achacachi"},{"coord":{"lat":39.083328000000002,"lon":-28.033331},"country":"PT","_id":3373390,"name":"Achada"},{"coord":{"lat":21.257218999999999,"lon":77.508613999999994},"country":"IN","_id":1279390,"name":"Achalpur"},{"coord":{"lat":-42.463889999999999,"lon":-73.520827999999995},"country":"CL","_id":3900700,"name":"Achao"},{"coord":{"lat":38.083328000000002,"lon":23.733329999999999},"country":"GR","_id":265488,"name":"Acharnes"},{"coord":{"lat":48.079028999999998,"lon":16.387720000000002},"country":"AT","_id":7871849,"name":"Achau"},{"coord":{"lat":48.080261,"lon":16.386109999999999},"country":"AT","_id":2783040,"name":"Achau"},{"coord":{"lat":50.833328000000002,"lon":11.116669999999999},"country":"DE","_id":2959705,"name":"Achelstädt"},{"coord":{"lat":47.700001,"lon":12.26667},"country":"DE","_id":2959703,"name":"Achen"},{"coord":{"lat":50.866669000000002,"lon":7.9666699999999997},"country":"DE","_id":2959696,"name":"Achenbach"},{"coord":{"lat":45.545448,"lon":126.977028},"country":"CN","_id":2038679,"name":"Acheng"},{"coord":{"lat":48.5807,"lon":7.6280299999999999},"country":"FR","_id":3038715,"name":"Achenheim"},{"coord":{"lat":47.536270000000002,"lon":11.69183},"country":"AT","_id":7872622,"name":"Achenkirch"},{"coord":{"lat":47.526587999999997,"lon":11.705590000000001},"country":"AT","_id":2783035,"name":"Achenkirch"},{"coord":{"lat":48.961159000000002,"lon":2.0688200000000001},"country":"FR","_id":3038712,"name":"Acheres"},{"coord":{"lat":48.354579999999999,"lon":2.5703499999999999},"country":"FR","_id":3038711,"name":"Acheres-la-Foret"},{"coord":{"lat":48.344841000000002,"lon":11.70919},"country":"DE","_id":2959687,"name":"Achering"},{"coord":{"lat":48.631149000000001,"lon":8.0760699999999996},"country":"DE","_id":2959686,"name":"Achern"},{"coord":{"lat":-37.25,"lon":145.699997},"country":"AU","_id":2178318,"name":"Acheron"},{"coord":{"lat":39.343989999999998,"lon":-8.69102},"country":"PT","_id":8013041,"name":"Achete"},{"coord":{"lat":29.049999,"lon":81.300003000000004},"country":"NP","_id":1283742,"name":"Achham"},{"coord":{"lat":27.183330999999999,"lon":77.766670000000005},"country":"IN","_id":1279382,"name":"Achhnera"},{"coord":{"lat":8.5681799999999999,"lon":-74.554046999999997},"country":"CO","_id":3690549,"name":"Achi"},{"coord":{"lat":5.7000000000000002,"lon":-0.33333000000000002},"country":"GH","_id":2306079,"name":"Achiaman"},{"coord":{"lat":50.274287999999999,"lon":2.75779},"country":"FR","_id":3038703,"name":"Achicourt"},{"coord":{"lat":50.130668999999997,"lon":2.7811900000000001},"country":"FR","_id":3038702,"name":"Achiet-le-Grand"},{"coord":{"lat":44.551670000000001,"lon":44.837780000000002},"country":"RU","_id":584310,"name":"Achikulak"},{"coord":{"lat":52.066699999999997,"lon":10.6},"country":"DE","_id":6552399,"name":"Achim"},{"coord":{"lat":52.059299000000003,"lon":10.61073},"country":"DE","_id":2959682,"name":"Achim"},{"coord":{"lat":53.014159999999997,"lon":9.0263000000000009},"country":"DE","_id":2959681,"name":"Achim"},{"coord":{"lat":53.011200000000002,"lon":9.0329999999999995},"country":"DE","_id":6557456,"name":"Achim, Stadt"},{"coord":{"lat":56.269401999999999,"lon":90.499297999999996},"country":"RU","_id":1512165,"name":"Achinsk"},{"coord":{"lat":-33.175381000000002,"lon":-64.993308999999996},"country":"AR","_id":3866959,"name":"Achiras"},{"coord":{"lat":42.651969999999999,"lon":47.682819000000002},"country":"RU","_id":584309,"name":"Achisu"},{"coord":{"lat":56.798499999999997,"lon":57.899399000000003},"country":"RU","_id":584308,"name":"Achit"},{"coord":{"lat":55.25,"lon":38.709999000000003},"country":"RU","_id":584301,"name":"Achkasovo"},{"coord":{"lat":43.189999,"lon":45.279998999999997},"country":"RU","_id":584298,"name":"Achkhoy-Martan"},{"coord":{"lat":52.400002000000001,"lon":7.9333299999999998},"country":"DE","_id":2959676,"name":"Achmer"},{"coord":{"lat":47.599997999999999,"lon":11.466670000000001},"country":"DE","_id":2959674,"name":"Achner"},{"coord":{"lat":49.644717999999997,"lon":9.9947199999999992},"country":"DE","_id":2959672,"name":"Acholshausen"},{"coord":{"lat":48.033329000000002,"lon":11.050000000000001},"country":"DE","_id":2959664,"name":"Achselschwang"},{"coord":{"lat":48.483330000000002,"lon":10.81667},"country":"DE","_id":2959662,"name":"Achsheim"},{"coord":{"lat":48.966701999999998,"lon":12.933299999999999},"country":"DE","_id":6556538,"name":"Achslach"},{"coord":{"lat":48.971710000000002,"lon":12.93511},"country":"DE","_id":2959660,"name":"Achslach"},{"coord":{"lat":48.266700999999998,"lon":9.9000000000000004},"country":"DE","_id":6556001,"name":"Achstetten"},{"coord":{"lat":48.266669999999998,"lon":9.9000000000000004},"country":"DE","_id":2959659,"name":"Achstetten"},{"coord":{"lat":50.366698999999997,"lon":7.0666700000000002},"country":"DE","_id":6553741,"name":"Acht"},{"coord":{"lat":50.366669000000002,"lon":7.0666700000000002},"country":"DE","_id":2959658,"name":"Acht"},{"coord":{"lat":49.616698999999997,"lon":7.0833300000000001},"country":"DE","_id":6553569,"name":"Achtelsbach"},{"coord":{"lat":49.616669000000002,"lon":7.0833300000000001},"country":"DE","_id":2959655,"name":"Achtelsbach"},{"coord":{"lat":53.409610999999998,"lon":10.24119},"country":"DE","_id":2959648,"name":"Achterdeich"},{"coord":{"lat":51.583328000000002,"lon":6.3499999999999996},"country":"DE","_id":2959643,"name":"Achterhoek"},{"coord":{"lat":53.966670999999998,"lon":9.2833299999999994},"country":"DE","_id":2959642,"name":"Achterhörn"},{"coord":{"lat":54.316699999999997,"lon":9.9666700000000006},"country":"DE","_id":6551790,"name":"Achterwehr"},{"coord":{"lat":54.313178999999998,"lon":9.9661000000000008},"country":"DE","_id":2959628,"name":"Achterwehr"},{"coord":{"lat":54.783298000000002,"lon":9.0333299999999994},"country":"DE","_id":6551521,"name":"Achtrup"},{"coord":{"lat":54.783329000000002,"lon":9.0333299999999994},"country":"DE","_id":2959621,"name":"Achtrup"},{"coord":{"lat":13.053699999999999,"lon":-86.590041999999997},"country":"NI","_id":3620982,"name":"Achuapa"},{"coord":{"lat":52.283329000000002,"lon":9.0833300000000001},"country":"DE","_id":2959614,"name":"Achum"},{"coord":{"lat":-33,"lon":-71.516670000000005},"country":"CL","_id":3900687,"name":"Achupallas"},{"coord":{"lat":9.1999999999999993,"lon":-77.983329999999995},"country":"PA","_id":3715156,"name":"Achutupo Numero Dos"},{"coord":{"lat":48.966670999999998,"lon":2.0666699999999998},"country":"FR","_id":6455373,"name":"Achères"},{"coord":{"lat":37.597648999999997,"lon":15.107889999999999},"country":"IT","_id":2525793,"name":"Aci Bonaccorsi"},{"coord":{"lat":37.558250000000001,"lon":15.134589999999999},"country":"IT","_id":6537801,"name":"Aci Castello"},{"coord":{"lat":37.558250000000001,"lon":15.134589999999999},"country":"IT","_id":2525792,"name":"Aci Castello"},{"coord":{"lat":37.595959000000001,"lon":15.14019},"country":"IT","_id":6537802,"name":"Aci Catena"},{"coord":{"lat":37.595959000000001,"lon":15.14019},"country":"IT","_id":2525791,"name":"Aci Catena"},{"coord":{"lat":37.606158999999998,"lon":15.120189999999999},"country":"IT","_id":6537803,"name":"Aci Sant'Antonio"},{"coord":{"lat":37.606158999999998,"lon":15.120189999999999},"country":"IT","_id":2525789,"name":"Aci SantAntonio"},{"coord":{"lat":37.563862,"lon":15.16136},"country":"IT","_id":6559422,"name":"Aci Trezza"},{"coord":{"lat":42.700001,"lon":-7.0499999999999998},"country":"ES","_id":3130979,"name":"Acibo"},{"coord":{"lat":48.133330999999998,"lon":-1.53704},"country":"FR","_id":3038698,"name":"Acigne"},{"coord":{"lat":36.223629000000003,"lon":36.258758999999998},"country":"TR","_id":438084,"name":"Acikdere"},{"coord":{"lat":37.423850999999999,"lon":29.349409000000001},"country":"TR","_id":325426,"name":"Acipayam"},{"coord":{"lat":37.61253,"lon":15.16628},"country":"IT","_id":6540849,"name":"Acireale"},{"coord":{"lat":37.606659000000001,"lon":15.162789999999999},"country":"IT","_id":2525790,"name":"Acireale"},{"coord":{"lat":37.457298000000002,"lon":41.296860000000002},"country":"TR","_id":325420,"name":"Acirli"},{"coord":{"lat":37.559601000000001,"lon":15.1599},"country":"IT","_id":6950976,"name":"Acitrezza"},{"coord":{"lat":49.533329000000002,"lon":5.9000000000000004},"country":"LU","_id":2960843,"name":"Aciérie"},{"coord":{"lat":52.22401,"lon":11.44037},"country":"DE","_id":2959607,"name":"Ackendorf"},{"coord":{"lat":58.459881000000003,"lon":-3.1131099999999998},"country":"GB","_id":2657707,"name":"Ackergill"},{"coord":{"lat":33.310119999999998,"lon":-89.172836000000004},"country":"US","_id":4415878,"name":"Ackerman"},{"coord":{"lat":42.55415,"lon":-93.053261000000006},"country":"US","_id":4846317,"name":"Ackley"},{"coord":{"lat":55.299999,"lon":-1.6333299999999999},"country":"GB","_id":2657705,"name":"Acklington"},{"coord":{"lat":54.033329000000002,"lon":-8.9000000000000004},"country":"IE","_id":2967080,"name":"Aclare"},{"coord":{"lat":52.636809999999997,"lon":1.5475699999999999},"country":"GB","_id":2657704,"name":"Acle"},{"coord":{"lat":51.500118000000001,"lon":-113.501953},"country":"CA","_id":5882100,"name":"Acme"},{"coord":{"lat":-11.73193,"lon":-75.546340999999998},"country":"PE","_id":3948448,"name":"Acolla"},{"coord":{"lat":19.625,"lon":-98.916672000000005},"country":"MX","_id":3817745,"name":"Acolman"},{"coord":{"lat":54.983330000000002,"lon":-2.1000000000000001},"country":"GB","_id":2657700,"name":"Acomb"},{"coord":{"lat":1.2968299999999999,"lon":10.936909999999999},"country":"GQ","_id":2310547,"name":"Aconibe"},{"coord":{"lat":-6.0952799999999998,"lon":-39.452499000000003},"country":"BR","_id":3408343,"name":"Acopiara"},{"coord":{"lat":-15.20472,"lon":-56.365828999999998},"country":"BR","_id":3473198,"name":"Acorizal"},{"coord":{"lat":-25.5,"lon":-65.233329999999995},"country":"AR","_id":3866946,"name":"Acosta"},{"coord":{"lat":19.216669,"lon":-69.316672999999994},"country":"DO","_id":3513047,"name":"Acosta"},{"coord":{"lat":-12.722149999999999,"lon":45.058109000000002},"country":"YT","_id":7521421,"name":"Acoua"},{"coord":{"lat":-12.72391,"lon":45.058188999999999},"country":"YT","_id":922015,"name":"Acoua"},{"coord":{"lat":11.970280000000001,"lon":-85.171126999999998},"country":"NI","_id":3620978,"name":"Acoyapa"},{"coord":{"lat":44.416671999999998,"lon":9.25},"country":"IT","_id":3183537,"name":"Acqua"},{"coord":{"lat":41.542819999999999,"lon":13.952819999999999},"country":"IT","_id":3183528,"name":"Acquafondata"},{"coord":{"lat":39.723098999999998,"lon":16.089880000000001},"country":"IT","_id":2525782,"name":"Acquaformosa"},{"coord":{"lat":45.307380999999999,"lon":10.414680000000001},"country":"IT","_id":3183525,"name":"Acquafredda"},{"coord":{"lat":43.626060000000003,"lon":12.67596},"country":"IT","_id":3183522,"name":"Acqualagna"},{"coord":{"lat":45.170368000000003,"lon":9.8908699999999996},"country":"IT","_id":3183519,"name":"Acquanegra Cremonese"},{"coord":{"lat":45.162478999999998,"lon":10.43468},"country":"IT","_id":3183518,"name":"Acquanegra sul Chiese"},{"coord":{"lat":42.743831999999998,"lon":11.86415},"country":"IT","_id":3183516,"name":"Acquapendente"},{"coord":{"lat":39.493698000000002,"lon":15.95208},"country":"IT","_id":2525779,"name":"Acquappesa"},{"coord":{"lat":39.911121000000001,"lon":18.245429999999999},"country":"IT","_id":2525778,"name":"Acquarica del Capo"},{"coord":{"lat":38.554779000000003,"lon":16.187201000000002},"country":"IT","_id":2525776,"name":"Acquaro"},{"coord":{"lat":46.45993,"lon":8.9273299999999995},"country":"CH","_id":7285019,"name":"Acquarossa"},{"coord":{"lat":46.451759000000003,"lon":8.9399899999999999},"country":"CH","_id":2661865,"name":"Acquarossa"},{"coord":{"lat":42.769939000000001,"lon":13.41018},"country":"IT","_id":3183509,"name":"Acquasanta Terme"},{"coord":{"lat":42.69014,"lon":12.54007},"country":"IT","_id":3183508,"name":"Acquasparta"},{"coord":{"lat":43.945929999999997,"lon":12.4185},"country":"SM","_id":3183500,"name":"Acquaviva"},{"coord":{"lat":41.866241000000002,"lon":14.74733},"country":"IT","_id":3183495,"name":"Acquaviva Collecroce"},{"coord":{"lat":40.897830999999996,"lon":16.842489},"country":"IT","_id":6538937,"name":"Acquaviva delle Fonti"},{"coord":{"lat":40.897830999999996,"lon":16.842489},"country":"IT","_id":3183494,"name":"Acquaviva delle Fonti"},{"coord":{"lat":41.672131,"lon":14.14892},"country":"IT","_id":3183493,"name":"Acquaviva dIsernia"},{"coord":{"lat":42.945351000000002,"lon":13.81549},"country":"IT","_id":3183492,"name":"Acquaviva Picena"},{"coord":{"lat":37.571739000000001,"lon":13.701560000000001},"country":"IT","_id":2525774,"name":"Acquaviva Platani"},{"coord":{"lat":38.056061,"lon":14.58207},"country":"IT","_id":2525773,"name":"Acque Dolci"},{"coord":{"lat":44.675139999999999,"lon":8.4675499999999992},"country":"IT","_id":6538185,"name":"Acqui Terme"},{"coord":{"lat":44.675139999999999,"lon":8.4675499999999992},"country":"IT","_id":3183490,"name":"Acqui Terme"},{"coord":{"lat":49.173499999999997,"lon":1.1765000000000001},"country":"FR","_id":3038681,"name":"Acquigny"},{"coord":{"lat":39.556660000000001,"lon":-104.89608800000001},"country":"US","_id":5411358,"name":"Acres Green"},{"coord":{"lat":39.492901000000003,"lon":16.383789},"country":"IT","_id":6540781,"name":"Acri"},{"coord":{"lat":39.492901000000003,"lon":16.383789},"country":"IT","_id":2525772,"name":"Acri"},{"coord":{"lat":47.712311,"lon":18.011310999999999},"country":"HU","_id":3056437,"name":"Acs"},{"coord":{"lat":47.794249999999998,"lon":19.387951000000001},"country":"HU","_id":3056436,"name":"Acsa"},{"coord":{"lat":18.95833,"lon":-97.802779999999998},"country":"MX","_id":3818846,"name":"Actipan"},{"coord":{"lat":19.433330999999999,"lon":-97.783332999999999},"country":"MX","_id":3533393,"name":"Actlzayanca de Hidalgo"},{"coord":{"lat":43.629688000000002,"lon":-80.041488999999999},"country":"CA","_id":5882134,"name":"Acton"},{"coord":{"lat":51.509010000000004,"lon":-0.2762},"country":"GB","_id":2657697,"name":"Acton"},{"coord":{"lat":42.485087999999998,"lon":-71.432838000000004},"country":"US","_id":4928703,"name":"Acton"},{"coord":{"lat":52.450001,"lon":-3.01667},"country":"GB","_id":2657696,"name":"Acton"},{"coord":{"lat":43.534247999999998,"lon":-70.909782000000007},"country":"US","_id":4956462,"name":"Acton"},{"coord":{"lat":34.469990000000003,"lon":-118.19673899999999},"country":"US","_id":5322317,"name":"Acton"},{"coord":{"lat":45.650069999999999,"lon":-72.565819000000005},"country":"CA","_id":5882142,"name":"Acton Vale"},{"coord":{"lat":20.266670000000001,"lon":-98.933327000000006},"country":"MX","_id":3533389,"name":"Actopan"},{"coord":{"lat":19.5,"lon":-96.616669000000002},"country":"MX","_id":3533390,"name":"Actopan"},{"coord":{"lat":41.670479,"lon":-0.88988999999999996},"country":"ES","_id":6640331,"name":"Actur"},{"coord":{"lat":-5.57667,"lon":-36.908611000000001},"country":"BR","_id":3408337,"name":"Acu"},{"coord":{"lat":-19.073059000000001,"lon":-42.546391},"country":"BR","_id":3473183,"name":"Acucena"},{"coord":{"lat":19.483329999999999,"lon":-101.33332799999999},"country":"MX","_id":4019757,"name":"Acuitzio del Canje"},{"coord":{"lat":19.683330999999999,"lon":-72.316672999999994},"country":"HT","_id":3731233,"name":"Acul du Nord"},{"coord":{"lat":18.716669,"lon":-97.316672999999994},"country":"MX","_id":3533376,"name":"Acultzingo"},{"coord":{"lat":1.0322499999999999,"lon":10.648820000000001},"country":"GQ","_id":2310533,"name":"Acurenam"},{"coord":{"lat":41.680660000000003,"lon":-70.907821999999996},"country":"US","_id":4928720,"name":"Acushnet"},{"coord":{"lat":41.685080999999997,"lon":-70.906418000000002},"country":"US","_id":7257523,"name":"Acushnet Center"},{"coord":{"lat":17.754299,"lon":121.47229799999999},"country":"PH","_id":1732294,"name":"Acustilan"},{"coord":{"lat":41.791519000000001,"lon":13.174390000000001},"country":"IT","_id":3183488,"name":"Acuto"},{"coord":{"lat":34.065928999999997,"lon":-84.676879999999997},"country":"US","_id":4179074,"name":"Acworth"},{"coord":{"lat":-22.440000999999999,"lon":-44.322800000000001},"country":"BR","_id":7547406,"name":"Acácias"},{"coord":{"lat":18.049999,"lon":30.950001},"country":"SD","_id":380186,"name":"Ad Dabbah"},{"coord":{"lat":23.684771000000001,"lon":-15.957979999999999},"country":"EH","_id":2463447,"name":"Ad Dakhla"},{"coord":{"lat":26.434419999999999,"lon":50.103259999999999},"country":"SA","_id":110336,"name":"Ad Dammam"},{"coord":{"lat":36.212521000000002,"lon":36.769779},"country":"SY","_id":174259,"name":"Ad Dana"},{"coord":{"lat":14.351800000000001,"lon":43.852749000000003},"country":"YE","_id":80379,"name":"Ad Dann"},{"coord":{"lat":17.722850999999999,"lon":42.252609},"country":"SA","_id":110328,"name":"Ad Darb"},{"coord":{"lat":37.072788000000003,"lon":40.651989},"country":"SY","_id":170887,"name":"Ad Darbasiyah"},{"coord":{"lat":29.364999999999998,"lon":48.001389000000003},"country":"KW","_id":285856,"name":"Ad Dasmah"},{"coord":{"lat":24.507721,"lon":44.392367999999998},"country":"SA","_id":110325,"name":"Ad Dawadimi"},{"coord":{"lat":31.699480000000001,"lon":35.18047},"country":"PS","_id":7890368,"name":"Ad Dawhah"},{"coord":{"lat":27.026109999999999,"lon":-13.05194},"country":"EH","_id":2462900,"name":"Ad Dchira"},{"coord":{"lat":14.671989999999999,"lon":43.818278999999997},"country":"YE","_id":30788,"name":"Ad Dil"},{"coord":{"lat":23.991461000000001,"lon":47.162658999999998},"country":"SA","_id":110314,"name":"Ad Dilam"},{"coord":{"lat":30.827908999999998,"lon":30.536328999999999},"country":"EG","_id":361827,"name":"Ad Dilinjat"},{"coord":{"lat":13.45398,"lon":44.181679000000003},"country":"YE","_id":80336,"name":"Ad Dimnah"},{"coord":{"lat":13.199999999999999,"lon":34.166671999999998},"country":"SD","_id":380151,"name":"Ad Dindar"},{"coord":{"lat":14.908060000000001,"lon":49.947780999999999},"country":"YE","_id":80331,"name":"Ad Dis ash Sharqiyah"},{"coord":{"lat":31.990511000000001,"lon":44.930630000000001},"country":"IQ","_id":99762,"name":"Ad Diwaniyah"},{"coord":{"lat":14.001200000000001,"lon":32.311599999999999},"country":"SD","_id":380129,"name":"Ad Diwem"},{"coord":{"lat":33.846668000000001,"lon":44.234439999999999},"country":"IQ","_id":99759,"name":"Ad Dujayl"},{"coord":{"lat":33.643428999999998,"lon":36.695042000000001},"country":"SY","_id":170589,"name":"Ad Dumayr"},{"coord":{"lat":14.63702,"lon":43.055050000000001},"country":"YE","_id":80309,"name":"Ad Durayhimi"},{"coord":{"lat":11.789099999999999,"lon":34.359200000000001},"country":"SD","_id":380174,"name":"Ad-Damazin"},{"coord":{"lat":34.774529000000001,"lon":-96.678336999999999},"country":"US","_id":4529096,"name":"Ada"},{"coord":{"lat":45.802501999999997,"lon":20.125830000000001},"country":"RS","_id":793171,"name":"Ada"},{"coord":{"lat":47.299689999999998,"lon":-96.515349999999998},"country":"US","_id":5015844,"name":"Ada"},{"coord":{"lat":40.769500999999998,"lon":-83.822708000000006},"country":"US","_id":5145374,"name":"Ada"},{"coord":{"lat":43.416561000000002,"lon":-116.126221},"country":"US","_id":5583739,"name":"Ada County"},{"coord":{"lat":47.692101000000001,"lon":19.976959000000001},"country":"HU","_id":3056424,"name":"Adacs"},{"coord":{"lat":45.029998999999997,"lon":38.020000000000003},"country":"RU","_id":797197,"name":"Adagum"},{"coord":{"lat":42.209068000000002,"lon":-0.023779999999999999},"country":"ES","_id":6358258,"name":"Adahuesca"},{"coord":{"lat":42.146099,"lon":-0.0080400000000000003},"country":"ES","_id":3130965,"name":"Adahuesca"},{"coord":{"lat":41.333320999999998,"lon":-94.466910999999996},"country":"US","_id":4846344,"name":"Adair County"},{"coord":{"lat":37.116729999999997,"lon":-85.299957000000006},"country":"US","_id":4282211,"name":"Adair County"},{"coord":{"lat":40.200031000000003,"lon":-92.600189},"country":"US","_id":5053853,"name":"Adair County"},{"coord":{"lat":44.670681000000002,"lon":-123.21787999999999},"country":"US","_id":5710600,"name":"Adair Village"},{"coord":{"lat":34.368698000000002,"lon":-84.934112999999996},"country":"US","_id":4179094,"name":"Adairsville"},{"coord":{"lat":51.880001,"lon":-176.65806599999999},"country":"US","_id":5878818,"name":"Adak"},{"coord":{"lat":23.16667,"lon":72.583327999999995},"country":"IN","_id":1279373,"name":"Adalaj"},{"coord":{"lat":41.643810000000002,"lon":-5.1262999999999996},"country":"ES","_id":6362129,"name":"Adalia"},{"coord":{"lat":41.648941000000001,"lon":-5.1210699999999996},"country":"ES","_id":3130962,"name":"Adalia"},{"coord":{"lat":22.375601,"lon":57.523338000000003},"country":"OM","_id":289433,"name":"Adam"},{"coord":{"lat":-21.685279999999999,"lon":-51.072498000000003},"country":"BR","_id":3473157,"name":"Adamantina"},{"coord":{"lat":6.5,"lon":13.5},"country":"CM","_id":2236015,"name":"Adamaoua Region"},{"coord":{"lat":36.733330000000002,"lon":24.433330999999999},"country":"GR","_id":265711,"name":"Adamas"},{"coord":{"lat":9.3333300000000001,"lon":12.5},"country":"NG","_id":2565342,"name":"Adamawa State"},{"coord":{"lat":44.083328000000002,"lon":27.950001},"country":"RO","_id":686688,"name":"Adamclisi"},{"coord":{"lat":-36.049999,"lon":148.71667500000001},"country":"AU","_id":2178297,"name":"Adaminaby"},{"coord":{"lat":49.30162,"lon":16.652531},"country":"CZ","_id":3079841,"name":"Adamov"},{"coord":{"lat":51.522300999999999,"lon":59.939602000000001},"country":"RU","_id":584279,"name":"Adamovka"},{"coord":{"lat":53.483330000000002,"lon":109.31667299999999},"country":"RU","_id":2028120,"name":"Adamovo"},{"coord":{"lat":51.743350999999997,"lon":22.264139},"country":"PL","_id":776788,"name":"Adamow"},{"coord":{"lat":50.258572000000001,"lon":22.69595},"country":"PL","_id":776780,"name":"Adamowka"},{"coord":{"lat":31.432779,"lon":75.717499000000004},"country":"IN","_id":1462733,"name":"Adampur"},{"coord":{"lat":45.327548999999998,"lon":-68.900588999999997},"country":"US","_id":4956470,"name":"Adams"},{"coord":{"lat":18.466669,"lon":120.900002},"country":"PH","_id":1732259,"name":"Adams"},{"coord":{"lat":42.624248999999999,"lon":-73.117598999999998},"country":"US","_id":4928733,"name":"Adams"},{"coord":{"lat":43.809230999999997,"lon":-76.024094000000005},"country":"US","_id":5106734,"name":"Adams"},{"coord":{"lat":43.956080999999998,"lon":-89.818175999999994},"country":"US","_id":5243553,"name":"Adams"},{"coord":{"lat":43.860061999999999,"lon":-76.005477999999997},"country":"US","_id":5106738,"name":"Adams Center"},{"coord":{"lat":-30.03199,"lon":30.81568},"country":"ZA","_id":1023698,"name":"Adams College"},{"coord":{"lat":39.86665,"lon":-104.38385},"country":"US","_id":5411363,"name":"Adams County"},{"coord":{"lat":46.055560999999997,"lon":-102.525436},"country":"US","_id":5687646,"name":"Adams County"},{"coord":{"lat":40.533352000000001,"lon":-98.500900000000001},"country":"US","_id":5062699,"name":"Adams County"},{"coord":{"lat":31.547939,"lon":-91.355948999999995},"country":"US","_id":4415912,"name":"Adams County"},{"coord":{"lat":39.966709000000002,"lon":-91.183471999999995},"country":"US","_id":4232512,"name":"Adams County"},{"coord":{"lat":53.424782,"lon":13.015370000000001},"country":"DE","_id":2959576,"name":"Adamsdorf"},{"coord":{"lat":53.700001,"lon":13.08333},"country":"DE","_id":2959572,"name":"Adamshof"},{"coord":{"lat":53.446559999999998,"lon":12.362880000000001},"country":"DE","_id":2959571,"name":"Adamshoffnung"},{"coord":{"lat":-25.065968999999999,"lon":-130.101471},"country":"PN","_id":4030723,"name":"Adamstown"},{"coord":{"lat":39.310940000000002,"lon":-77.474709000000004},"country":"US","_id":4346978,"name":"Adamstown"},{"coord":{"lat":40.241199000000002,"lon":-76.056327999999993},"country":"US","_id":5177874,"name":"Adamstown"},{"coord":{"lat":37.173358999999998,"lon":-97.176429999999996},"country":"US","_id":4267387,"name":"Adamsville"},{"coord":{"lat":35.235908999999999,"lon":-88.390602000000001},"country":"US","_id":4602039,"name":"Adamsville"},{"coord":{"lat":33.600940999999999,"lon":-86.956108},"country":"US","_id":4829588,"name":"Adamsville"},{"coord":{"lat":46.299999,"lon":24.233329999999999},"country":"RO","_id":686684,"name":"Adamus"},{"coord":{"lat":38.086941000000003,"lon":-4.5710100000000002},"country":"ES","_id":6357196,"name":"Adamuz"},{"coord":{"lat":38.026741000000001,"lon":-4.5223100000000001},"country":"ES","_id":2522438,"name":"Adamuz"},{"coord":{"lat":37.001671000000002,"lon":35.328892000000003},"country":"TR","_id":325363,"name":"Adana"},{"coord":{"lat":36.985000999999997,"lon":35.288089999999997},"country":"TR","_id":325361,"name":"Adana"},{"coord":{"lat":47.733330000000002,"lon":26.299999},"country":"RO","_id":686673,"name":"Adancata"},{"coord":{"lat":44.766669999999998,"lon":26.433330999999999},"country":"RO","_id":686674,"name":"Adancata"},{"coord":{"lat":46.859310000000001,"lon":18.164418999999999},"country":"HU","_id":3056418,"name":"Adand"},{"coord":{"lat":40.942390000000003,"lon":-4.5952200000000003},"country":"ES","_id":6355619,"name":"Adanero"},{"coord":{"lat":40.944870000000002,"lon":-4.6056100000000004},"country":"ES","_id":3130958,"name":"Adanero"},{"coord":{"lat":6.7397099999999996,"lon":7.0111699999999999},"country":"NG","_id":2352589,"name":"Adani"},{"coord":{"lat":40.780560000000001,"lon":30.40333},"country":"TR","_id":752850,"name":"Adapazari"},{"coord":{"lat":30.141109,"lon":-8.3722100000000008},"country":"MA","_id":2561978,"name":"Adar"},{"coord":{"lat":52.561939000000002,"lon":-8.79556},"country":"IE","_id":2967076,"name":"Adare"},{"coord":{"lat":31.10783,"lon":-8.4908300000000008},"country":"MA","_id":2561957,"name":"Adassil"},{"coord":{"lat":41.587318000000003,"lon":-8.3981700000000004},"country":"PT","_id":2743407,"name":"Adaufe"},{"coord":{"lat":-25.91667,"lon":144.60000600000001},"country":"AU","_id":2178285,"name":"Adavale"},{"coord":{"lat":57.075828999999999,"lon":24.321390000000001},"country":"LV","_id":461650,"name":"Adazi"},{"coord":{"lat":41.589950999999999,"lon":-8.3974399999999996},"country":"PT","_id":8011034,"name":"Adaúfe"},{"coord":{"lat":15.81667,"lon":79.983329999999995},"country":"IN","_id":1279356,"name":"Addanki"},{"coord":{"lat":52.016899000000002,"lon":-1.31192},"country":"GB","_id":2657684,"name":"Adderbury"},{"coord":{"lat":11.26667,"lon":37.483330000000002},"country":"ET","_id":345353,"name":"Addiet Canna"},{"coord":{"lat":53.944519,"lon":-1.8842399999999999},"country":"GB","_id":2657680,"name":"Addingham"},{"coord":{"lat":51.349997999999999,"lon":-0.033329999999999999},"country":"GB","_id":2657678,"name":"Addington"},{"coord":{"lat":30.3538,"lon":-91.265388000000002},"country":"US","_id":4314409,"name":"Addis"},{"coord":{"lat":9.0249699999999997,"lon":38.746890999999998},"country":"ET","_id":344979,"name":"Addis Ababa"},{"coord":{"lat":41.931702000000001,"lon":-87.988960000000006},"country":"US","_id":4882920,"name":"Addison"},{"coord":{"lat":32.961787999999999,"lon":-96.829170000000005},"country":"US","_id":4669828,"name":"Addison"},{"coord":{"lat":44.618408000000002,"lon":-67.744163999999998},"country":"US","_id":4956485,"name":"Addison"},{"coord":{"lat":42.102851999999999,"lon":-77.233588999999995},"country":"US","_id":5106756,"name":"Addison"},{"coord":{"lat":44.050060000000002,"lon":-73.116225999999997},"country":"US","_id":5233146,"name":"Addison County"},{"coord":{"lat":38.855671000000001,"lon":-77.060256999999993},"country":"US","_id":4743935,"name":"Addison Heights"},{"coord":{"lat":51.371349000000002,"lon":-0.49353000000000002},"country":"GB","_id":2657676,"name":"Addlestone"},{"coord":{"lat":-33.548327999999998,"lon":25.689899},"country":"ZA","_id":1023672,"name":"Addo"},{"coord":{"lat":41.099997999999999,"lon":-8.0500000000000007},"country":"PT","_id":2743400,"name":"Adega"},{"coord":{"lat":28.126328999999998,"lon":-16.743320000000001},"country":"ES","_id":6360619,"name":"Adeje"},{"coord":{"lat":28.122709,"lon":-16.725999999999999},"country":"ES","_id":2522437,"name":"Adeje"},{"coord":{"lat":31.137139999999999,"lon":-83.423491999999996},"country":"US","_id":4179193,"name":"Adel"},{"coord":{"lat":41.614429000000001,"lon":-94.017448000000002},"country":"US","_id":4846398,"name":"Adel"},{"coord":{"lat":12.44164,"lon":120.972908},"country":"PH","_id":1732246,"name":"Adela"},{"coord":{"lat":-34.933331000000003,"lon":138.60000600000001},"country":"AU","_id":2078025,"name":"Adelaide"},{"coord":{"lat":-34.920501999999999,"lon":138.60058599999999},"country":"AU","_id":7839644,"name":"Adelaide"},{"coord":{"lat":-32.707470000000001,"lon":26.295641},"country":"ZA","_id":1023656,"name":"Adelaide"},{"coord":{"lat":-34.901031000000003,"lon":138.854568},"country":"AU","_id":7839645,"name":"Adelaide Hills"},{"coord":{"lat":-34.911178999999997,"lon":138.70735199999999},"country":"AU","_id":7302628,"name":"Adelaide Hills"},{"coord":{"lat":-37.066668999999997,"lon":143.683334},"country":"AU","_id":2178276,"name":"Adelaide Lead"},{"coord":{"lat":-13.23786,"lon":131.10560599999999},"country":"AU","_id":2078024,"name":"Adelaide River"},{"coord":{"lat":34.582771000000001,"lon":-117.409218},"country":"US","_id":5322400,"name":"Adelanto"},{"coord":{"lat":48.766700999999998,"lon":9.5999999999999996},"country":"DE","_id":6555436,"name":"Adelberg"},{"coord":{"lat":48.762272000000003,"lon":9.5999099999999995},"country":"DE","_id":2959553,"name":"Adelberg"},{"coord":{"lat":46.473689999999998,"lon":7.5551599999999999},"country":"CH","_id":7285020,"name":"Adelboden"},{"coord":{"lat":46.491421000000003,"lon":7.5603100000000003},"country":"CH","_id":2661863,"name":"Adelboden"},{"coord":{"lat":51.583328000000002,"lon":9.75},"country":"DE","_id":2959548,"name":"Adelebsen"},{"coord":{"lat":41.00423,"lon":16.871690999999998},"country":"IT","_id":6538938,"name":"Adelfia"},{"coord":{"lat":41.00423,"lon":16.871690999999998},"country":"IT","_id":3183472,"name":"Adelfia"},{"coord":{"lat":52.549999,"lon":10.050000000000001},"country":"DE","_id":6552549,"name":"Adelheidsdorf"},{"coord":{"lat":52.564041000000003,"lon":10.06039},"country":"DE","_id":2959538,"name":"Adelheidsdorf"},{"coord":{"lat":-33.631518999999997,"lon":-64.020972999999998},"country":"AR","_id":3866935,"name":"Adelia Maria"},{"coord":{"lat":49.216670999999998,"lon":10.75},"country":"DE","_id":2959532,"name":"Adelmannsdorf"},{"coord":{"lat":48.954819000000001,"lon":10.004429999999999},"country":"DE","_id":6555575,"name":"Adelmannsfelden"},{"coord":{"lat":48.954762000000002,"lon":10.004659999999999},"country":"DE","_id":2959530,"name":"Adelmannsfelden"},{"coord":{"lat":-35.316668999999997,"lon":148.050003},"country":"AU","_id":2178267,"name":"Adelong"},{"coord":{"lat":11.20969,"lon":-60.717731000000001},"country":"TT","_id":3575073,"name":"Adelphi"},{"coord":{"lat":39.003169999999997,"lon":-76.971915999999993},"country":"US","_id":4346991,"name":"Adelphi"},{"coord":{"lat":48.833302000000003,"lon":11.216699999999999},"country":"DE","_id":6556162,"name":"Adelschlag"},{"coord":{"lat":48.833328000000002,"lon":11.216670000000001},"country":"DE","_id":2959516,"name":"Adelschlag"},{"coord":{"lat":49.483330000000002,"lon":10.68333},"country":"DE","_id":2959514,"name":"Adelsdorf"},{"coord":{"lat":49.716701999999998,"lon":10.9},"country":"DE","_id":6556862,"name":"Adelsdorf"},{"coord":{"lat":49.712158000000002,"lon":10.895},"country":"DE","_id":2959513,"name":"Adelsdorf"},{"coord":{"lat":49.40361,"lon":9.3933300000000006},"country":"DE","_id":2959508,"name":"Adelsheim"},{"coord":{"lat":48.183300000000003,"lon":11.1167},"country":"DE","_id":6556214,"name":"Adelshofen"},{"coord":{"lat":48.183331000000003,"lon":11.116669999999999},"country":"DE","_id":2959504,"name":"Adelshofen"},{"coord":{"lat":49.433300000000003,"lon":10.166700000000001},"country":"DE","_id":6556834,"name":"Adelshofen"},{"coord":{"lat":49.433331000000003,"lon":10.16667},"country":"DE","_id":2959502,"name":"Adelshofen"},{"coord":{"lat":48.416697999999997,"lon":10.716699999999999},"country":"DE","_id":6557126,"name":"Adelsried"},{"coord":{"lat":48.416671999999998,"lon":10.716670000000001},"country":"DE","_id":2959498,"name":"Adelsried"},{"coord":{"lat":48.356200999999999,"lon":11.137700000000001},"country":"DE","_id":6557110,"name":"Adelzhausen"},{"coord":{"lat":48.356709000000002,"lon":11.13851},"country":"DE","_id":2959492,"name":"Adelzhausen"},{"coord":{"lat":40.075062000000003,"lon":-1.2234100000000001},"country":"ES","_id":6361866,"name":"Ademuz"},{"coord":{"lat":40.061390000000003,"lon":-1.28677},"country":"ES","_id":3130950,"name":"Ademuz"},{"coord":{"lat":49.033290999999998,"lon":-111.318336},"country":"CA","_id":5882351,"name":"Aden"},{"coord":{"lat":12.779439999999999,"lon":45.036670999999998},"country":"YE","_id":415189,"name":"Aden"},{"coord":{"lat":50.383330999999998,"lon":6.9333299999999998},"country":"DE","_id":2959489,"name":"Adenau"},{"coord":{"lat":49.666697999999997,"lon":7.6500000000000004},"country":"DE","_id":6555072,"name":"Adenbach"},{"coord":{"lat":49.666671999999998,"lon":7.6500000000000004},"country":"DE","_id":2959486,"name":"Adenbach"},{"coord":{"lat":52.383330999999998,"lon":10.449999999999999},"country":"DE","_id":2959482,"name":"Adenbuttel"},{"coord":{"lat":52.383301000000003,"lon":10.449999999999999},"country":"DE","_id":6552299,"name":"Adenbüttel"},{"coord":{"lat":53.283298000000002,"lon":10.449999999999999},"country":"DE","_id":6552666,"name":"Adendorf"},{"coord":{"lat":53.281891000000002,"lon":10.43787},"country":"DE","_id":2959479,"name":"Adendorf"},{"coord":{"lat":40.671669000000001,"lon":22.604441000000001},"country":"GR","_id":737002,"name":"Adendron"},{"coord":{"lat":52.17662,"lon":9.7293400000000005},"country":"DE","_id":2959476,"name":"Adensen"},{"coord":{"lat":52,"lon":9.9333299999999998},"country":"DE","_id":6552469,"name":"Adenstedt"},{"coord":{"lat":52.25,"lon":10.16667},"country":"DE","_id":2959474,"name":"Adenstedt"},{"coord":{"lat":51.998519999999999,"lon":9.9351599999999998},"country":"DE","_id":2959475,"name":"Adenstedt"},{"coord":{"lat":44.599997999999999,"lon":38.099997999999999},"country":"RU","_id":584257,"name":"Aderbiyevka"},{"coord":{"lat":50.583328000000002,"lon":6.25},"country":"DE","_id":2959471,"name":"Aderich"},{"coord":{"lat":48.277400999999998,"lon":16.533359999999998},"country":"AT","_id":7872855,"name":"Aderklaa"},{"coord":{"lat":48.283329000000002,"lon":16.533331},"country":"AT","_id":2782991,"name":"Aderklaa"},{"coord":{"lat":51.900002000000001,"lon":11.18333},"country":"DE","_id":2959465,"name":"Adersleben"},{"coord":{"lat":51.766669999999998,"lon":11.68333},"country":"DE","_id":2959463,"name":"Aderstedt"},{"coord":{"lat":25.288119999999999,"lon":55.881568999999999},"country":"AE","_id":292953,"name":"Adh Dhayd"},{"coord":{"lat":14.844440000000001,"lon":39.377220000000001},"country":"ER","_id":345046,"name":"Adi Keyh"},{"coord":{"lat":5.28634,"lon":-3.30402},"country":"CI","_id":2293428,"name":"Adiake"},{"coord":{"lat":9.3024000000000004,"lon":0.01983},"country":"GH","_id":2305894,"name":"Adibo"},{"coord":{"lat":41.681899999999999,"lon":42.698669000000002},"country":"GE","_id":615973,"name":"Adigeni"},{"coord":{"lat":14.276999999999999,"lon":39.462001999999998},"country":"ET","_id":345149,"name":"Adigrat"},{"coord":{"lat":43.563277999999997,"lon":46.584620999999999},"country":"RU","_id":584248,"name":"Adil-Yangiyurt"},{"coord":{"lat":19.66667,"lon":78.533332999999999},"country":"IN","_id":1279344,"name":"Adilabad"},{"coord":{"lat":38.803890000000003,"lon":42.734219000000003},"country":"TR","_id":325336,"name":"Adilcevaz"},{"coord":{"lat":27.936969999999999,"lon":69.318680000000001},"country":"PK","_id":1162035,"name":"Adilpur"},{"coord":{"lat":42.686351999999999,"lon":-1.73532},"country":"ES","_id":3130946,"name":"Adios"},{"coord":{"lat":-7.6597200000000001,"lon":109.150002},"country":"ID","_id":1651888,"name":"Adipala"},{"coord":{"lat":31.202169000000001,"lon":35.761550999999997},"country":"JO","_id":250821,"name":"Adir"},{"coord":{"lat":10.35,"lon":79.400002000000001},"country":"IN","_id":1278204,"name":"Adirampattinam"},{"coord":{"lat":-8.2120099999999994,"lon":112.63874800000001},"country":"ID","_id":7526714,"name":"Adirejo"},{"coord":{"lat":9.0333299999999994,"lon":38.400002000000001},"country":"ET","_id":344976,"name":"Adis Alem"},{"coord":{"lat":12.116669999999999,"lon":37.783329000000002},"country":"ET","_id":344923,"name":"Adis Zemen"},{"coord":{"lat":-6.9375,"lon":109.13249999999999},"country":"ID","_id":1651887,"name":"Adiwerna"},{"coord":{"lat":37.764408000000003,"lon":38.276291000000001},"country":"TR","_id":325330,"name":"Adiyaman"},{"coord":{"lat":42.697788000000003,"lon":-1.73417},"country":"ES","_id":6359556,"name":"Adiós"},{"coord":{"lat":46.099997999999999,"lon":27.16667},"country":"RO","_id":686669,"name":"Adjud"},{"coord":{"lat":3.3778600000000001,"lon":31.790899},"country":"UG","_id":235489,"name":"Adjumani"},{"coord":{"lat":3.25,"lon":31.75},"country":"UG","_id":443782,"name":"Adjumani District"},{"coord":{"lat":18.162741,"lon":-66.722121999999999},"country":"PR","_id":4562487,"name":"Adjuntas"},{"coord":{"lat":18.158488999999999,"lon":-66.801772999999997},"country":"PR","_id":4562485,"name":"Adjuntas"},{"coord":{"lat":9.4097200000000001,"lon":125.897499},"country":"PH","_id":1732229,"name":"Adlay"},{"coord":{"lat":48.633330999999998,"lon":12.83333},"country":"DE","_id":2959454,"name":"Adldorf"},{"coord":{"lat":43.43,"lon":39.919998},"country":"RU","_id":584243,"name":"Adler"},{"coord":{"lat":52.435478000000003,"lon":13.548249999999999},"country":"DE","_id":2959441,"name":"Adlershof"},{"coord":{"lat":45.533329000000002,"lon":15.31667},"country":"SI","_id":3204870,"name":"Adlešiči"},{"coord":{"lat":48.783329000000002,"lon":12.01667},"country":"DE","_id":2959431,"name":"Adlhausen"},{"coord":{"lat":47.072330000000001,"lon":8.3684100000000008},"country":"CH","_id":7285021,"name":"Adligenswil"},{"coord":{"lat":47.065207999999998,"lon":8.3612400000000004},"country":"CH","_id":2661862,"name":"Adligenswil"},{"coord":{"lat":53.613232000000004,"lon":-2.60676},"country":"GB","_id":2657668,"name":"Adlington"},{"coord":{"lat":53.320419000000001,"lon":-2.1365799999999999},"country":"GB","_id":6693201,"name":"Adlington"},{"coord":{"lat":47.309341000000003,"lon":8.5212699999999995},"country":"CH","_id":7285023,"name":"Adliswil"},{"coord":{"lat":47.309970999999997,"lon":8.5246200000000005},"country":"CH","_id":2661861,"name":"Adliswil"},{"coord":{"lat":47.311278999999999,"lon":8.5267499999999998},"country":"CH","_id":6292636,"name":"Adliswil \/ Adliswil (Stadtkern)"},{"coord":{"lat":47.316367999999997,"lon":8.5188799999999993},"country":"CH","_id":6292639,"name":"Adliswil \/ Huendli-Zopf"},{"coord":{"lat":47.320202000000002,"lon":8.5150799999999993},"country":"CH","_id":6292637,"name":"Adliswil \/ Oberleimbach"},{"coord":{"lat":47.309581999999999,"lon":8.5205500000000001},"country":"CH","_id":6292641,"name":"Adliswil \/ Sonnenberg"},{"coord":{"lat":47.318699000000002,"lon":8.5242500000000003},"country":"CH","_id":6292638,"name":"Adliswil \/ Sood"},{"coord":{"lat":47.311419999999998,"lon":8.5344599999999993},"country":"CH","_id":6292642,"name":"Adliswil \/ Tal"},{"coord":{"lat":48.549999,"lon":12.2667},"country":"DE","_id":6556499,"name":"Adlkofen"},{"coord":{"lat":48.549999,"lon":12.26667},"country":"DE","_id":2959422,"name":"Adlkofen"},{"coord":{"lat":54.133330999999998,"lon":12},"country":"DE","_id":2959414,"name":"Admannshagen"},{"coord":{"lat":54.116698999999997,"lon":11.9833},"country":"DE","_id":6547757,"name":"Admannshagen-Bargeshagen"},{"coord":{"lat":54.130378999999998,"lon":11.99915},"country":"DE","_id":3209174,"name":"Admannshagen-Bargeshagen"},{"coord":{"lat":49.716759000000003,"lon":-108.01805899999999},"country":"CA","_id":5882375,"name":"Admiral"},{"coord":{"lat":47.561549999999997,"lon":14.471880000000001},"country":"AT","_id":7872432,"name":"Admont"},{"coord":{"lat":47.575370999999997,"lon":14.460750000000001},"country":"AT","_id":2782979,"name":"Admont"},{"coord":{"lat":47.710732,"lon":13.16122},"country":"AT","_id":7872195,"name":"Adnet"},{"coord":{"lat":47.683331000000003,"lon":13.133330000000001},"country":"AT","_id":2782976,"name":"Adnet"},{"coord":{"lat":6.5999999999999996,"lon":2.9333300000000002},"country":"NG","_id":2352356,"name":"Ado Odo"},{"coord":{"lat":7.6210000000000004,"lon":5.2214999999999998},"country":"NG","_id":2352379,"name":"Ado-Ekiti"},{"coord":{"lat":40.672459000000003,"lon":-1.66744},"country":"ES","_id":6357808,"name":"Adobes"},{"coord":{"lat":40.675837999999999,"lon":-1.67916},"country":"ES","_id":3130943,"name":"Adobes"},{"coord":{"lat":2.1499999999999999,"lon":32.549999},"country":"UG","_id":235483,"name":"Adok"},{"coord":{"lat":-21.235001,"lon":-49.643608},"country":"BR","_id":3473149,"name":"Adolfo"},{"coord":{"lat":-38.033329000000002,"lon":-60.099997999999999},"country":"AR","_id":3866923,"name":"Adolfo Gonzáles Chaves"},{"coord":{"lat":28.466669,"lon":-107.300003},"country":"MX","_id":3976161,"name":"Adolfo Lopez Mateos"},{"coord":{"lat":25.75,"lon":-108.75},"country":"MX","_id":4019727,"name":"Adolfo Ruiz Cortines"},{"coord":{"lat":51.266669999999998,"lon":14.449999999999999},"country":"DE","_id":2959400,"name":"Adolfshütte"},{"coord":{"lat":15.633330000000001,"lon":77.283332999999999},"country":"IN","_id":1279335,"name":"Adoni"},{"coord":{"lat":47.119399999999999,"lon":18.864929},"country":"HU","_id":3056414,"name":"Adony"},{"coord":{"lat":38.933399000000001,"lon":-0.24581},"country":"ES","_id":6361867,"name":"Ador"},{"coord":{"lat":38.918227999999999,"lon":-0.22247},"country":"ES","_id":2522432,"name":"Ador"},{"coord":{"lat":50.316668999999997,"lon":12.26667},"country":"DE","_id":2959390,"name":"Adorf"},{"coord":{"lat":45.997219000000001,"lon":20.040279000000002},"country":"RS","_id":787747,"name":"Adorjan"},{"coord":{"lat":6.97661,"lon":7.1626799999999999},"country":"NG","_id":2352352,"name":"Adoru"},{"coord":{"lat":41.350990000000003,"lon":-7.7370599999999996},"country":"PT","_id":8013713,"name":"Adoufe"},{"coord":{"lat":41.340698000000003,"lon":-7.7378600000000004},"country":"PT","_id":2743382,"name":"Adoufe"},