[{"coord":{"lat":43.383991000000002,"lon":-2.5833400000000002},"country":"ES","_id":6362373,"name":"Ea"},{"coord":{"lat":43.379848000000003,"lon":-2.5855600000000001},"country":"ES","_id":3123759,"name":"Ea"},{"coord":{"lat":53.202781999999999,"lon":-6.5780599999999998},"country":"IE","_id":3315200,"name":"Eadestown"},{"coord":{"lat":38.480559999999997,"lon":-102.78185999999999},"country":"US","_id":5420323,"name":"Eads"},{"coord":{"lat":44.804130999999998,"lon":-93.166893000000002},"country":"US","_id":5024825,"name":"Eagan"},{"coord":{"lat":34.111159999999998,"lon":-109.291481},"country":"US","_id":5293569,"name":"Eagar"},{"coord":{"lat":43.695438000000003,"lon":-116.354012},"country":"US","_id":5591778,"name":"Eagle"},{"coord":{"lat":40.816668999999997,"lon":-96.430289999999999},"country":"US","_id":5067285,"name":"Eagle"},{"coord":{"lat":42.879458999999997,"lon":-88.474258000000006},"country":"US","_id":5251122,"name":"Eagle"},{"coord":{"lat":39.655258000000003,"lon":-106.82865099999999},"country":"US","_id":5420328,"name":"Eagle"},{"coord":{"lat":49.263660000000002,"lon":-119.505188},"country":"CA","_id":5944680,"name":"Eagle Bluff"},{"coord":{"lat":49.600051999999998,"lon":-110.434898},"country":"CA","_id":5944684,"name":"Eagle Butte"},{"coord":{"lat":45.002479999999998,"lon":-101.233482},"country":"US","_id":5764369,"name":"Eagle Butte"},{"coord":{"lat":39.633319999999998,"lon":-106.700592},"country":"US","_id":5420332,"name":"Eagle County"},{"coord":{"lat":48.698051,"lon":-111.21054100000001},"country":"US","_id":5649823,"name":"Eagle Creek Colony"},{"coord":{"lat":42.664138999999999,"lon":-93.904387999999997},"country":"US","_id":4854745,"name":"Eagle Grove"},{"coord":{"lat":-27.933330999999999,"lon":153.199997},"country":"AU","_id":2167966,"name":"Eagle Heights"},{"coord":{"lat":27.978359000000001,"lon":-81.756469999999993},"country":"US","_id":4153884,"name":"Eagle Lake"},{"coord":{"lat":29.589680000000001,"lon":-96.333579999999998},"country":"US","_id":4687579,"name":"Eagle Lake"},{"coord":{"lat":44.164969999999997,"lon":-93.881339999999994},"country":"US","_id":5024846,"name":"Eagle Lake"},{"coord":{"lat":42.706958999999998,"lon":-88.128142999999994},"country":"US","_id":5251145,"name":"Eagle Lake"},{"coord":{"lat":40.314121,"lon":-112.006882},"country":"US","_id":5774215,"name":"Eagle Mountain"},{"coord":{"lat":32.893459,"lon":-97.444457999999997},"country":"US","_id":4687588,"name":"Eagle Mountain"},{"coord":{"lat":28.709140999999999,"lon":-100.49951900000001},"country":"US","_id":5520677,"name":"Eagle Pass"},{"coord":{"lat":-37.900002000000001,"lon":147.683334},"country":"AU","_id":2167962,"name":"Eagle Point"},{"coord":{"lat":42.472630000000002,"lon":-122.802818},"country":"US","_id":5724581,"name":"Eagle Point"},{"coord":{"lat":61.321387999999999,"lon":-149.56778},"country":"US","_id":5861187,"name":"Eagle River"},{"coord":{"lat":49.791930999999998,"lon":-93.194748000000004},"country":"CA","_id":5944872,"name":"Eagle River"},{"coord":{"lat":47.413811000000003,"lon":-88.295661999999993},"country":"US","_id":4991470,"name":"Eagle River"},{"coord":{"lat":45.917178999999997,"lon":-89.244300999999993},"country":"US","_id":5251171,"name":"Eagle River"},{"coord":{"lat":64.780563000000001,"lon":-141.113617},"country":"US","_id":5861202,"name":"Eagle Village"},{"coord":{"lat":-27.683330999999999,"lon":153.21667500000001},"country":"AU","_id":2167983,"name":"Eagleby"},{"coord":{"lat":-36.733330000000002,"lon":144.25},"country":"AU","_id":2167973,"name":"Eaglehawk"},{"coord":{"lat":54.525210999999999,"lon":-1.35043},"country":"GB","_id":6694830,"name":"Eaglescliffe"},{"coord":{"lat":55.783360000000002,"lon":-117.885986},"country":"CA","_id":5944893,"name":"Eaglesham"},{"coord":{"lat":55.741191999999998,"lon":-4.2745899999999999},"country":"GB","_id":2650572,"name":"Eaglesham"},{"coord":{"lat":35.795077999999997,"lon":-83.931847000000005},"country":"US","_id":4619893,"name":"Eagleton Village"},{"coord":{"lat":40.159550000000003,"lon":-75.408241000000004},"country":"US","_id":5187727,"name":"Eagleville"},{"coord":{"lat":51.512821000000002,"lon":-0.30230000000000001},"country":"GB","_id":3333145,"name":"Ealing"},{"coord":{"lat":51.512160999999999,"lon":-0.30203999999999998},"country":"GB","_id":2650567,"name":"Ealing"},{"coord":{"lat":58.428328999999998,"lon":24.459720999999998},"country":"EE","_id":592322,"name":"Eametsa"},{"coord":{"lat":50.639549000000002,"lon":-93.235259999999997},"country":"CA","_id":5944935,"name":"Ear Falls"},{"coord":{"lat":53.915458999999998,"lon":-2.1428500000000001},"country":"GB","_id":2650563,"name":"Earby"},{"coord":{"lat":52.354221000000003,"lon":0.03056},"country":"GB","_id":2650558,"name":"Earith"},{"coord":{"lat":52.576819999999998,"lon":-1.3153600000000001},"country":"GB","_id":6693007,"name":"Earl Shilton"},{"coord":{"lat":35.275089000000001,"lon":-90.466766000000007},"country":"US","_id":4109406,"name":"Earle"},{"coord":{"lat":51.442988999999997,"lon":-0.92127000000000003},"country":"GB","_id":7290900,"name":"Earley"},{"coord":{"lat":51.440849,"lon":-0.92383999999999999},"country":"GB","_id":2650555,"name":"Earley"},{"coord":{"lat":41.491928000000001,"lon":-94.124122999999997},"country":"US","_id":4854792,"name":"Earlham"},{"coord":{"lat":35.884121,"lon":-119.27233099999999},"country":"US","_id":5344702,"name":"Earlimart"},{"coord":{"lat":37.274211999999999,"lon":-87.511939999999996},"country":"US","_id":4290685,"name":"Earlington"},{"coord":{"lat":52.266269999999999,"lon":-0.75248000000000004},"country":"GB","_id":2650552,"name":"Earls Barton"},{"coord":{"lat":51.927441000000002,"lon":0.70106999999999997},"country":"GB","_id":2650550,"name":"Earls Colne"},{"coord":{"lat":51.443900999999997,"lon":-0.18540000000000001},"country":"GB","_id":8063096,"name":"Earlsfield"},{"coord":{"lat":-36.549999,"lon":145.66667200000001},"country":"AU","_id":2167951,"name":"Earlston"},{"coord":{"lat":55.638561000000003,"lon":-2.6749499999999999},"country":"GB","_id":2650541,"name":"Earlston"},{"coord":{"lat":40.006191000000001,"lon":-78.370018000000002},"country":"US","_id":5187745,"name":"Earlston"},{"coord":{"lat":47.716861999999999,"lon":-79.816390999999996},"country":"CA","_id":5944975,"name":"Earlton"},{"coord":{"lat":41.589480999999999,"lon":-88.922027999999997},"country":"US","_id":4890441,"name":"Earlville"},{"coord":{"lat":-33.950001,"lon":151.10000600000001},"country":"AU","_id":2167949,"name":"Earlwood"},{"coord":{"lat":31.742100000000001,"lon":-98.945610000000002},"country":"US","_id":4687635,"name":"Early"},{"coord":{"lat":34.233139000000001,"lon":-102.410751},"country":"US","_id":5520687,"name":"Earth, TX"},{"coord":{"lat":53.653590999999999,"lon":0.11501},"country":"GB","_id":2650519,"name":"Easington"},{"coord":{"lat":17.923969,"lon":-76.588241999999994},"country":"JM","_id":3490616,"name":"Easington"},{"coord":{"lat":54.787922000000002,"lon":-1.32819},"country":"GB","_id":7287966,"name":"Easington Colliery"},{"coord":{"lat":54.119098999999999,"lon":-1.19225},"country":"GB","_id":2650517,"name":"Easingwold"},{"coord":{"lat":34.829841999999999,"lon":-82.601517000000001},"country":"US","_id":4577263,"name":"Easley"},{"coord":{"lat":45.333430999999997,"lon":-64.765472000000003},"country":"CA","_id":5945003,"name":"East Advocate"},{"coord":{"lat":38.880329000000003,"lon":-90.111221},"country":"US","_id":4237473,"name":"East Alton"},{"coord":{"lat":45.483378999999999,"lon":-71.665771000000007},"country":"CA","_id":5945016,"name":"East Angus"},{"coord":{"lat":-12.66175,"lon":135.82281499999999},"country":"AU","_id":7839403,"name":"East Arnhem"},{"coord":{"lat":40.789822000000001,"lon":-73.747078000000002},"country":"US","_id":5115703,"name":"East Atlantic Beach"},{"coord":{"lat":42.767840999999997,"lon":-78.613358000000005},"country":"US","_id":5115704,"name":"East Aurora"},{"coord":{"lat":55.5,"lon":-4.25},"country":"GB","_id":3333226,"name":"East Ayrshire"},{"coord":{"lat":54.254798999999998,"lon":-0.47482999999999997},"country":"GB","_id":6620306,"name":"East Ayton"},{"coord":{"lat":-28.866671,"lon":153.58332799999999},"country":"AU","_id":2167943,"name":"East Ballina"},{"coord":{"lat":40.879539000000001,"lon":-75.183791999999997},"country":"US","_id":5187760,"name":"East Bangor"},{"coord":{"lat":51.25,"lon":0.46666999999999997},"country":"GB","_id":2650503,"name":"East Barming"},{"coord":{"lat":-17.316669000000001,"lon":145.53332499999999},"country":"AU","_id":2167939,"name":"East Barron"},{"coord":{"lat":52.869090999999997,"lon":0.84792000000000001},"country":"GB","_id":2650500,"name":"East Barsham"},{"coord":{"lat":30.516859,"lon":-91.100112999999993},"country":"US","_id":4323288,"name":"East Baton Rouge Parish"},{"coord":{"lat":44.752541000000001,"lon":-73.470139000000003},"country":"US","_id":5115722,"name":"East Beekmantown"},{"coord":{"lat":4,"lon":-58.166671999999998},"country":"GY","_id":3378840,"name":"East Berbice-Corentyne Region"},{"coord":{"lat":51.977851999999999,"lon":1.0176099999999999},"country":"GB","_id":2650499,"name":"East Bergholt"},{"coord":{"lat":39.937598999999999,"lon":-76.978592000000006},"country":"US","_id":4557666,"name":"East Berlin"},{"coord":{"lat":29.531071000000001,"lon":-96.071067999999997},"country":"US","_id":4687678,"name":"East Bernard"},{"coord":{"lat":41.062030999999998,"lon":-76.222426999999996},"country":"US","_id":5187767,"name":"East Berwick"},{"coord":{"lat":42.931449999999998,"lon":-78.101401999999993},"country":"US","_id":5115728,"name":"East Bethany"},{"coord":{"lat":45.319408000000003,"lon":-93.202454000000003},"country":"US","_id":5024937,"name":"East Bethel"},{"coord":{"lat":34.995911,"lon":-85.150229999999993},"country":"US","_id":4619943,"name":"East Brainerd"},{"coord":{"lat":49.619388999999998,"lon":-95.623817000000003},"country":"CA","_id":5945137,"name":"East Braintree"},{"coord":{"lat":31.093229000000001,"lon":-87.062752000000003},"country":"US","_id":4059831,"name":"East Brewton"},{"coord":{"lat":42.033428000000001,"lon":-70.959213000000005},"country":"US","_id":4935330,"name":"East Bridgewater"},{"coord":{"lat":52.979542000000002,"lon":-0.96562999999999999},"country":"GB","_id":2650495,"name":"East Bridgford"},{"coord":{"lat":-27.483329999999999,"lon":153.04167200000001},"country":"AU","_id":2207258,"name":"East Brisbane"},{"coord":{"lat":29.45928,"lon":-82.590401},"country":"US","_id":7259697,"name":"East Bronson"},{"coord":{"lat":44.027560999999999,"lon":-72.571487000000005},"country":"US","_id":5235663,"name":"East Brookfield"},{"coord":{"lat":42.227871,"lon":-72.046738000000005},"country":"US","_id":4935347,"name":"East Brookfield"},{"coord":{"lat":41.796768,"lon":-71.897293000000005},"country":"US","_id":4833279,"name":"East Brooklyn"},{"coord":{"lat":40.427878999999997,"lon":-74.415976999999998},"country":"US","_id":5097402,"name":"East Brunswick"},{"coord":{"lat":55.891860999999999,"lon":-3.4637199999999999},"country":"GB","_id":2650489,"name":"East Calder"},{"coord":{"lat":40.787281,"lon":-81.282607999999996},"country":"US","_id":5152579,"name":"East Canton"},{"coord":{"lat":39.547741000000002,"lon":-110.414879},"country":"US","_id":5538668,"name":"East Carbon City"},{"coord":{"lat":43.558841999999999,"lon":-94.365250000000003},"country":"US","_id":5024967,"name":"East Chain"},{"coord":{"lat":35.065350000000002,"lon":-85.249122999999997},"country":"US","_id":4619947,"name":"East Chattanooga"},{"coord":{"lat":55.283329000000002,"lon":-1.5833299999999999},"country":"GB","_id":2650484,"name":"East Chevington"},{"coord":{"lat":44.716850000000001,"lon":-63.231971999999999},"country":"CA","_id":5945299,"name":"East Chezzetcook"},{"coord":{"lat":41.639198,"lon":-87.454757999999998},"country":"US","_id":4919857,"name":"East Chicago"},{"coord":{"lat":43.524791999999998,"lon":-72.938987999999995},"country":"US","_id":5235681,"name":"East Clarendon"},{"coord":{"lat":41.533112000000003,"lon":-81.579009999999997},"country":"US","_id":5152599,"name":"East Cleveland"},{"coord":{"lat":35.160912000000003,"lon":-84.857719000000003},"country":"US","_id":4619955,"name":"East Cleveland"},{"coord":{"lat":43.242019999999997,"lon":-71.538132000000004},"country":"US","_id":5085688,"name":"East Concord"},{"coord":{"lat":40.348678999999997,"lon":-78.883635999999996},"country":"US","_id":5187874,"name":"East Conemaugh"},{"coord":{"lat":42.34948,"lon":-85.551665999999997},"country":"US","_id":4991572,"name":"East Cooper"},{"coord":{"lat":51.333419999999997,"lon":-112.485153},"country":"CA","_id":5945311,"name":"East Coulee"},{"coord":{"lat":51.375,"lon":-0.092499999999999999},"country":"GB","_id":6619866,"name":"East Croydon Railway Station"},{"coord":{"lat":51.039791000000001,"lon":-1.60941},"country":"GB","_id":2650471,"name":"East Dean"},{"coord":{"lat":41.742610999999997,"lon":-70.161957000000001},"country":"US","_id":4935370,"name":"East Dennis"},{"coord":{"lat":52.683331000000003,"lon":0.93332999999999999},"country":"GB","_id":2650470,"name":"East Dereham"},{"coord":{"lat":50.756321,"lon":-3.2348699999999999},"country":"GB","_id":7290674,"name":"East Devon District"},{"coord":{"lat":50.866900999999999,"lon":-1.976},"country":"GB","_id":7290681,"name":"East Dorset District"},{"coord":{"lat":42.072319,"lon":-71.713402000000002},"country":"US","_id":4935372,"name":"East Douglas"},{"coord":{"lat":32.548222000000003,"lon":-82.871810999999994},"country":"US","_id":4192606,"name":"East Dublin"},{"coord":{"lat":42.492229000000002,"lon":-90.642905999999996},"country":"US","_id":4890497,"name":"East Dubuque"},{"coord":{"lat":55.933331000000003,"lon":-4.2000000000000002},"country":"GB","_id":3333227,"name":"East Dunbartonshire"},{"coord":{"lat":42.098911000000001,"lon":-88.271468999999996},"country":"US","_id":4890486,"name":"East Dundee"},{"coord":{"lat":40.110100000000003,"lon":-76.032722000000007},"country":"US","_id":5187889,"name":"East Earl"},{"coord":{"lat":19.299999,"lon":-81.116669000000002},"country":"KY","_id":3580678,"name":"East End"},{"coord":{"lat":34.550651999999999,"lon":-92.340987999999996},"country":"US","_id":4109452,"name":"East End"},{"coord":{"lat":41.578442000000003,"lon":-70.558639999999997},"country":"US","_id":4832176,"name":"East Falmouth"},{"coord":{"lat":40.729270999999997,"lon":-73.416786000000002},"country":"US","_id":5115838,"name":"East Farmingdale"},{"coord":{"lat":35.211399,"lon":-111.61322},"country":"US","_id":5293685,"name":"East Flagstaff"},{"coord":{"lat":35.280121000000001,"lon":-82.422058000000007},"country":"US","_id":4464564,"name":"East Flat Rock"},{"coord":{"lat":34.809528,"lon":-87.649467000000001},"country":"US","_id":4059870,"name":"East Florence"},{"coord":{"lat":43.273128999999997,"lon":-75.267669999999995},"country":"US","_id":5115844,"name":"East Floyd"},{"coord":{"lat":37.381050000000002,"lon":-121.81745100000001},"country":"US","_id":5344844,"name":"East Foothills"},{"coord":{"lat":40.280940999999999,"lon":-74.251259000000005},"country":"US","_id":5097419,"name":"East Freehold"},{"coord":{"lat":-32.036541,"lon":115.767143},"country":"AU","_id":7839504,"name":"East Fremantle"},{"coord":{"lat":-32.038891,"lon":115.76667},"country":"AU","_id":2078894,"name":"East Fremantle"},{"coord":{"lat":35.080131999999999,"lon":-81.632874000000001},"country":"US","_id":4577314,"name":"East Gaffney"},{"coord":{"lat":40.730831000000002,"lon":-73.598061000000001},"country":"US","_id":5115854,"name":"East Garden City"},{"coord":{"lat":-37.345638000000001,"lon":148.58294699999999},"country":"AU","_id":7839541,"name":"East Gippsland"},{"coord":{"lat":48.441360000000003,"lon":-113.218147},"country":"US","_id":5650243,"name":"East Glacier Park"},{"coord":{"lat":42.89452,"lon":-73.927902000000003},"country":"US","_id":5115857,"name":"East Glenville"},{"coord":{"lat":-33.433331000000003,"lon":151.35000600000001},"country":"AU","_id":2167882,"name":"East Gosford"},{"coord":{"lat":26.671671,"lon":-78.141388000000006},"country":"BS","_id":8030546,"name":"East Grand Bahama District"},{"coord":{"lat":47.929980999999998,"lon":-97.024520999999993},"country":"US","_id":5024996,"name":"East Grand Forks"},{"coord":{"lat":42.941139,"lon":-85.610031000000006},"country":"US","_id":4991600,"name":"East Grand Rapids"},{"coord":{"lat":42.590912000000003,"lon":-73.701790000000003},"country":"US","_id":5115860,"name":"East Greenbush"},{"coord":{"lat":40.406489999999998,"lon":-75.501846},"country":"US","_id":5187925,"name":"East Greenville"},{"coord":{"lat":41.660381000000001,"lon":-71.455887000000004},"country":"US","_id":5221875,"name":"East Greenwich"},{"coord":{"lat":33.243729000000002,"lon":-84.228813000000002},"country":"US","_id":4192627,"name":"East Griffin"},{"coord":{"lat":51.123821,"lon":-0.0061000000000000004},"country":"GB","_id":2650435,"name":"East Grinstead"},{"coord":{"lat":46.40802,"lon":-94.355842999999993},"country":"US","_id":5025001,"name":"East Gull Lake"},{"coord":{"lat":-33.416671999999998,"lon":149.28332499999999},"country":"AU","_id":2167880,"name":"East Guyong"},{"coord":{"lat":44.133411000000002,"lon":-79.416313000000002},"country":"CA","_id":5945707,"name":"East Gwillimbury"},{"coord":{"lat":41.453152000000003,"lon":-72.461196999999999},"country":"US","_id":4833363,"name":"East Haddam"},{"coord":{"lat":51.533329000000002,"lon":0.050000000000000003},"country":"GB","_id":2650430,"name":"East Ham"},{"coord":{"lat":51.039451999999997,"lon":-0.93676000000000004},"country":"GB","_id":7290554,"name":"East Hampshire District"},{"coord":{"lat":37.037368999999998,"lon":-76.331612000000007},"country":"US","_id":4756955,"name":"East Hampton"},{"coord":{"lat":41.575932000000002,"lon":-72.502585999999994},"country":"US","_id":4833387,"name":"East Hampton"},{"coord":{"lat":40.963428,"lon":-72.184798999999998},"country":"US","_id":5115871,"name":"East Hampton"},{"coord":{"lat":40.972759000000003,"lon":-72.189109999999999},"country":"US","_id":7258233,"name":"East Hampton North"},{"coord":{"lat":40.820098999999999,"lon":-74.364868000000001},"country":"US","_id":5097421,"name":"East Hanover"},{"coord":{"lat":52.438431000000001,"lon":0.93352999999999997},"country":"GB","_id":2650424,"name":"East Harling"},{"coord":{"lat":51.301108999999997,"lon":-2.6216699999999999},"country":"GB","_id":2650422,"name":"East Harptree"},{"coord":{"lat":41.782317999999997,"lon":-72.612030000000004},"country":"US","_id":4833403,"name":"East Hartford"},{"coord":{"lat":41.700111,"lon":-70.027237},"country":"US","_id":4935398,"name":"East Harwich"},{"coord":{"lat":41.276211000000004,"lon":-72.868431000000001},"country":"US","_id":4833425,"name":"East Haven"},{"coord":{"lat":41.573650000000001,"lon":-87.646431000000007},"country":"US","_id":4890513,"name":"East Hazel Crest"},{"coord":{"lat":46.589661,"lon":-111.91555},"country":"US","_id":5650245,"name":"East Helena"},{"coord":{"lat":33.740020999999999,"lon":-116.938911},"country":"US","_id":5344942,"name":"East Hemet"},{"coord":{"lat":51.865219000000003,"lon":0.0076099999999999996},"country":"GB","_id":7290565,"name":"East Hertfordshire District"},{"coord":{"lat":37.580978000000002,"lon":-77.406929000000005},"country":"US","_id":4756972,"name":"East Highland Park"},{"coord":{"lat":47.410519000000001,"lon":-122.17369100000001},"country":"US","_id":7261759,"name":"East Hill-Meridian"},{"coord":{"lat":-33.966670999999998,"lon":150.98333700000001},"country":"AU","_id":2167879,"name":"East Hills"},{"coord":{"lat":40.793709,"lon":-73.627067999999994},"country":"US","_id":5115904,"name":"East Hills"},{"coord":{"lat":51.273578999999998,"lon":-0.43207000000000001},"country":"GB","_id":2650411,"name":"East Horsley"},{"coord":{"lat":39.095557999999997,"lon":-94.355232000000001},"country":"US","_id":4385018,"name":"East Independence"},{"coord":{"lat":40.732039999999998,"lon":-73.185669000000004},"country":"US","_id":5115923,"name":"East Islip"},{"coord":{"lat":42.439521999999997,"lon":-76.478554000000003},"country":"US","_id":5115926,"name":"East Ithaca"},{"coord":{"lat":31.783359999999998,"lon":35.233879000000002},"country":"PS","_id":7303419,"name":"East Jerusalem"},{"coord":{"lat":45.158057999999997,"lon":-85.124229},"country":"US","_id":4991613,"name":"East Jordan"},{"coord":{"lat":53.894298999999997,"lon":-1.45221},"country":"GB","_id":6269412,"name":"East Keswick"},{"coord":{"lat":55.766669999999998,"lon":-4.1666699999999999},"country":"GB","_id":2650405,"name":"East Kilbride"},{"coord":{"lat":42.925640000000001,"lon":-71.016723999999996},"country":"US","_id":5085719,"name":"East Kingston"},{"coord":{"lat":44.428890000000003,"lon":-87.602310000000003},"country":"US","_id":5251321,"name":"East Krok"},{"coord":{"lat":33.924461000000001,"lon":-117.988953},"country":"US","_id":5344987,"name":"East La Mirada"},{"coord":{"lat":44.316848999999998,"lon":-64.365448000000001},"country":"CA","_id":5945789,"name":"East LaHave"},{"coord":{"lat":28.110849000000002,"lon":-82.694817},"country":"US","_id":4154008,"name":"East Lake"},{"coord":{"lat":27.982690999999999,"lon":-82.378776999999999},"country":"US","_id":7259705,"name":"East Lake-Orient Park"},{"coord":{"lat":39.945670999999997,"lon":-75.261291999999997},"country":"US","_id":4557699,"name":"East Lansdowne"},{"coord":{"lat":42.736980000000003,"lon":-84.483870999999994},"country":"US","_id":4991640,"name":"East Lansing"},{"coord":{"lat":56.666671999999998,"lon":-5.1333299999999999},"country":"GB","_id":2650401,"name":"East Laroch"},{"coord":{"lat":52.830151000000001,"lon":-1.18103},"country":"GB","_id":2650397,"name":"East Leake"},{"coord":{"lat":37.792912000000001,"lon":-79.425323000000006},"country":"US","_id":4756970,"name":"East Lexington"},{"coord":{"lat":53.267681000000003,"lon":0.021940000000000001},"country":"GB","_id":7290589,"name":"East Lindsey District"},{"coord":{"lat":55.987369999999999,"lon":-2.6568200000000002},"country":"GB","_id":2650392,"name":"East Linton"},{"coord":{"lat":-28.819330000000001,"lon":153.28743},"country":"AU","_id":6697124,"name":"East Lismore"},{"coord":{"lat":40.618679,"lon":-80.577292999999997},"country":"US","_id":5152709,"name":"East Liverpool"},{"coord":{"lat":-33.015289000000003,"lon":27.911619000000002},"country":"ZA","_id":1006984,"name":"East London"},{"coord":{"lat":42.064540999999998,"lon":-72.512589000000006},"country":"US","_id":4935434,"name":"East Longmeadow"},{"coord":{"lat":34.023899,"lon":-118.17202},"country":"US","_id":5344994,"name":"East Los Angeles"},{"coord":{"lat":55.916671999999998,"lon":-2.75},"country":"GB","_id":2650386,"name":"East Lothian"},{"coord":{"lat":-25.70664,"lon":28.277768999999999},"country":"ZA","_id":1006978,"name":"East Lynne"},{"coord":{"lat":40.946708999999998,"lon":25.334471000000001},"country":"GR","_id":6697803,"name":"East Macedonia and Thrace"},{"coord":{"lat":44.739238999999998,"lon":-67.389992000000007},"country":"US","_id":4963306,"name":"East Machias"},{"coord":{"lat":-32.75,"lon":151.58332799999999},"country":"AU","_id":2167869,"name":"East Maitland"},{"coord":{"lat":48.351661999999997,"lon":-107.609268},"country":"US","_id":5650265,"name":"East Malta Colony"},{"coord":{"lat":46.395729000000003,"lon":-61.074711000000001},"country":"CA","_id":6066140,"name":"East Margaree"},{"coord":{"lat":53.252209000000001,"lon":-0.89385000000000003},"country":"GB","_id":2650379,"name":"East Markham"},{"coord":{"lat":40.673431000000001,"lon":-73.436508000000003},"country":"US","_id":5115962,"name":"East Massapequa"},{"coord":{"lat":40.383121000000003,"lon":-79.806442000000004},"country":"US","_id":5187987,"name":"East McKeesport"},{"coord":{"lat":40.713988999999998,"lon":-73.559021000000001},"country":"US","_id":5115960,"name":"East Meadow"},{"coord":{"lat":-37.816668999999997,"lon":144.9879},"country":"AU","_id":6952201,"name":"East Melbourne"},{"coord":{"lat":42.868141000000001,"lon":-71.483397999999994},"country":"US","_id":5085735,"name":"East Merrimack"},{"coord":{"lat":7.6325000000000003,"lon":123.35916899999999},"country":"PH","_id":1958418,"name":"East Migpulao"},{"coord":{"lat":40.699950999999999,"lon":-111.81049299999999},"country":"US","_id":5774301,"name":"East Millcreek"},{"coord":{"lat":45.627547999999997,"lon":-68.574477999999999},"country":"US","_id":4963318,"name":"East Millinocket"},{"coord":{"lat":30.615190999999999,"lon":-87.021629000000004},"country":"US","_id":4154023,"name":"East Milton"},{"coord":{"lat":46.870761999999999,"lon":-113.94455000000001},"country":"US","_id":5650270,"name":"East Missoula"},{"coord":{"lat":51.398719999999997,"lon":-0.34916000000000003},"country":"GB","_id":2650376,"name":"East Molesey"},{"coord":{"lat":41.500869999999999,"lon":-90.444298000000003},"country":"US","_id":4890536,"name":"East Moline"},{"coord":{"lat":40.805098999999998,"lon":-72.760932999999994},"country":"US","_id":5115974,"name":"East Moriches"},{"coord":{"lat":26.13842,"lon":-81.766479000000004},"country":"US","_id":4154031,"name":"East Naples"},{"coord":{"lat":-4.6128299999999998,"lon":151.887756},"country":"PG","_id":2097853,"name":"East New Britain Province"},{"coord":{"lat":40.666770999999997,"lon":-73.882362000000001},"country":"US","_id":5115985,"name":"East New York"},{"coord":{"lat":40.748427999999997,"lon":-74.161811999999998},"country":"US","_id":5097438,"name":"East Newark"},{"coord":{"lat":33.350670000000001,"lon":-84.776604000000006},"country":"US","_id":4192686,"name":"East Newnan"},{"coord":{"lat":40.151772000000001,"lon":-75.336571000000006},"country":"US","_id":5188004,"name":"East Norriton"},{"coord":{"lat":52.448132000000001,"lon":-0.50663999999999998},"country":"GB","_id":7290602,"name":"East Northamptonshire District"},{"coord":{"lat":40.876759,"lon":-73.324562},"country":"US","_id":5115989,"name":"East Northport"},{"coord":{"lat":41.105651999999999,"lon":-73.398453000000003},"country":"US","_id":4833505,"name":"East Norwalk"},{"coord":{"lat":40.846770999999997,"lon":-73.535117999999997},"country":"US","_id":5115990,"name":"East Norwich"},{"coord":{"lat":37.787979,"lon":-120.80381800000001},"country":"US","_id":5345025,"name":"East Oakdale"},{"coord":{"lat":40.767319000000001,"lon":-74.204871999999995},"country":"US","_id":5097441,"name":"East Orange"},{"coord":{"lat":29.658300000000001,"lon":-81.598411999999996},"country":"US","_id":4154037,"name":"East Palatka"},{"coord":{"lat":40.833950000000002,"lon":-80.540351999999999},"country":"US","_id":5152794,"name":"East Palestine"},{"coord":{"lat":37.468829999999997,"lon":-122.14108299999999},"country":"US","_id":5345032,"name":"East Palo Alto"},{"coord":{"lat":50.773429999999998,"lon":-1.8624400000000001},"country":"GB","_id":2650358,"name":"East Parley"},{"coord":{"lat":34.146118000000001,"lon":-118.094238},"country":"US","_id":5345038,"name":"East Pasadena"},{"coord":{"lat":40.767040000000001,"lon":-72.996223000000001},"country":"US","_id":5116004,"name":"East Patchogue"},{"coord":{"lat":51.212341000000002,"lon":0.38624000000000003},"country":"GB","_id":2650357,"name":"East Peckham"},{"coord":{"lat":30.428809999999999,"lon":-87.179969999999997},"country":"US","_id":4154047,"name":"East Pensacola Heights"},{"coord":{"lat":40.666148999999997,"lon":-89.580100999999999},"country":"US","_id":4890549,"name":"East Peoria"},{"coord":{"lat":42.665371,"lon":-71.573120000000003},"country":"US","_id":4935482,"name":"East Pepperell"},{"coord":{"lat":25.608720999999999,"lon":-80.338943},"country":"US","_id":4154051,"name":"East Perrine"},{"coord":{"lat":44.488399999999999,"lon":-70.378951999999998},"country":"US","_id":4963346,"name":"East Peru"},{"coord":{"lat":40.100101000000002,"lon":-76.354134000000002},"country":"US","_id":5188022,"name":"East Petersburg"},{"coord":{"lat":-21.613309999999998,"lon":123.71367600000001},"country":"AU","_id":7839505,"name":"East Pilbara"},{"coord":{"lat":40.395617999999999,"lon":-79.838661000000002},"country":"US","_id":5188029,"name":"East Pittsburgh"},{"coord":{"lat":37.673538000000001,"lon":-121.829964},"country":"US","_id":5345044,"name":"East Pleasanton"},{"coord":{"lat":33.679549999999999,"lon":-84.439368999999999},"country":"US","_id":4192674,"name":"East Point"},{"coord":{"lat":49.066749999999999,"lon":-105.38439200000001},"country":"CA","_id":5945998,"name":"East Poplar"},{"coord":{"lat":47.523429999999998,"lon":-122.624298},"country":"US","_id":5793237,"name":"East Port Orchard"},{"coord":{"lat":36.057448999999998,"lon":-118.975662},"country":"US","_id":5345049,"name":"East Porterville"},{"coord":{"lat":50.232159000000003,"lon":-3.7557800000000001},"country":"GB","_id":2650353,"name":"East Portlemouth"},{"coord":{"lat":36.779781,"lon":-89.385627999999997},"country":"US","_id":4385054,"name":"East Prairie"},{"coord":{"lat":39.972037999999998,"lon":-76.519974000000005},"country":"US","_id":4557707,"name":"East Prospect"},{"coord":{"lat":41.813709000000003,"lon":-71.370048999999995},"country":"US","_id":5221931,"name":"East Providence"},{"coord":{"lat":39.934058999999998,"lon":-120.89801},"country":"US","_id":5345053,"name":"East Quincy"},{"coord":{"lat":40.84066,"lon":-72.581481999999994},"country":"US","_id":5116035,"name":"East Quogue"},{"coord":{"lat":33.898071000000002,"lon":-118.195351},"country":"US","_id":5344817,"name":"East Rancho Dominguez"},{"coord":{"lat":4,"lon":14},"country":"CM","_id":2231835,"name":"East Region"},{"coord":{"lat":55.75,"lon":-4.3333300000000001},"country":"GB","_id":3333228,"name":"East Renfrewshire"},{"coord":{"lat":47.484820999999997,"lon":-122.112343},"country":"US","_id":5793242,"name":"East Renton Highlands"},{"coord":{"lat":45.011161999999999,"lon":-72.58596},"country":"US","_id":5235775,"name":"East Richford"},{"coord":{"lat":37.944920000000003,"lon":-122.31358299999999},"country":"US","_id":5345063,"name":"East Richmond Heights"},{"coord":{"lat":35.014240000000001,"lon":-85.251900000000006},"country":"US","_id":4620131,"name":"East Ridge"},{"coord":{"lat":53.916671999999998,"lon":-0.5},"country":"GB","_id":2650345,"name":"East Riding of Yorkshire"},{"coord":{"lat":38.962059000000004,"lon":-76.921920999999998},"country":"US","_id":4353925,"name":"East Riverdale"},{"coord":{"lat":43.108668999999999,"lon":-77.487503000000004},"country":"US","_id":5116047,"name":"East Rochester"},{"coord":{"lat":40.642052,"lon":-73.669571000000005},"country":"US","_id":5116049,"name":"East Rockaway"},{"coord":{"lat":34.918208999999997,"lon":-79.762557999999999},"country":"US","_id":4464672,"name":"East Rockingham"},{"coord":{"lat":46.277920000000002,"lon":-63.10228},"country":"CA","_id":5946074,"name":"East Royalty"},{"coord":{"lat":40.833987999999998,"lon":-74.097092000000004},"country":"US","_id":5097459,"name":"East Rutherford"},{"coord":{"lat":31.94286,"lon":-110.928421},"country":"US","_id":5293796,"name":"East Sahuarita"},{"coord":{"lat":38.624499999999998,"lon":-90.150940000000006},"country":"US","_id":4237579,"name":"East Saint Louis"},{"coord":{"lat":34.091678999999999,"lon":-118.091179},"country":"US","_id":5345071,"name":"East San Gabriel"},{"coord":{"lat":41.741771999999997,"lon":-70.451690999999997},"country":"US","_id":4935495,"name":"East Sandwich"},{"coord":{"lat":-4,"lon":143.75},"country":"PG","_id":2097846,"name":"East Sepik Province"},{"coord":{"lat":40.941490000000002,"lon":-73.105941999999999},"country":"US","_id":5116060,"name":"East Setauket"},{"coord":{"lat":40.94482,"lon":-72.879547000000002},"country":"US","_id":5116063,"name":"East Shoreham"},{"coord":{"lat":37.977699000000001,"lon":-120.36129800000001},"country":"US","_id":5345098,"name":"East Sonora"},{"coord":{"lat":35.681807999999997,"lon":-80.432281000000003},"country":"US","_id":4464684,"name":"East Spencer"},{"coord":{"lat":52.833328000000002,"lon":-1.9166700000000001},"country":"GB","_id":2650337,"name":"East Staffordshire"},{"coord":{"lat":51.00761,"lon":-2.2850100000000002},"country":"GB","_id":2650332,"name":"East Stour"},{"coord":{"lat":40.999538000000001,"lon":-75.181290000000004},"country":"US","_id":5188075,"name":"East Stroudsburg"},{"coord":{"lat":33.925441999999997,"lon":-80.296188000000001},"country":"US","_id":4577347,"name":"East Sumter"},{"coord":{"lat":50.916671999999998,"lon":0.33333000000000002},"country":"GB","_id":2650328,"name":"East Sussex"},{"coord":{"lat":43.065337999999997,"lon":-76.078529000000003},"country":"US","_id":5116079,"name":"East Syracuse"},{"coord":{"lat":-36.950001,"lon":174.89999399999999},"country":"NZ","_id":2191468,"name":"East Tamaki"},{"coord":{"lat":44.279460999999998,"lon":-83.490250000000003},"country":"US","_id":4991692,"name":"East Tawas"},{"coord":{"lat":42.785290000000003,"lon":-88.405097999999995},"country":"US","_id":5251390,"name":"East Troy"},{"coord":{"lat":39.899799000000002,"lon":-79.697823},"country":"US","_id":4557713,"name":"East Uniontown"},{"coord":{"lat":10.667999999999999,"lon":122.709999},"country":"PH","_id":1680107,"name":"East Valencia"},{"coord":{"lat":40.173679,"lon":-80.237555999999998},"country":"US","_id":5188105,"name":"East Washington"},{"coord":{"lat":56.160178999999999,"lon":-3.0642200000000002},"country":"GB","_id":2650314,"name":"East Wemyss"},{"coord":{"lat":47.415680000000002,"lon":-120.29312899999999},"country":"US","_id":5793271,"name":"East Wenatchee"},{"coord":{"lat":47.425677999999998,"lon":-120.281181},"country":"US","_id":5793272,"name":"East Wenatchee Bench"},{"coord":{"lat":40.758429999999997,"lon":-73.63485},"country":"US","_id":5116107,"name":"East Williston"},{"coord":{"lat":46.254317999999998,"lon":-63.213988999999998},"country":"CA","_id":5946222,"name":"East Wiltshire"},{"coord":{"lat":42.316780000000001,"lon":-82.983138999999994},"country":"CA","_id":5946226,"name":"East Windsor"},{"coord":{"lat":50.769691000000002,"lon":-0.87444},"country":"GB","_id":2650311,"name":"East Wittering"},{"coord":{"lat":51.136921000000001,"lon":-0.93142999999999998},"country":"GB","_id":2650305,"name":"East Worldham"},{"coord":{"lat":39.973708999999999,"lon":-76.686363},"country":"US","_id":4557717,"name":"East York"},{"coord":{"lat":50.768711000000003,"lon":0.28453000000000001},"country":"GB","_id":2650497,"name":"Eastbourne"},{"coord":{"lat":50.772658999999997,"lon":0.27628999999999998},"country":"GB","_id":7290686,"name":"Eastbourne District"},{"coord":{"lat":40.887599999999999,"lon":-73.832909000000001},"country":"US","_id":5116119,"name":"Eastchester"},{"coord":{"lat":51.576461999999999,"lon":-0.39737},"country":"GB","_id":2650479,"name":"Eastcote"},{"coord":{"lat":49.516739000000001,"lon":-108.81813},"country":"CA","_id":5945364,"name":"Eastend"},{"coord":{"lat":53.174660000000003,"lon":6.05999},"country":"NL","_id":2749430,"name":"Eastermar"},{"coord":{"lat":-14.26667,"lon":-170.64999399999999},"country":"AS","_id":5881219,"name":"Eastern District"},{"coord":{"lat":4.9000000000000004,"lon":33.799999},"country":"SS","_id":408668,"name":"Eastern Equatoria State"},{"coord":{"lat":-27.628489999999999,"lon":152.77827500000001},"country":"AU","_id":7932663,"name":"Eastern Heights"},{"coord":{"lat":-6.5,"lon":145.58332799999999},"country":"PG","_id":2097855,"name":"Eastern Highlands Province"},{"coord":{"lat":44.616852000000002,"lon":-63.481991000000001},"country":"CA","_id":5945566,"name":"Eastern Passage"},{"coord":{"lat":-1.75,"lon":30.5},"country":"RW","_id":6413337,"name":"Eastern Province"},{"coord":{"lat":8.6061399999999999,"lon":81.202010999999999},"country":"LK","_id":8133521,"name":"Eastern Province"},{"coord":{"lat":-13,"lon":32.25},"country":"ZM","_id":917388,"name":"Eastern Province"},{"coord":{"lat":8.25,"lon":-11},"country":"SL","_id":2409543,"name":"Eastern Province"},{"coord":{"lat":0,"lon":38},"country":"KE","_id":400741,"name":"Eastern Province"},{"coord":{"lat":6.5,"lon":-0.5},"country":"GH","_id":2301360,"name":"Eastern Region"},{"coord":{"lat":11.249879999999999,"lon":-60.58419},"country":"TT","_id":7521940,"name":"Eastern Tobago"},{"coord":{"lat":11.41667,"lon":124.98333},"country":"PH","_id":7521307,"name":"Eastern Visayas"},{"coord":{"lat":47.572659000000002,"lon":-122.145782},"country":"US","_id":5793278,"name":"Eastgate"},{"coord":{"lat":41.830109,"lon":-69.973906999999997},"country":"US","_id":4935578,"name":"Eastham"},{"coord":{"lat":51.400700000000001,"lon":-0.76354999999999995},"country":"GB","_id":2650428,"name":"Easthampstead"},{"coord":{"lat":42.266762,"lon":-72.668982999999997},"country":"US","_id":4935582,"name":"Easthampton"},{"coord":{"lat":41.653937999999997,"lon":-81.450394000000003},"country":"US","_id":5152833,"name":"Eastlake"},{"coord":{"lat":32.401519999999998,"lon":-98.817558000000005},"country":"US","_id":4688071,"name":"Eastland"},{"coord":{"lat":36.192188000000002,"lon":-115.188057},"country":"US","_id":5503507,"name":"Eastland Heights"},{"coord":{"lat":36.959491999999997,"lon":-86.438316},"country":"US","_id":4290809,"name":"Eastland Park"},{"coord":{"lat":40.750647999999998,"lon":-75.295731000000004},"country":"US","_id":5188133,"name":"Eastlawn Gardens"},{"coord":{"lat":50.966670999999998,"lon":-1.3500000000000001},"country":"GB","_id":2650396,"name":"Eastleigh"},{"coord":{"lat":50.922629999999998,"lon":-1.3274600000000001},"country":"GB","_id":7290555,"name":"Eastleigh District"},{"coord":{"lat":52.183498,"lon":-78.166161000000002},"country":"CA","_id":5945848,"name":"Eastmain"},{"coord":{"lat":45.300078999999997,"lon":-72.315804},"country":"CA","_id":5945851,"name":"Eastman"},{"coord":{"lat":32.197670000000002,"lon":-83.17765},"country":"US","_id":4192754,"name":"Eastman"},{"coord":{"lat":53.636237999999999,"lon":-0.78491999999999995},"country":"GB","_id":2650369,"name":"Eastoft"},{"coord":{"lat":38.774281000000002,"lon":-76.076331999999994},"country":"US","_id":4353962,"name":"Easton"},{"coord":{"lat":47.237060999999997,"lon":-121.178978},"country":"US","_id":5793294,"name":"Easton"},{"coord":{"lat":53.368889000000003,"lon":-6.5094399999999997},"country":"IE","_id":3315434,"name":"Easton"},{"coord":{"lat":42.024540000000002,"lon":-71.128662000000006},"country":"US","_id":4935623,"name":"Easton"},{"coord":{"lat":40.688431000000001,"lon":-75.220733999999993},"country":"US","_id":5188140,"name":"Easton"},{"coord":{"lat":50.533329000000002,"lon":-2.4500000000000002},"country":"GB","_id":2650368,"name":"Easton"},{"coord":{"lat":46.641151000000001,"lon":-67.909469999999999},"country":"US","_id":4963478,"name":"Easton"},{"coord":{"lat":36.650230000000001,"lon":-119.79070299999999},"country":"US","_id":5345171,"name":"Easton"},{"coord":{"lat":51.475921999999997,"lon":-2.6998700000000002},"country":"GB","_id":3345403,"name":"Easton-in-Gordano"},{"coord":{"lat":35.099997999999999,"lon":-78.800003000000004},"country":"US","_id":4464750,"name":"Eastover"},{"coord":{"lat":29.736601,"lon":-84.878517000000002},"country":"US","_id":4154106,"name":"Eastpoint"},{"coord":{"lat":42.468369000000003,"lon":-82.955466999999999},"country":"US","_id":4991735,"name":"Eastpointe"},{"coord":{"lat":48.999400999999999,"lon":-116.181313},"country":"US","_id":5592170,"name":"Eastport"},{"coord":{"lat":48.649898999999998,"lon":-53.748089},"country":"CA","_id":5946001,"name":"Eastport"},{"coord":{"lat":44.906188999999998,"lon":-66.989982999999995},"country":"US","_id":4963486,"name":"Eastport"},{"coord":{"lat":40.825932000000002,"lon":-72.731773000000004},"country":"US","_id":5116149,"name":"Eastport"},{"coord":{"lat":53.767947999999997,"lon":-0.80345999999999995},"country":"GB","_id":7300437,"name":"Eastrington"},{"coord":{"lat":53.760379999999998,"lon":-0.79325000000000001},"country":"GB","_id":2650344,"name":"Eastrington"},{"coord":{"lat":51.246391000000003,"lon":1.30776},"country":"GB","_id":2650341,"name":"Eastry"},{"coord":{"lat":37.352637999999999,"lon":-75.945762999999999},"country":"US","_id":4757073,"name":"Eastville"},{"coord":{"lat":39.890388000000002,"lon":-75.242401000000001},"country":"US","_id":4557724,"name":"Eastwick"},{"coord":{"lat":53,"lon":-1.3},"country":"GB","_id":2650309,"name":"Eastwood"},{"coord":{"lat":30.890739,"lon":-87.753051999999997},"country":"US","_id":4060038,"name":"Eastwood"},{"coord":{"lat":-33.799999,"lon":151.08332799999999},"country":"AU","_id":2167840,"name":"Eastwood"},{"coord":{"lat":32.556258999999997,"lon":-93.567122999999995},"country":"US","_id":4323488,"name":"Eastwood"},{"coord":{"lat":42.303100999999998,"lon":-85.550278000000006},"country":"US","_id":4991740,"name":"Eastwood"},{"coord":{"lat":-33.316668999999997,"lon":115.716667},"country":"AU","_id":2078313,"name":"Eaton"},{"coord":{"lat":53.183331000000003,"lon":-2.2000000000000002},"country":"GB","_id":2650297,"name":"Eaton"},{"coord":{"lat":39.743938,"lon":-84.636619999999994},"country":"US","_id":4510719,"name":"Eaton"},{"coord":{"lat":40.340321000000003,"lon":-85.350800000000007},"country":"US","_id":4919907,"name":"Eaton"},{"coord":{"lat":40.530258000000003,"lon":-104.711349},"country":"US","_id":5576690,"name":"Eaton"},{"coord":{"lat":51.876967999999998,"lon":-0.59167000000000003},"country":"GB","_id":2650295,"name":"Eaton Bray"},{"coord":{"lat":42.60004,"lon":-84.849991000000003},"country":"US","_id":4991746,"name":"Eaton County"},{"coord":{"lat":41.308940999999997,"lon":-82.005699000000007},"country":"US","_id":5152868,"name":"Eaton Estates"},{"coord":{"lat":42.509200999999997,"lon":-84.655806999999996},"country":"US","_id":4991753,"name":"Eaton Rapids"},{"coord":{"lat":52.217522000000002,"lon":-0.28925000000000001},"country":"GB","_id":2650293,"name":"Eaton Socon"},{"coord":{"lat":40.930649000000003,"lon":-73.401511999999997},"country":"US","_id":5116169,"name":"Eatons Neck"},{"coord":{"lat":-29.633329,"lon":152.83332799999999},"country":"AU","_id":2167837,"name":"Eatonsville"},{"coord":{"lat":33.326801000000003,"lon":-83.388496000000004},"country":"US","_id":4192800,"name":"Eatonton"},{"coord":{"lat":40.296219000000001,"lon":-74.050972000000002},"country":"US","_id":5097482,"name":"Eatontown"},{"coord":{"lat":28.614719000000001,"lon":-81.380623},"country":"US","_id":4154127,"name":"Eatonville"},{"coord":{"lat":46.867328999999998,"lon":-122.266502},"country":"US","_id":5793321,"name":"Eatonville"},{"coord":{"lat":44.811351999999999,"lon":-91.498489000000006},"country":"US","_id":5251436,"name":"Eau Claire"},{"coord":{"lat":44.733291999999999,"lon":-91.300162999999998},"country":"US","_id":5251439,"name":"Eau Claire County"},{"coord":{"lat":49,"lon":2.2833299999999999},"country":"FR","_id":6446255,"name":"Eaubonne"},{"coord":{"lat":48.997120000000002,"lon":2.2824900000000001},"country":"FR","_id":3020601,"name":"Eaubonne"},{"coord":{"lat":43.420791999999999,"lon":1.3539699999999999},"country":"FR","_id":3020593,"name":"Eaunes"},{"coord":{"lat":6.6870000000000003,"lon":143.03750600000001},"country":"FM","_id":7645763,"name":"Eauripik"},{"coord":{"lat":6.6870000000000003,"lon":143.03599500000001},"country":"FM","_id":7626937,"name":"Eauripik Municipality"},{"coord":{"lat":42.966670999999998,"lon":-0.38333},"country":"FR","_id":6440364,"name":"Eaux-Bonnes"},{"coord":{"lat":42.966670999999998,"lon":-0.38333},"country":"FR","_id":3020589,"name":"Eaux-Bonnes"},{"coord":{"lat":43.860550000000003,"lon":0.10199},"country":"FR","_id":3020584,"name":"Eauze"},{"coord":{"lat":8.7747899999999994,"lon":167.73919699999999},"country":"MH","_id":7304467,"name":"Ebaye"},{"coord":{"lat":47.612949,"lon":12.244109999999999},"country":"AT","_id":7872565,"name":"Ebbs"},{"coord":{"lat":47.633330999999998,"lon":12.216670000000001},"country":"AT","_id":2780579,"name":"Ebbs"},{"coord":{"lat":51.772979999999997,"lon":-3.2048199999999998},"country":"GB","_id":7300545,"name":"Ebbw Vale"},{"coord":{"lat":-27.600000000000001,"lon":152.816666},"country":"AU","_id":2167834,"name":"Ebbw Vale"},{"coord":{"lat":51.777141999999998,"lon":-3.2079200000000001},"country":"GB","_id":2650285,"name":"Ebbw Vale"},{"coord":{"lat":7.4405599999999996,"lon":124.397217},"country":"PH","_id":1713960,"name":"Ebcor Town"},{"coord":{"lat":-36.150002000000001,"lon":147.03332499999999},"country":"AU","_id":2167833,"name":"Ebden"},{"coord":{"lat":2.1510600000000002,"lon":11.335279999999999},"country":"GQ","_id":2309332,"name":"Ebebiyin"},{"coord":{"lat":6.3259800000000004,"lon":-75.768349000000001},"country":"CO","_id":3685058,"name":"Ebejico"},{"coord":{"lat":51.283329000000002,"lon":10.73333},"country":"DE","_id":2934097,"name":"Ebeleben"},{"coord":{"lat":49.996200999999999,"lon":10.6919},"country":"DE","_id":6556997,"name":"Ebelsbach"},{"coord":{"lat":49.983330000000002,"lon":10.68333},"country":"DE","_id":2934094,"name":"Ebelsbach"},{"coord":{"lat":48.238849999999999,"lon":14.33184},"country":"AT","_id":2780578,"name":"Ebelsberg"},{"coord":{"lat":56.194420000000001,"lon":10.6821},"country":"DK","_id":2622793,"name":"Ebeltoft"},{"coord":{"lat":47.425578999999999,"lon":13.40569},"country":"AT","_id":7872222,"name":"Eben im Pongau"},{"coord":{"lat":47.400002000000001,"lon":13.4},"country":"AT","_id":2780551,"name":"Eben im Pongau"},{"coord":{"lat":47.782021,"lon":13.179360000000001},"country":"AT","_id":7873291,"name":"Ebenau"},{"coord":{"lat":47.790730000000003,"lon":13.175269999999999},"country":"AT","_id":2780563,"name":"Ebenau"},{"coord":{"lat":52.185509000000003,"lon":11.574780000000001},"country":"DE","_id":2934073,"name":"Ebendorf"},{"coord":{"lat":50.183331000000003,"lon":10.75},"country":"DE","_id":2934067,"name":"Ebene"},{"coord":{"lat":-20.24494,"lon":57.491630999999998},"country":"MU","_id":1106748,"name":"Ebene"},{"coord":{"lat":34.940922,"lon":-83.936852000000002},"country":"US","_id":4192813,"name":"Ebenezer"},{"coord":{"lat":-27.683330999999999,"lon":152.633331},"country":"AU","_id":2167832,"name":"Ebenezer"},{"coord":{"lat":47.888100000000001,"lon":16.331389999999999},"country":"AT","_id":7871927,"name":"Ebenfurth"},{"coord":{"lat":47.866669000000002,"lon":16.366671},"country":"AT","_id":2780553,"name":"Ebenfurth"},{"coord":{"lat":-28.383329,"lon":28.283331},"country":"ZA","_id":1006919,"name":"Ebenhaezer"},{"coord":{"lat":49.71611,"lon":9.3630600000000008},"country":"DE","_id":3274975,"name":"Ebenheid"},{"coord":{"lat":50.983299000000002,"lon":10.5167},"country":"DE","_id":6550069,"name":"Ebenheim"},{"coord":{"lat":50.983330000000002,"lon":10.51667},"country":"DE","_id":2934056,"name":"Ebenheim"},{"coord":{"lat":47.816668999999997,"lon":10.616669999999999},"country":"DE","_id":2934047,"name":"Ebenhofen"},{"coord":{"lat":40.485069000000003,"lon":-78.724739},"country":"US","_id":5188193,"name":"Ebensburg"},{"coord":{"lat":47.806930999999999,"lon":13.77849},"country":"AT","_id":7873134,"name":"Ebensee"},{"coord":{"lat":47.807158999999999,"lon":13.779},"country":"AT","_id":2780547,"name":"Ebensee"},{"coord":{"lat":50.066398999999997,"lon":10.958349999999999},"country":"DE","_id":2934033,"name":"Ebensfeld"},{"coord":{"lat":51.083302000000003,"lon":10.300000000000001},"country":"DE","_id":6549871,"name":"Ebenshausen"},{"coord":{"lat":51.083328000000002,"lon":10.300000000000001},"country":"DE","_id":2934032,"name":"Ebenshausen"},{"coord":{"lat":48.431910999999999,"lon":16.788549},"country":"AT","_id":7871731,"name":"Ebenthal"},{"coord":{"lat":48.433331000000003,"lon":16.783331},"country":"AT","_id":2780543,"name":"Ebenthal"},{"coord":{"lat":46.608058999999997,"lon":14.36417},"country":"AT","_id":2780544,"name":"Ebenthal"},{"coord":{"lat":47.900002000000001,"lon":9.5166699999999995},"country":"DE","_id":6556062,"name":"Ebenweiler"},{"coord":{"lat":47.900002000000001,"lon":9.5166699999999995},"country":"DE","_id":2934023,"name":"Ebenweiler"},{"coord":{"lat":47.894852,"lon":13.75935},"country":"AT","_id":2780540,"name":"Ebenzweier"},{"coord":{"lat":47.100731000000003,"lon":16.447821000000001},"country":"AT","_id":7872692,"name":"Eberau"},{"coord":{"lat":47.099997999999999,"lon":16.466669},"country":"AT","_id":2780539,"name":"Eberau"},{"coord":{"lat":49.469439999999999,"lon":8.9927799999999998},"country":"DE","_id":2934020,"name":"Eberbach"},{"coord":{"lat":47.950001,"lon":12.85},"country":"DE","_id":2934015,"name":"Eberding"},{"coord":{"lat":48.885249999999999,"lon":8.9961500000000001},"country":"DE","_id":6555476,"name":"Eberdingen"},{"coord":{"lat":48.883330999999998,"lon":8.9666700000000006},"country":"DE","_id":2934014,"name":"Eberdingen"},{"coord":{"lat":48.054400999999999,"lon":16.523340000000001},"country":"AT","_id":7873068,"name":"Ebergassing"},{"coord":{"lat":48.045670000000001,"lon":16.51709},"country":"AT","_id":2780536,"name":"Ebergassing"},{"coord":{"lat":51.566668999999997,"lon":10.116669999999999},"country":"DE","_id":2934009,"name":"Ebergotzen"},{"coord":{"lat":51.566699999999997,"lon":10.1167},"country":"DE","_id":6552337,"name":"Eberg√∂tzen"},{"coord":{"lat":48.880870999999999,"lon":9.6498200000000001},"country":"DE","_id":2934002,"name":"Eberhardsweiler"},{"coord":{"lat":48.002701000000002,"lon":9.8244100000000003},"country":"DE","_id":6558512,"name":"Eberhardzell"},{"coord":{"lat":48,"lon":9.8166700000000002},"country":"DE","_id":2934000,"name":"Eberhardzell"},{"coord":{"lat":51.549999,"lon":9.7166700000000006},"country":"DE","_id":2933997,"name":"Eberhausen"},{"coord":{"lat":52.049999,"lon":9.8499999999999996},"country":"DE","_id":6552477,"name":"Eberholzen"},{"coord":{"lat":52.049999,"lon":9.8499999999999996},"country":"DE","_id":2933994,"name":"Eberholzen"},{"coord":{"lat":49.400002000000001,"lon":11.949999999999999},"country":"DE","_id":6556613,"name":"Ebermannsdorf"},{"coord":{"lat":49.400002000000001,"lon":11.949999999999999},"country":"DE","_id":2933987,"name":"Ebermannsdorf"},{"coord":{"lat":49.782218999999998,"lon":11.18111},"country":"DE","_id":2933986,"name":"Ebermannstadt"},{"coord":{"lat":50.083328000000002,"lon":10.800000000000001},"country":"DE","_id":2933984,"name":"Ebern"},{"coord":{"lat":46.601719000000003,"lon":14.66372},"country":"AT","_id":7871673,"name":"Eberndorf"},{"coord":{"lat":46.591388999999999,"lon":14.643610000000001},"country":"AT","_id":2780531,"name":"Eberndorf"},{"coord":{"lat":50.466701999999998,"lon":7.7666700000000004},"country":"DE","_id":6554126,"name":"Ebernhahn"},{"coord":{"lat":50.466670999999998,"lon":7.7666700000000004},"country":"DE","_id":2933981,"name":"Ebernhahn"},{"coord":{"lat":51.099997999999999,"lon":13.1},"country":"DE","_id":6548751,"name":"Ebersbach"},{"coord":{"lat":51.099997999999999,"lon":13.1},"country":"DE","_id":2933963,"name":"Ebersbach"},{"coord":{"lat":51.016669999999998,"lon":14.58333},"country":"DE","_id":2933965,"name":"Ebersbach"},{"coord":{"lat":51.233299000000002,"lon":13.65},"country":"DE","_id":6548653,"name":"Ebersbach"},{"coord":{"lat":51.233330000000002,"lon":13.65},"country":"DE","_id":3209001,"name":"Ebersbach"},{"coord":{"lat":48.716000000000001,"lon":9.5236000000000001},"country":"DE","_id":2933959,"name":"Ebersbach an der Fils"},{"coord":{"lat":47.966701999999998,"lon":9.5833300000000001},"country":"DE","_id":6556078,"name":"Ebersbach-Musbach"},{"coord":{"lat":47.966670999999998,"lon":9.5833300000000001},"country":"DE","_id":3209313,"name":"Ebersbach-Musbach"},{"coord":{"lat":48.077098999999997,"lon":11.97063},"country":"DE","_id":2933945,"name":"Ebersberg"},{"coord":{"lat":50.650002000000001,"lon":12.43333},"country":"DE","_id":2933931,"name":"Ebersbrunn"},{"coord":{"lat":50.333328000000002,"lon":11.15},"country":"DE","_id":2933922,"name":"Ebersdorf"},{"coord":{"lat":47.201011999999999,"lon":15.956009999999999},"country":"AT","_id":7873423,"name":"Ebersdorf"},{"coord":{"lat":47.200001,"lon":15.949999999999999},"country":"AT","_id":2780522,"name":"Ebersdorf"},{"coord":{"lat":53.516700999999998,"lon":9.0666700000000002},"country":"DE","_id":6552721,"name":"Ebersdorf"},{"coord":{"lat":53.516669999999998,"lon":9.0666700000000002},"country":"DE","_id":2933916,"name":"Ebersdorf"},{"coord":{"lat":50.216670999999998,"lon":11.06667},"country":"DE","_id":2933915,"name":"Ebersdorf bei Coburg"},{"coord":{"lat":47.180278999999999,"lon":7.9388899999999998},"country":"CH","_id":7285685,"name":"Ebersecken"},{"coord":{"lat":50.599997999999999,"lon":12.01667},"country":"DE","_id":2933911,"name":"Ebersgr√ºn"},{"coord":{"lat":50.45335,"lon":8.6091599999999993},"country":"DE","_id":2933912,"name":"Ebersg√∂ns"},{"coord":{"lat":48.200001,"lon":10.316700000000001},"country":"DE","_id":6557176,"name":"Ebershausen"},{"coord":{"lat":48.205460000000002,"lon":10.31565},"country":"DE","_id":2933909,"name":"Ebershausen"},{"coord":{"lat":48.304378999999997,"lon":7.4990300000000003},"country":"FR","_id":3020576,"name":"Ebersheim"},{"coord":{"lat":48.383330999999998,"lon":12.31667},"country":"DE","_id":2933903,"name":"Eberspoint"},{"coord":{"lat":49.180301999999998,"lon":9.3211099999999991},"country":"DE","_id":6555514,"name":"Eberstadt"},{"coord":{"lat":49.180278999999999,"lon":9.3211099999999991},"country":"DE","_id":2933897,"name":"Eberstadt"},{"coord":{"lat":48.363781000000003,"lon":10.44319},"country":"DE","_id":2933891,"name":"Eberstall"},{"coord":{"lat":51.066699999999997,"lon":11.583299999999999},"country":"DE","_id":6550233,"name":"Eberstedt"},{"coord":{"lat":51.066668999999997,"lon":11.58333},"country":"DE","_id":2933889,"name":"Eberstedt"},{"coord":{"lat":46.794209000000002,"lon":14.59468},"country":"AT","_id":7872768,"name":"Eberstein"},{"coord":{"lat":46.808059999999998,"lon":14.56},"country":"AT","_id":2780512,"name":"Eberstein"},{"coord":{"lat":52.834918999999999,"lon":13.819509999999999},"country":"DE","_id":2933882,"name":"Eberswalde"},{"coord":{"lat":50.283298000000002,"lon":7.9833299999999996},"country":"DE","_id":6554018,"name":"Ebertshausen"},{"coord":{"lat":50.283329000000002,"lon":7.9833299999999996},"country":"DE","_id":2933865,"name":"Ebertshausen"},{"coord":{"lat":49.568297999999999,"lon":8.1086100000000005},"country":"DE","_id":6554894,"name":"Ebertsheim"},{"coord":{"lat":49.568328999999999,"lon":8.1086100000000005},"country":"DE","_id":2933863,"name":"Ebertsheim"},{"coord":{"lat":47.466670999999998,"lon":21.5},"country":"HU","_id":721257,"name":"Ebes"},{"coord":{"lat":43.108058999999997,"lon":141.550568},"country":"JP","_id":2130404,"name":"Ebetsu"},{"coord":{"lat":48.583302000000003,"lon":8.6833299999999998},"country":"DE","_id":6555686,"name":"Ebhausen"},{"coord":{"lat":48.583328000000002,"lon":8.6833299999999998},"country":"DE","_id":2933857,"name":"Ebhausen"},{"coord":{"lat":47.078251000000002,"lon":8.3315000000000001},"country":"CH","_id":7285687,"name":"Ebikon"},{"coord":{"lat":47.079369,"lon":8.3404100000000003},"country":"CH","_id":2660953,"name":"Ebikon"},{"coord":{"lat":37.463901999999997,"lon":41.190570999999998},"country":"TR","_id":301167,"name":"Ebish"},{"coord":{"lat":47.349868999999998,"lon":8.6401299999999992},"country":"CH","_id":6295530,"name":"Ebmatingen"},{"coord":{"lat":47.244801000000002,"lon":9.1304599999999994},"country":"CH","_id":7285688,"name":"Ebnat-Kappel"},{"coord":{"lat":47.261951000000003,"lon":9.1247299999999996},"country":"CH","_id":2660951,"name":"Ebnat-Kappel"},{"coord":{"lat":49.950001,"lon":11.933299999999999},"country":"DE","_id":6556715,"name":"Ebnath"},{"coord":{"lat":49.950001,"lon":11.93333},"country":"DE","_id":2933840,"name":"Ebnath"},{"coord":{"lat":47.799999,"lon":8.3000000000000007},"country":"DE","_id":2933838,"name":"Ebnet"},{"coord":{"lat":40.614207999999998,"lon":15.05785},"country":"IT","_id":6541807,"name":"Eboli"},{"coord":{"lat":40.614207999999998,"lon":15.05785},"country":"IT","_id":3177438,"name":"Eboli"},{"coord":{"lat":2.8999999999999999,"lon":11.15},"country":"CM","_id":2232283,"name":"Ebolowa"},{"coord":{"lat":4.5819900000000002,"lon":168.69636499999999},"country":"MH","_id":7306512,"name":"Ebon"},{"coord":{"lat":6.25,"lon":8.0833300000000001},"country":"NG","_id":2595345,"name":"Ebonyi State"},{"coord":{"lat":-30.399999999999999,"lon":152.35000600000001},"country":"AU","_id":2167829,"name":"Ebor"},{"coord":{"lat":47.964081,"lon":16.417290000000001},"country":"AT","_id":7872835,"name":"Ebreichsdorf"},{"coord":{"lat":47.950001,"lon":16.399999999999999},"country":"AT","_id":2780501,"name":"Ebreichsdorf"},{"coord":{"lat":46.116290999999997,"lon":3.08771},"country":"FR","_id":3020569,"name":"Ebreuil"},{"coord":{"lat":47.950001,"lon":7.7833300000000003},"country":"DE","_id":6555738,"name":"Ebringen"},{"coord":{"lat":47.957802000000001,"lon":7.7765199999999997},"country":"DE","_id":2933821,"name":"Ebringen"},{"coord":{"lat":50.083328000000002,"lon":7.5166700000000004},"country":"DE","_id":2933818,"name":"Ebschied"},{"coord":{"lat":50.733330000000002,"lon":8.8666699999999992},"country":"DE","_id":3208040,"name":"Ebsdorfergrund"},{"coord":{"lat":50.726021000000003,"lon":8.8570399999999996},"country":"DE","_id":7576935,"name":"Ebsdorfergrund"},{"coord":{"lat":53.027850999999998,"lon":10.41839},"country":"DE","_id":2933817,"name":"Ebstorf"},{"coord":{"lat":22.827649999999998,"lon":114.99698600000001},"country":"CN","_id":1916231,"name":"Ebu"},{"coord":{"lat":6.6008599999999999,"lon":3.4881799999999998},"country":"NG","_id":2344082,"name":"Ebute Ikorodu"},{"coord":{"lat":50.350341999999998,"lon":3.2166399999999999},"country":"FR","_id":3020565,"name":"Ecaillon"},{"coord":{"lat":19.601109999999998,"lon":-99.052498},"country":"MX","_id":3529612,"name":"Ecatepec"},{"coord":{"lat":18.933330999999999,"lon":-98.75},"country":"MX","_id":3529609,"name":"Ecatzingo de Hidalgo"},{"coord":{"lat":50.568218000000002,"lon":4.1657999999999999},"country":"BE","_id":2799024,"name":"Ecaussinnes-dEnghien"},{"coord":{"lat":42.774109000000003,"lon":-1.38737},"country":"ES","_id":3123750,"name":"Ecay"},{"coord":{"lat":55.059280000000001,"lon":-3.2665199999999999},"country":"GB","_id":2650280,"name":"Ecclefechan"},{"coord":{"lat":53.483330000000002,"lon":-2.3333300000000001},"country":"GB","_id":2650278,"name":"Eccles"},{"coord":{"lat":52.857891000000002,"lon":-2.2497099999999999},"country":"GB","_id":2650274,"name":"Eccleshall"},{"coord":{"lat":53.706778999999997,"lon":-2.4517000000000002},"country":"GB","_id":7300542,"name":"Eccleshill"},{"coord":{"lat":-32.25,"lon":151.5},"country":"AU","_id":2167826,"name":"Eccleston"},{"coord":{"lat":53.450001,"lon":-2.7833299999999999},"country":"GB","_id":2650272,"name":"Eccleston"},{"coord":{"lat":53.150002000000001,"lon":-2.8833299999999999},"country":"GB","_id":2650273,"name":"Eccleston"},{"coord":{"lat":40.184157999999996,"lon":26.357400999999999},"country":"TR","_id":747728,"name":"Eceabat"},{"coord":{"lat":36.195911000000002,"lon":1.2553799999999999},"country":"DZ","_id":2498954,"name":"Ech Chettia"},{"coord":{"lat":16.705200000000001,"lon":121.67240099999999},"country":"PH","_id":1713962,"name":"Echague"},{"coord":{"lat":-32.391849999999998,"lon":-59.282001000000001},"country":"AR","_id":3434958,"name":"Echag√ºe"},{"coord":{"lat":42.984810000000003,"lon":-2.7242700000000002},"country":"ES","_id":3123748,"name":"Echag√ºen"},{"coord":{"lat":45.551898999999999,"lon":4.71645},"country":"FR","_id":3020548,"name":"Echalas"},{"coord":{"lat":46.638451000000003,"lon":6.6352500000000001},"country":"CH","_id":7285689,"name":"Echallens"},{"coord":{"lat":46.641300000000001,"lon":6.6331699999999998},"country":"CH","_id":2660950,"name":"Echallens"},{"coord":{"lat":-22.42944,"lon":-50.200561999999998},"country":"BR","_id":3464366,"name":"Echapor√£"},{"coord":{"lat":46.645828000000002,"lon":7.0771600000000001},"country":"CH","_id":7285691,"name":"Echarlens"},{"coord":{"lat":46.647781000000002,"lon":7.0742000000000003},"country":"CH","_id":2660949,"name":"Echarlens"},{"coord":{"lat":42.781139000000003,"lon":-1.82816},"country":"ES","_id":6359631,"name":"Echarri"},{"coord":{"lat":42.780169999999998,"lon":-1.82525},"country":"ES","_id":3123740,"name":"Echarri"},{"coord":{"lat":42.907908999999997,"lon":-2.06474},"country":"ES","_id":3123738,"name":"Echarri-Aranaz"},{"coord":{"lat":42.727469999999997,"lon":-2.0649099999999998},"country":"ES","_id":3123735,"name":"Echavarri"},{"coord":{"lat":-1.43333,"lon":-79.266670000000005},"country":"EC","_id":3658396,"name":"Echeand√≠a"},{"coord":{"lat":39.84845,"lon":-74.995720000000006},"country":"US","_id":4501632,"name":"Echelon"},{"coord":{"lat":53.333302000000003,"lon":10.533300000000001},"country":"DE","_id":6552675,"name":"Echem"},{"coord":{"lat":53.333328000000002,"lon":10.533329999999999},"country":"DE","_id":2933808,"name":"Echem"},{"coord":{"lat":46.309631000000003,"lon":6.0392999999999999},"country":"FR","_id":3020512,"name":"Echenevex"},{"coord":{"lat":38.374439000000002,"lon":111.97165699999999},"country":"CN","_id":1805622,"name":"Echeng"},{"coord":{"lat":47.600861000000002,"lon":6.13544},"country":"FR","_id":3020510,"name":"Echenoz-la-Meline"},{"coord":{"lat":35.166671999999998,"lon":136.199997},"country":"JP","_id":1864263,"name":"Echigawa"},{"coord":{"lat":45.900719000000002,"lon":-0.95211000000000001},"country":"FR","_id":3020500,"name":"Echillais"},{"coord":{"lat":48.282508999999997,"lon":11.85305},"country":"DE","_id":2933800,"name":"Eching"},{"coord":{"lat":48.292048999999999,"lon":11.6534},"country":"DE","_id":6556199,"name":"Eching"},{"coord":{"lat":48.299999,"lon":11.616669999999999},"country":"DE","_id":2933799,"name":"Eching"},{"coord":{"lat":48.5,"lon":12.066700000000001},"country":"DE","_id":6556504,"name":"Eching"},{"coord":{"lat":48.5,"lon":12.06667},"country":"DE","_id":2933798,"name":"Eching"},{"coord":{"lat":48.079909999999998,"lon":11.11336},"country":"DE","_id":2933801,"name":"Eching"},{"coord":{"lat":46.387481999999999,"lon":-0.41510999999999998},"country":"FR","_id":3020497,"name":"Echire"},{"coord":{"lat":45.143901999999997,"lon":5.7288300000000003},"country":"FR","_id":3020495,"name":"Echirolles"},{"coord":{"lat":40.165309999999998,"lon":44.339390000000002},"country":"AM","_id":866096,"name":"Echmiadzin"},{"coord":{"lat":46.483359999999998,"lon":-84.066627999999994},"country":"CA","_id":5946385,"name":"Echo Bay"},{"coord":{"lat":48.714278999999998,"lon":15.21261},"country":"AT","_id":7873079,"name":"Echsenbach"},{"coord":{"lat":48.716670999999998,"lon":15.216670000000001},"country":"AT","_id":2780497,"name":"Echsenbach"},{"coord":{"lat":48.599997999999999,"lon":11.01667},"country":"DE","_id":2933794,"name":"Echsheim"},{"coord":{"lat":51.783329000000002,"lon":10.06667},"country":"DE","_id":2933792,"name":"Echte"},{"coord":{"lat":52.871409999999997,"lon":5.8214699999999997},"country":"NL","_id":2756438,"name":"Echtenerbrug"},{"coord":{"lat":48.688437999999998,"lon":9.1677499999999998},"country":"DE","_id":2933789,"name":"Echterdingen"},{"coord":{"lat":49.813068000000001,"lon":6.4218500000000001},"country":"LU","_id":2960631,"name":"Echternach"},{"coord":{"lat":49.805560999999997,"lon":6.4222200000000003},"country":"LU","_id":2960630,"name":"Echternach"},{"coord":{"lat":49.816668999999997,"lon":6.4333299999999998},"country":"DE","_id":2933787,"name":"Echternacherbruck"},{"coord":{"lat":49.816699999999997,"lon":6.4333299999999998},"country":"DE","_id":6554417,"name":"Echternacherbr√ºck"},{"coord":{"lat":50.016700999999998,"lon":6.4166699999999999},"country":"DE","_id":6554418,"name":"Echtershausen"},{"coord":{"lat":50.016669999999998,"lon":6.4166699999999999},"country":"DE","_id":2933781,"name":"Echtershausen"},{"coord":{"lat":51.509331000000003,"lon":8.1810399999999994},"country":"DE","_id":2933774,"name":"Echtrop"},{"coord":{"lat":50.833328000000002,"lon":6.4166699999999999},"country":"DE","_id":2933773,"name":"Echtz"},{"coord":{"lat":-36.133330999999998,"lon":144.75},"country":"AU","_id":2167817,"name":"Echuca"},{"coord":{"lat":-35.099997999999999,"lon":138.800003},"country":"AU","_id":2072273,"name":"Echunga"},{"coord":{"lat":50.400002000000001,"lon":8.9000000000000004},"country":"DE","_id":6553206,"name":"Echzell"},{"coord":{"lat":50.400002000000001,"lon":8.9000000000000004},"country":"DE","_id":2933772,"name":"Echzell"},{"coord":{"lat":37.542197999999999,"lon":-5.0826000000000002},"country":"ES","_id":2518770,"name":"Ecija"},{"coord":{"lat":-34.366669000000002,"lon":-57.066668999999997},"country":"UY","_id":3442716,"name":"Ecilda Paullier"},{"coord":{"lat":45.318610999999997,"lon":20.442779999999999},"country":"RS","_id":790847,"name":"Ecka"},{"coord":{"lat":50.700001,"lon":10.25},"country":"DE","_id":2933736,"name":"Eckardts"},{"coord":{"lat":50.916671999999998,"lon":10.26667},"country":"DE","_id":2933734,"name":"Eckardtshausen"},{"coord":{"lat":51.933331000000003,"lon":8.5666700000000002},"country":"DE","_id":2933733,"name":"Eckardtsheim"},{"coord":{"lat":48.148299999999999,"lon":16.800730000000001},"country":"AT","_id":7871732,"name":"Eckartsau"},{"coord":{"lat":48.145068999999999,"lon":16.797370999999998},"country":"AT","_id":2780490,"name":"Eckartsau"},{"coord":{"lat":50.916671999999998,"lon":14.800000000000001},"country":"DE","_id":2933721,"name":"Eckartsberg"},{"coord":{"lat":51.116669000000002,"lon":11.550000000000001},"country":"DE","_id":2933720,"name":"Eckartsberga"},{"coord":{"lat":49.933331000000003,"lon":11.783329999999999},"country":"DE","_id":2933706,"name":"Eckartsreuth"},{"coord":{"lat":49.266669999999998,"lon":10.35},"country":"DE","_id":2933701,"name":"Eckartsweiler"},{"coord":{"lat":48.580750000000002,"lon":7.6876800000000003},"country":"FR","_id":3020489,"name":"Eckbolsheim"},{"coord":{"lat":53.366669000000002,"lon":9.9166699999999999},"country":"DE","_id":2933680,"name":"Eckel"},{"coord":{"lat":50.883330999999998,"lon":8.5333299999999994},"country":"DE","_id":2933670,"name":"Eckelshausen"},{"coord":{"lat":49.799999,"lon":7.9833299999999996},"country":"DE","_id":6554837,"name":"Eckelsheim"},{"coord":{"lat":49.799999,"lon":7.9833299999999996},"country":"DE","_id":2933669,"name":"Eckelsheim"},{"coord":{"lat":50.700001,"lon":7.4666699999999997},"country":"DE","_id":2933663,"name":"Eckenbach"},{"coord":{"lat":50.983330000000002,"lon":7.7000000000000002},"country":"DE","_id":2933654,"name":"Eckenhagen"},{"coord":{"lat":49.583328000000002,"lon":11.23333},"country":"DE","_id":2933653,"name":"Eckenhaid"},{"coord":{"lat":49.916697999999997,"lon":7.7833300000000003},"country":"DE","_id":6553484,"name":"Eckenroth"},{"coord":{"lat":49.916671999999998,"lon":7.7833300000000003},"country":"DE","_id":2933643,"name":"Eckenroth"},{"coord":{"lat":49.099997999999999,"lon":11.68333},"country":"DE","_id":2933632,"name":"Eckerding"},{"coord":{"lat":54.466670999999998,"lon":9.8333300000000001},"country":"DE","_id":2933627,"name":"Eckernforde"},{"coord":{"lat":60.212490000000003,"lon":19.614419999999999},"country":"AX","_id":3041807,"name":"Eckeroe"},{"coord":{"lat":50.733330000000002,"lon":12.5},"country":"DE","_id":2933618,"name":"Eckersbach"},{"coord":{"lat":50.966670999999998,"lon":13.633330000000001},"country":"DE","_id":2933606,"name":"Eckersdorf"},{"coord":{"lat":49.932949000000001,"lon":11.501670000000001},"country":"DE","_id":6556755,"name":"Eckersdorf"},{"coord":{"lat":49.934798999999998,"lon":11.49621},"country":"DE","_id":2933608,"name":"Eckersdorf"},{"coord":{"lat":50.033329000000002,"lon":11.4},"country":"DE","_id":2933607,"name":"Eckersdorf"},{"coord":{"lat":48.570900000000002,"lon":13.63691},"country":"DE","_id":2933601,"name":"Eckerstampf"},{"coord":{"lat":49.566699999999997,"lon":7.2833300000000003},"country":"DE","_id":6553583,"name":"Eckersweiler"},{"coord":{"lat":49.566668999999997,"lon":7.2833300000000003},"country":"DE","_id":2933599,"name":"Eckersweiler"},{"coord":{"lat":60.222938999999997,"lon":19.554978999999999},"country":"AX","_id":3041809,"name":"Ecker√∂"},{"coord":{"lat":50.116698999999997,"lon":6.8499999999999996},"country":"DE","_id":6554312,"name":"Eckfeld"},{"coord":{"lat":50.116669000000002,"lon":6.8499999999999996},"country":"DE","_id":2933587,"name":"Eckfeld"},{"coord":{"lat":48.351170000000003,"lon":11.27463},"country":"DE","_id":2933566,"name":"Eckhofen"},{"coord":{"lat":53.900002000000001,"lon":10.6},"country":"DE","_id":2933560,"name":"Eckhorst"},{"coord":{"lat":47.450001,"lon":12.383330000000001},"country":"AT","_id":2780472,"name":"Ecking"},{"coord":{"lat":53.950001,"lon":9.2666699999999995},"country":"DE","_id":6552182,"name":"Ecklak"},{"coord":{"lat":53.950001,"lon":9.2666699999999995},"country":"DE","_id":2933550,"name":"Ecklak"},{"coord":{"lat":-38.400002000000001,"lon":142.91667200000001},"country":"AU","_id":2167813,"name":"Ecklin South"},{"coord":{"lat":51.5,"lon":10.316700000000001},"country":"DE","_id":6549766,"name":"Ecklingerode"},{"coord":{"lat":51.5,"lon":10.31667},"country":"DE","_id":2933543,"name":"Ecklingerode"},{"coord":{"lat":51.033329000000002,"lon":11.633330000000001},"country":"DE","_id":2933534,"name":"Eckolst√§dt"},{"coord":{"lat":48.25,"lon":12.48333},"country":"DE","_id":2933529,"name":"Ecksberg"},{"coord":{"lat":51.066699999999997,"lon":11.1333},"country":"DE","_id":6550120,"name":"Eckstedt"},{"coord":{"lat":51.066668999999997,"lon":11.133330000000001},"country":"DE","_id":2933524,"name":"Eckstedt"},{"coord":{"lat":48.681671000000001,"lon":7.6968699999999997},"country":"FR","_id":3020488,"name":"Eckwersheim"},{"coord":{"lat":32.63541,"lon":-86.034408999999997},"country":"US","_id":4060176,"name":"Eclectic"},{"coord":{"lat":47.825648999999999,"lon":0.27422000000000002},"country":"FR","_id":3020462,"name":"Ecommoy"},{"coord":{"lat":45.383450000000003,"lon":-63.915427999999999},"country":"CA","_id":5946502,"name":"Economy"},{"coord":{"lat":40.600071,"lon":-80.224777000000003},"country":"US","_id":5188236,"name":"Economy"},{"coord":{"lat":-18.373328999999998,"lon":-40.830559000000001},"country":"BR","_id":3464364,"name":"Ecoporanga"},{"coord":{"lat":42.244480000000003,"lon":-83.145759999999996},"country":"US","_id":4991791,"name":"Ecorse"},{"coord":{"lat":48.717522000000002,"lon":-0.12409000000000001},"country":"FR","_id":3020441,"name":"Ecouche"},{"coord":{"lat":49.020617999999999,"lon":2.3830900000000002},"country":"FR","_id":3020440,"name":"Ecouen"},{"coord":{"lat":47.531010000000002,"lon":-0.52780000000000005},"country":"FR","_id":3020439,"name":"Ecouflant"},{"coord":{"lat":50.252257999999998,"lon":3.0733100000000002},"country":"FR","_id":3020437,"name":"Ecourt-Saint-Quentin"},{"coord":{"lat":45.822299999999998,"lon":-0.50539000000000001},"country":"FR","_id":3020432,"name":"Ecoyeux"},{"coord":{"lat":50.669978999999998,"lon":2.28633},"country":"FR","_id":3020429,"name":"Ecques"},{"coord":{"lat":48.951920000000001,"lon":1.9233800000000001},"country":"FR","_id":3020426,"name":"Ecquevilly"},{"coord":{"lat":49.649428999999998,"lon":0.32488},"country":"FR","_id":3020425,"name":"Ecrainville"},{"coord":{"lat":-20.226109999999998,"lon":57.736111000000001},"country":"MU","_id":1106660,"name":"Ecroignard"},{"coord":{"lat":48.679371000000003,"lon":5.8443300000000002},"country":"FR","_id":3020411,"name":"Ecrouves"},{"coord":{"lat":47.732669999999999,"lon":19.766960000000001},"country":"HU","_id":3053406,"name":"Ecsed"},{"coord":{"lat":47.443890000000003,"lon":19.324498999999999},"country":"HU","_id":3053402,"name":"Ecser"},{"coord":{"lat":31.866790999999999,"lon":-102.55043000000001},"country":"US","_id":5520910,"name":"Ector County"},{"coord":{"lat":20.16667,"lon":-102.18332700000001},"country":"MX","_id":4011703,"name":"Ecuandureo"},{"coord":{"lat":46.607348999999999,"lon":6.8089500000000003},"country":"CH","_id":2660947,"name":"Ecublens"},{"coord":{"lat":46.528992000000002,"lon":6.5626100000000003},"country":"CH","_id":6285791,"name":"Ecublens"},{"coord":{"lat":46.615341000000001,"lon":6.8070399999999998},"country":"CH","_id":7285697,"name":"Ecublens (FR)"},{"coord":{"lat":46.52758,"lon":6.5605200000000004},"country":"CH","_id":7285698,"name":"Ecublens (VD)"},{"coord":{"lat":47.084620999999999,"lon":1.3466800000000001},"country":"FR","_id":3020405,"name":"Ecueille"},{"coord":{"lat":48.356361,"lon":2.8233600000000001},"country":"FR","_id":3020401,"name":"Ecuelles"},{"coord":{"lat":46.756309999999999,"lon":4.5384500000000001},"country":"FR","_id":3020396,"name":"Ecuisses"},{"coord":{"lat":45.777259999999998,"lon":4.7748100000000004},"country":"FR","_id":3020392,"name":"Ecully"},{"coord":{"lat":58.912497999999999,"lon":11.92534},"country":"SE","_id":2716968,"name":"Ed"},{"coord":{"lat":17.592779,"lon":33.959170999999998},"country":"SD","_id":380173,"name":"Ed Damer"},{"coord":{"lat":10.610200000000001,"lon":76.183516999999995},"country":"IN","_id":7283585,"name":"Edakkulam"},{"coord":{"lat":53.183472000000002,"lon":-108.768112},"country":"CA","_id":5946523,"name":"Edam"},{"coord":{"lat":52.512149999999998,"lon":5.0480499999999999},"country":"NL","_id":2756431,"name":"Edam"},{"coord":{"lat":26.293960999999999,"lon":-97.960564000000005},"country":"US","_id":4688216,"name":"Edcouch"},{"coord":{"lat":13.92972,"lon":41.692501},"country":"ER","_id":338345,"name":"Edd"},{"coord":{"lat":53.950001,"lon":9.1500000000000004},"country":"DE","_id":6551316,"name":"Eddelak"},{"coord":{"lat":53.950001,"lon":9.1500000000000004},"country":"DE","_id":2933488,"name":"Eddelak"},{"coord":{"lat":53.383330999999998,"lon":9.9666700000000006},"country":"DE","_id":2933487,"name":"Eddelsen"},{"coord":{"lat":51.683331000000003,"lon":11.93333},"country":"DE","_id":2933485,"name":"Edderitz"},{"coord":{"lat":50.033329000000002,"lon":8.4666700000000006},"country":"DE","_id":2933484,"name":"Eddersheim"},{"coord":{"lat":57.833148999999999,"lon":-4.1761600000000003},"country":"GB","_id":2650257,"name":"Edderton"},{"coord":{"lat":-36.883330999999998,"lon":143.85000600000001},"country":"AU","_id":2167806,"name":"Eddington"},{"coord":{"lat":44.826180000000001,"lon":-68.693366999999995},"country":"US","_id":4963547,"name":"Eddington"},{"coord":{"lat":40.084560000000003,"lon":-74.944892999999993},"country":"US","_id":5188243,"name":"Eddington"},{"coord":{"lat":32.875660000000003,"lon":-104.75108299999999},"country":"US","_id":5466318,"name":"Eddy County"},{"coord":{"lat":39.860111000000003,"lon":-75.344359999999995},"country":"US","_id":4557760,"name":"Eddystone"},{"coord":{"lat":37.094501000000001,"lon":-88.080298999999997},"country":"US","_id":4290859,"name":"Eddyville"},{"coord":{"lat":41.156502000000003,"lon":-92.637389999999996},"country":"US","_id":4855167,"name":"Eddyville"},{"coord":{"lat":52.033329000000002,"lon":5.6583300000000003},"country":"NL","_id":2756429,"name":"Ede"},{"coord":{"lat":3.7999999999999998,"lon":10.133330000000001},"country":"CM","_id":2232239,"name":"Edea"},{"coord":{"lat":66.216667000000001,"lon":20.899999999999999},"country":"SE","_id":606266,"name":"Edefors"},{"coord":{"lat":51.156199999999998,"lon":4.4465399999999997},"country":"BE","_id":2799008,"name":"Edegem"},{"coord":{"lat":51.156619999999997,"lon":4.4450399999999997},"country":"BE","_id":2799007,"name":"Edegem"},{"coord":{"lat":-17.338329000000002,"lon":-49.931389000000003},"country":"BR","_id":3464363,"name":"Edeia"},{"coord":{"lat":50.116669000000002,"lon":9.3000000000000007},"country":"DE","_id":2933478,"name":"Edelbach"},{"coord":{"lat":48.299999,"lon":20.733329999999999},"country":"HU","_id":721246,"name":"Edeleny"},{"coord":{"lat":-26.75,"lon":-55.266669999999998},"country":"PY","_id":3438743,"name":"Edelira"},{"coord":{"lat":46.996848999999997,"lon":15.83066},"country":"AT","_id":7872285,"name":"Edelsbach bei Feldbach"},{"coord":{"lat":46.989440999999999,"lon":15.83694},"country":"AT","_id":2780454,"name":"Edelsbach bei Feldbach"},{"coord":{"lat":46.999248999999999,"lon":15.052099999999999},"country":"AT","_id":7873540,"name":"Edelschrott"},{"coord":{"lat":47.016669999999998,"lon":15.050000000000001},"country":"AT","_id":2780452,"name":"Edelschrott"},{"coord":{"lat":49.566699999999997,"lon":11.699999999999999},"country":"DE","_id":6556614,"name":"Edelsfeld"},{"coord":{"lat":49.576439000000001,"lon":11.69589},"country":"DE","_id":2933452,"name":"Edelsfeld"},{"coord":{"lat":47.029159999999997,"lon":15.607469999999999},"country":"AT","_id":7872325,"name":"Edelsgrub"},{"coord":{"lat":47.033329000000002,"lon":15.6},"country":"AT","_id":2780450,"name":"Edelsgrub"},{"coord":{"lat":48.097529999999999,"lon":16.99671},"country":"AT","_id":7871597,"name":"Edelstal"},{"coord":{"lat":48.099997999999999,"lon":16.983329999999999},"country":"AT","_id":2780448,"name":"Edelstal"},{"coord":{"lat":46.972759000000003,"lon":15.630509999999999},"country":"AT","_id":7872286,"name":"Edelstauden"},{"coord":{"lat":46.983330000000002,"lon":15.616669999999999},"country":"AT","_id":2607522,"name":"Edelstauden"},{"coord":{"lat":50.526409000000001,"lon":9.7029899999999998},"country":"DE","_id":2933446,"name":"Edelzell"},{"coord":{"lat":52.383301000000003,"lon":10.2667},"country":"DE","_id":6552392,"name":"Edemissen"},{"coord":{"lat":52.38702,"lon":10.2614},"country":"DE","_id":2933442,"name":"Edemissen"},{"coord":{"lat":36.488467999999997,"lon":-79.766700999999998},"country":"US","_id":4464873,"name":"Eden"},{"coord":{"lat":47.269958000000003,"lon":-111.27217899999999},"country":"US","_id":5650429,"name":"Eden"},{"coord":{"lat":-37.066668999999997,"lon":149.89999399999999},"country":"AU","_id":2167799,"name":"Eden"},{"coord":{"lat":50.376418999999999,"lon":-99.470207000000002},"country":"CA","_id":5946577,"name":"Eden"},{"coord":{"lat":17.036550999999999,"lon":121.598038},"country":"PH","_id":1713959,"name":"Eden"},{"coord":{"lat":31.216280000000001,"lon":-99.845626999999993},"country":"US","_id":4688222,"name":"Eden"},{"coord":{"lat":42.652279,"lon":-78.896979999999999},"country":"US","_id":5116215,"name":"Eden"},{"coord":{"lat":41.288711999999997,"lon":-74.494331000000003},"country":"US","_id":5116216,"name":"Eden"},{"coord":{"lat":54.60548,"lon":-2.6252200000000001},"country":"GB","_id":7290666,"name":"Eden District"},{"coord":{"lat":-26.132299,"lon":28.168590999999999},"country":"ZA","_id":7302797,"name":"Eden Glen"},{"coord":{"lat":30.228531,"lon":-89.798668000000006},"country":"US","_id":4323546,"name":"Eden Isle"},{"coord":{"lat":-37.483330000000002,"lon":145.08332799999999},"country":"AU","_id":2167791,"name":"Eden Park"},{"coord":{"lat":37.755051000000002,"lon":-89.023955999999998},"country":"US","_id":4237669,"name":"Eden Park"},{"coord":{"lat":44.854691000000003,"lon":-93.470787000000001},"country":"US","_id":5025219,"name":"Eden Prairie"},{"coord":{"lat":-34.650002000000001,"lon":139.10000600000001},"country":"AU","_id":2072246,"name":"Eden Valley"},{"coord":{"lat":45.326068999999997,"lon":-94.546111999999994},"country":"US","_id":5025225,"name":"Eden Valley"},{"coord":{"lat":51.191718999999999,"lon":0.067290000000000003},"country":"GB","_id":2650246,"name":"Edenbridge"},{"coord":{"lat":53.150002000000001,"lon":8.6166699999999992},"country":"DE","_id":2933429,"name":"Edenb√ºttel"},{"coord":{"lat":53.345280000000002,"lon":-7.0497199999999998},"country":"IE","_id":2964436,"name":"Edenderry"},{"coord":{"lat":53.666739999999997,"lon":-2.3048099999999998},"country":"GB","_id":2650244,"name":"Edenfield"},{"coord":{"lat":-37.049999,"lon":141.300003},"country":"AU","_id":2167794,"name":"Edenhope"},{"coord":{"lat":49.283932,"lon":8.1271400000000007},"country":"DE","_id":2933410,"name":"Edenkoben"},{"coord":{"lat":54.108330000000002,"lon":-6.3475000000000001},"country":"IE","_id":3309350,"name":"Edentober"},{"coord":{"lat":36.057941,"lon":-76.607719000000003},"country":"US","_id":4464897,"name":"Edenton"},{"coord":{"lat":51.129489999999997,"lon":8.8664000000000005},"country":"DE","_id":2933388,"name":"Ederbringhausen"},{"coord":{"lat":48.816699999999997,"lon":10.466699999999999},"country":"DE","_id":6557276,"name":"Ederheim"},{"coord":{"lat":48.816668999999997,"lon":10.466670000000001},"country":"DE","_id":2933385,"name":"Ederheim"},{"coord":{"lat":48.099997999999999,"lon":-3.98333},"country":"FR","_id":3020374,"name":"Edern"},{"coord":{"lat":51.416697999999997,"lon":11.283300000000001},"country":"DE","_id":6549203,"name":"Edersleben"},{"coord":{"lat":51.416671999999998,"lon":11.283329999999999},"country":"DE","_id":2933372,"name":"Edersleben"},{"coord":{"lat":52.063332000000003,"lon":5.5777799999999997},"country":"NL","_id":2756426,"name":"Ederveen"},{"coord":{"lat":49.263302000000003,"lon":8.1349999999999998},"country":"DE","_id":6555177,"name":"Edesheim"},{"coord":{"lat":49.263328999999999,"lon":8.1349999999999998},"country":"DE","_id":2933367,"name":"Edesheim"},{"coord":{"lat":40.800559999999997,"lon":22.047219999999999},"country":"GR","_id":736357,"name":"Edessa"},{"coord":{"lat":53.133330999999998,"lon":7.9833299999999996},"country":"DE","_id":2933364,"name":"Edewecht"},{"coord":{"lat":53.083328000000002,"lon":7.9333299999999998},"country":"DE","_id":2933363,"name":"Edewechterdamm"},{"coord":{"lat":44.516810999999997,"lon":-79.616332999999997},"country":"CA","_id":5946620,"name":"Edgar"},{"coord":{"lat":44.927188999999998,"lon":-89.963463000000004},"country":"US","_id":5251521,"name":"Edgar"},{"coord":{"lat":30.043261000000001,"lon":-90.560089000000005},"country":"US","_id":4323551,"name":"Edgard"},{"coord":{"lat":41.389011000000004,"lon":-70.513358999999994},"country":"US","_id":4935645,"name":"Edgartown"},{"coord":{"lat":52.462299000000002,"lon":-1.9211499999999999},"country":"GB","_id":2650236,"name":"Edgbaston"},{"coord":{"lat":-16.899999999999999,"lon":145.75},"country":"AU","_id":2167771,"name":"Edge Hill"},{"coord":{"lat":32.657631000000002,"lon":-97.342788999999996},"country":"US","_id":4688248,"name":"Edgecliff Village"},{"coord":{"lat":43.958407999999999,"lon":-69.630600000000001},"country":"US","_id":4963559,"name":"Edgecomb"},{"coord":{"lat":-37.183331000000003,"lon":144.433334},"country":"AU","_id":2167776,"name":"Edgecombe"},{"coord":{"lat":35.900162000000002,"lon":-77.583031000000005},"country":"US","_id":4464909,"name":"Edgecombe County"},{"coord":{"lat":-37.983330000000002,"lon":176.83332799999999},"country":"NZ","_id":2191451,"name":"Edgecumbe"},{"coord":{"lat":33.789580999999998,"lon":-81.929558},"country":"US","_id":4577532,"name":"Edgefield"},{"coord":{"lat":-33.872410000000002,"lon":18.539770000000001},"country":"ZA","_id":3368192,"name":"Edgemead"},{"coord":{"lat":39.242049999999999,"lon":-76.448020999999997},"country":"US","_id":4354060,"name":"Edgemere"},{"coord":{"lat":42.746699999999997,"lon":-84.593590000000006},"country":"US","_id":4991823,"name":"Edgemont Park"},{"coord":{"lat":39.750110999999997,"lon":-75.499640999999997},"country":"US","_id":4142398,"name":"Edgemoor"},{"coord":{"lat":-30.100000000000001,"lon":149.800003},"country":"AU","_id":2167767,"name":"Edgeroi"},{"coord":{"lat":52.750140999999999,"lon":-110.451599},"country":"CA","_id":5946660,"name":"Edgerton"},{"coord":{"lat":38.764729000000003,"lon":-95.008018000000007},"country":"US","_id":4270819,"name":"Edgerton"},{"coord":{"lat":43.872470999999997,"lon":-96.128639000000007},"country":"US","_id":5025249,"name":"Edgerton"},{"coord":{"lat":41.448661999999999,"lon":-84.748008999999996},"country":"US","_id":5152935,"name":"Edgerton"},{"coord":{"lat":42.835281000000002,"lon":-89.067611999999997},"country":"US","_id":5251524,"name":"Edgerton"},{"coord":{"lat":28.988880000000002,"lon":-80.902282999999997},"country":"US","_id":4154205,"name":"Edgewater"},{"coord":{"lat":38.957062000000001,"lon":-76.549957000000006},"country":"US","_id":4354072,"name":"Edgewater"},{"coord":{"lat":40.827041999999999,"lon":-73.975693000000007},"country":"US","_id":5097575,"name":"Edgewater"},{"coord":{"lat":39.753039999999999,"lon":-105.064148},"country":"US","_id":5420859,"name":"Edgewater"},{"coord":{"lat":40.068168999999997,"lon":-74.900718999999995},"country":"US","_id":5097521,"name":"Edgewater Park"},{"coord":{"lat":49.783161,"lon":-118.152283},"country":"CA","_id":5946666,"name":"Edgewood"},{"coord":{"lat":39.41872,"lon":-76.294403000000003},"country":"US","_id":4354087,"name":"Edgewood"},{"coord":{"lat":28.48612,"lon":-81.372292000000002},"country":"US","_id":4154216,"name":"Edgewood"},{"coord":{"lat":39.018669000000003,"lon":-84.581885999999997},"country":"US","_id":4290873,"name":"Edgewood"},{"coord":{"lat":32.698180999999998,"lon":-95.885238999999999},"country":"US","_id":4688254,"name":"Edgewood"},{"coord":{"lat":40.103371000000003,"lon":-85.734138000000002},"country":"US","_id":4919937,"name":"Edgewood"},{"coord":{"lat":41.872829000000003,"lon":-80.772857999999999},"country":"US","_id":5152947,"name":"Edgewood"},{"coord":{"lat":40.432011000000003,"lon":-79.881439},"country":"US","_id":5188284,"name":"Edgewood"},{"coord":{"lat":40.788421999999997,"lon":-76.572456000000003},"country":"US","_id":5188287,"name":"Edgewood"},{"coord":{"lat":35.061439999999997,"lon":-106.191406},"country":"US","_id":5466336,"name":"Edgewood"},{"coord":{"lat":47.250098999999999,"lon":-122.29373200000001},"country":"US","_id":5793406,"name":"Edgewood"},{"coord":{"lat":40.551181999999997,"lon":-80.192841000000001},"country":"US","_id":5188302,"name":"Edgeworth"},{"coord":{"lat":51.612800999999997,"lon":-0.27539000000000002},"country":"GB","_id":2650228,"name":"Edgware"},{"coord":{"lat":50.099997999999999,"lon":7.1666699999999999},"country":"DE","_id":2933350,"name":"Ediger"},{"coord":{"lat":50.116698999999997,"lon":7.1500000000000004},"country":"DE","_id":6553675,"name":"Ediger-Eller"},{"coord":{"lat":50.116669000000002,"lon":7.1500000000000004},"country":"DE","_id":3207699,"name":"Ediger-Eller"},{"coord":{"lat":49.531669999999998,"lon":8.3841699999999992},"country":"DE","_id":2933349,"name":"Edigheim"},{"coord":{"lat":-34.400002000000001,"lon":135.71667500000001},"country":"AU","_id":2072235,"name":"Edillilie"},{"coord":{"lat":44.889690000000002,"lon":-93.349952999999999},"country":"US","_id":5025264,"name":"Edina"},{"coord":{"lat":40.167541999999997,"lon":-92.172684000000004},"country":"US","_id":4832684,"name":"Edina"},{"coord":{"lat":41.874222000000003,"lon":-80.131720999999999},"country":"US","_id":5188306,"name":"Edinboro"},{"coord":{"lat":26.301741,"lon":-98.163337999999996},"country":"US","_id":4688275,"name":"Edinburg"},{"coord":{"lat":39.657268999999999,"lon":-89.389526000000004},"country":"US","_id":4237687,"name":"Edinburg"},{"coord":{"lat":38.820950000000003,"lon":-78.565849},"country":"US","_id":4757240,"name":"Edinburg"},{"coord":{"lat":55.952061,"lon":-3.1964800000000002},"country":"GB","_id":2650225,"name":"Edinburgh"},{"coord":{"lat":39.354221000000003,"lon":-85.966660000000005},"country":"US","_id":4257043,"name":"Edinburgh"},{"coord":{"lat":-37.067570000000003,"lon":-12.31155},"country":"SH","_id":3370726,"name":"Edinburgh of the Seven Seas"},{"coord":{"lat":48.168059999999997,"lon":27.305},"country":"MD","_id":617076,"name":"Edinet"},{"coord":{"lat":49.816668999999997,"lon":6.4833299999999996},"country":"DE","_id":2933347,"name":"Edingen"},{"coord":{"lat":49.457199000000003,"lon":8.6063899999999993},"country":"DE","_id":6555682,"name":"Edingen-Neckarhausen"},{"coord":{"lat":49.457217999999997,"lon":8.6063899999999993},"country":"DE","_id":2933345,"name":"Edingen-Neckarhausen"},{"coord":{"lat":51.275829000000002,"lon":-2.1063900000000002},"country":"GB","_id":2650218,"name":"Edington"},{"coord":{"lat":41.25,"lon":26.66667},"country":"TR","_id":747711,"name":"Edirne"},{"coord":{"lat":41.677188999999998,"lon":26.555969000000001},"country":"TR","_id":747712,"name":"Edirne"},{"coord":{"lat":40.518718999999997,"lon":-74.412102000000004},"country":"US","_id":5097529,"name":"Edison"},{"coord":{"lat":31.558229000000001,"lon":-84.738251000000005},"country":"US","_id":4192985,"name":"Edison"},{"coord":{"lat":44.051108999999997,"lon":44.540829000000002},"country":"RU","_id":563556,"name":"Edissiya"},{"coord":{"lat":33.47654,"lon":-80.898696999999999},"country":"US","_id":4577557,"name":"Edisto"},{"coord":{"lat":-33.799999,"lon":149.91667200000001},"country":"AU","_id":2167758,"name":"Edith"},{"coord":{"lat":-40.966670999999998,"lon":145.10000600000001},"country":"AU","_id":2167754,"name":"Edith Creek"},{"coord":{"lat":52.637858999999999,"lon":-0.63188999999999995},"country":"GB","_id":2650217,"name":"Edith Weston"},{"coord":{"lat":-35.099997999999999,"lon":137.73333700000001},"country":"AU","_id":2072224,"name":"Edithburgh"},{"coord":{"lat":-38.037239,"lon":145.10974100000001},"country":"AU","_id":2167751,"name":"Edithvale"},{"coord":{"lat":51.666671999999998,"lon":11.81667},"country":"DE","_id":2933343,"name":"Edlau"},{"coord":{"lat":48.066699999999997,"lon":12.166700000000001},"country":"DE","_id":6556359,"name":"Edling"},{"coord":{"lat":48.056109999999997,"lon":12.1647},"country":"DE","_id":2933333,"name":"Edling"},{"coord":{"lat":47.594410000000003,"lon":16.161921},"country":"AT","_id":7871859,"name":"Edlitz"},{"coord":{"lat":47.583328000000002,"lon":16.133329},"country":"AT","_id":2780409,"name":"Edlitz"},{"coord":{"lat":35.652828,"lon":-97.478104000000002},"country":"US","_id":4535740,"name":"Edmond"},{"coord":{"lat":47.810650000000003,"lon":-122.377357},"country":"US","_id":5793427,"name":"Edmonds"},{"coord":{"lat":38.946781000000001,"lon":-76.931090999999995},"country":"US","_id":4354121,"name":"Edmonston"},{"coord":{"lat":53.550139999999999,"lon":-113.468712},"country":"CA","_id":5946768,"name":"Edmonton"},{"coord":{"lat":36.980060999999999,"lon":-85.612189999999998},"country":"US","_id":4290886,"name":"Edmonton"},{"coord":{"lat":43.408088999999997,"lon":-85.038628000000003},"country":"US","_id":4991857,"name":"Edmore"},{"coord":{"lat":47.373699000000002,"lon":-68.325119000000001},"country":"CA","_id":6545023,"name":"Edmundston"},{"coord":{"lat":43.384971999999998,"lon":-96.094466999999995},"country":"US","_id":4855139,"name":"Edna"},{"coord":{"lat":28.978590000000001,"lon":-96.646088000000006},"country":"US","_id":4046274,"name":"Edna"},{"coord":{"lat":35.394008999999997,"lon":-82.340950000000007},"country":"US","_id":4464963,"name":"Edneyville"},{"coord":{"lat":6.5,"lon":6},"country":"NG","_id":2565343,"name":"Edo"},{"coord":{"lat":46.178199999999997,"lon":10.32916},"country":"IT","_id":3177435,"name":"Edolo"},{"coord":{"lat":36.138432000000002,"lon":136.212357},"country":"JP","_id":1864240,"name":"Edome-naka"},{"coord":{"lat":35.950001,"lon":140.316666},"country":"JP","_id":2112963,"name":"Edosaki"},{"coord":{"lat":0.46666999999999997,"lon":9.4166699999999999},"country":"GA","_id":2400870,"name":"Edouangani I"},{"coord":{"lat":39.596111000000001,"lon":27.024440999999999},"country":"TR","_id":315985,"name":"Edremit"},{"coord":{"lat":61.376919000000001,"lon":15.81747},"country":"SE","_id":2716863,"name":"Edsbyn"},{"coord":{"lat":62.483330000000002,"lon":17.299999},"country":"SE","_id":2716854,"name":"Edsg√•rden"},{"coord":{"lat":53.583449999999999,"lon":-116.435593},"country":"CA","_id":5946820,"name":"Edson"},{"coord":{"lat":59.433331000000003,"lon":13.18333},"country":"SE","_id":2716825,"name":"Edsvalla"},{"coord":{"lat":48.106022000000003,"lon":13.89981},"country":"AT","_id":7872183,"name":"Edt bei Lambach"},{"coord":{"lat":48.116669000000002,"lon":13.883330000000001},"country":"AT","_id":2780397,"name":"Edt bei Lambach"},{"coord":{"lat":-35.915008999999998,"lon":-64.294478999999995},"country":"AR","_id":3859036,"name":"Eduardo Castex"},{"coord":{"lat":-3.1441699999999999,"lon":-60.00806},"country":"BR","_id":3754135,"name":"Educandos"},{"coord":{"lat":54.150168999999998,"lon":-112.28521000000001},"country":"CA","_id":5946824,"name":"Edwand"},{"coord":{"lat":32.330151000000001,"lon":-90.605652000000006},"country":"US","_id":4425435,"name":"Edwards"},{"coord":{"lat":39.644989000000002,"lon":-106.5942},"country":"US","_id":5420885,"name":"Edwards"},{"coord":{"lat":34.904491,"lon":-117.929451},"country":"US","_id":7261098,"name":"Edwards Air Force Base"},{"coord":{"lat":41.795600999999998,"lon":-86.080841000000007},"country":"US","_id":4991879,"name":"Edwardsburg"},{"coord":{"lat":46.166840000000001,"lon":-60.231749999999998},"country":"CA","_id":5946917,"name":"Edwardsville"},{"coord":{"lat":38.811439999999997,"lon":-89.953163000000004},"country":"US","_id":4237717,"name":"Edwardsville"},{"coord":{"lat":39.061118999999998,"lon":-94.819678999999994},"country":"US","_id":4270847,"name":"Edwardsville"},{"coord":{"lat":41.269531000000001,"lon":-75.916313000000002},"country":"US","_id":5188347,"name":"Edwardsville"},{"coord":{"lat":53.194538000000001,"lon":-1.0643899999999999},"country":"GB","_id":2650200,"name":"Edwinstowe"},{"coord":{"lat":52.055968999999997,"lon":-0.21715000000000001},"country":"GB","_id":2650199,"name":"Edworth"},{"coord":{"lat":52.166671999999998,"lon":6.2249999999999996},"country":"NL","_id":2756418,"name":"Eefde"},{"coord":{"lat":51.193890000000003,"lon":3.5638299999999998},"country":"BE","_id":2798988,"name":"Eeklo"},{"coord":{"lat":51.187030999999998,"lon":3.55654},"country":"BE","_id":2798987,"name":"Eeklo"},{"coord":{"lat":53.076672000000002,"lon":6.3958300000000001},"country":"NL","_id":2756380,"name":"Een"},{"coord":{"lat":-17.466669,"lon":16.33333},"country":"NA","_id":3357804,"name":"Eenhana"},{"coord":{"lat":52.104999999999997,"lon":6.0583299999999998},"country":"NL","_id":2756351,"name":"Eerbeek"},{"coord":{"lat":51.604171999999998,"lon":5.4986100000000002},"country":"NL","_id":2756349,"name":"Eerde"},{"coord":{"lat":51.357498,"lon":5.31806},"country":"NL","_id":2756342,"name":"Eersel"},{"coord":{"lat":-25.705459999999999,"lon":28.314951000000001},"country":"ZA","_id":1105774,"name":"Eersterus"},{"coord":{"lat":28.111750000000001,"lon":114.4524},"country":"CN","_id":7690162,"name":"Efeng"},{"coord":{"lat":51.233299000000002,"lon":10.25},"country":"DE","_id":6549767,"name":"Effelder"},{"coord":{"lat":51.233330000000002,"lon":10.25},"country":"DE","_id":2933297,"name":"Effelder"},{"coord":{"lat":49.662201000000003,"lon":11.0908},"country":"DE","_id":6556780,"name":"Effeltrich"},{"coord":{"lat":49.659289999999999,"lon":11.09319},"country":"DE","_id":2933287,"name":"Effeltrich"},{"coord":{"lat":46.033329000000002,"lon":3.25},"country":"FR","_id":6440024,"name":"Effiat"},{"coord":{"lat":46.041350999999999,"lon":3.2574100000000001},"country":"FR","_id":3020367,"name":"Effiat"},{"coord":{"lat":47.488681999999997,"lon":8.1028599999999997},"country":"CH","_id":2660945,"name":"Effingen"},{"coord":{"lat":39.120041000000001,"lon":-88.543380999999997},"country":"US","_id":4237727,"name":"Effingham"},{"coord":{"lat":43.761189000000002,"lon":-70.996459999999999},"country":"US","_id":5085825,"name":"Effingham"},{"coord":{"lat":32.366858999999998,"lon":-81.333168000000001},"country":"US","_id":4193042,"name":"Effingham County"},{"coord":{"lat":6.6291700000000002,"lon":8.0592500000000005},"country":"NG","_id":2343985,"name":"Effium"},{"coord":{"lat":7.6500000000000004,"lon":4.9166699999999999},"country":"NG","_id":2343983,"name":"Effon Alaiye"},{"coord":{"lat":40.939259,"lon":-75.434914000000006},"country":"US","_id":5188339,"name":"Effort"},{"coord":{"lat":47.425750999999998,"lon":8.6909399999999994},"country":"CH","_id":2660944,"name":"Effretikon"},{"coord":{"lat":47.423881999999999,"lon":8.6965299999999992},"country":"CH","_id":6293906,"name":"Effretikon \/ Rappenhalde-Bannhalde"},{"coord":{"lat":47.446739000000001,"lon":8.79528},"country":"CH","_id":2659024,"name":"Effretikon \/ Rikon"},{"coord":{"lat":47.427970999999999,"lon":8.6982199999999992},"country":"CH","_id":6293903,"name":"Effretikon \/ Watt"},{"coord":{"lat":40.687778000000002,"lon":22.953609},"country":"GR","_id":736296,"name":"Efkarpia"},{"coord":{"lat":41.422890000000002,"lon":32.957611},"country":"TR","_id":747705,"name":"Eflani"},{"coord":{"lat":44.022942,"lon":28.649429000000001},"country":"RO","_id":678588,"name":"Eforie Sud"},{"coord":{"lat":47.650002000000001,"lon":7.5666700000000002},"country":"DE","_id":6555878,"name":"Efringen-Kirchen"},{"coord":{"lat":47.650002000000001,"lon":7.5666700000000002},"country":"DE","_id":2933274,"name":"Efringen-Kirchen"},{"coord":{"lat":44.900280000000002,"lon":22.092779},"country":"RO","_id":678587,"name":"Eftimie Murgu"},{"coord":{"lat":58.164088999999997,"lon":7.9815699999999996},"country":"NO","_id":3158795,"name":"Eg"},{"coord":{"lat":48.683331000000003,"lon":110.18332700000001},"country":"MN","_id":2031484,"name":"Eg"},{"coord":{"lat":50.109439999999999,"lon":101.57527899999999},"country":"MN","_id":2031408,"name":"Eg-Uur"},{"coord":{"lat":40.093521000000003,"lon":-8.5490300000000001},"country":"PT","_id":8011815,"name":"Ega"},{"coord":{"lat":10.747199999999999,"lon":122.00984200000001},"country":"PH","_id":1713955,"name":"Egana"},{"coord":{"lat":-37.366669000000002,"lon":144.08332799999999},"country":"AU","_id":2167707,"name":"Eganstown"},{"coord":{"lat":45.533408999999999,"lon":-77.099449000000007},"country":"CA","_id":5947035,"name":"Eganville"},{"coord":{"lat":35.116669000000002,"lon":136.050003},"country":"JP","_id":1864237,"name":"Egashira"},{"coord":{"lat":8.2166700000000006,"lon":5.5166700000000004},"country":"NG","_id":2343943,"name":"Egbe"},{"coord":{"lat":55.282299000000002,"lon":8.7272099999999995},"country":"DK","_id":2622765,"name":"Egeb√¶k"},{"coord":{"lat":55.755561999999998,"lon":12.227779999999999},"country":"DK","_id":6543948,"name":"Egedal Kommune"},{"coord":{"lat":58.215561000000001,"lon":-157.37582399999999},"country":"US","_id":5861423,"name":"Egegik"},{"coord":{"lat":51.943840000000002,"lon":11.432650000000001},"country":"DE","_id":2933256,"name":"Egeln"},{"coord":{"lat":51.950001,"lon":11.433299999999999},"country":"DE","_id":6550919,"name":"Egeln, Stadt"},{"coord":{"lat":49.965949999999999,"lon":8.6736000000000004},"country":"DE","_id":6553199,"name":"Egelsbach"},{"coord":{"lat":49.971111000000001,"lon":8.67028},"country":"DE","_id":2933246,"name":"Egelsbach"},{"coord":{"lat":50.633330999999998,"lon":11.08333},"country":"DE","_id":2933240,"name":"Egelsdorf"},{"coord":{"lat":48.189208999999998,"lon":15.673030000000001},"country":"AT","_id":2780391,"name":"Egelsee"},{"coord":{"lat":48.299999,"lon":11.15},"country":"DE","_id":2933220,"name":"Egenburg"},{"coord":{"lat":50.031951999999997,"lon":10.08991},"country":"DE","_id":2933214,"name":"Egenhausen"},{"coord":{"lat":48.566699999999997,"lon":8.6166699999999992},"country":"DE","_id":6555687,"name":"Egenhausen"},{"coord":{"lat":48.566668999999997,"lon":8.6166699999999992},"country":"DE","_id":2933216,"name":"Egenhausen"},{"coord":{"lat":48.283298000000002,"lon":11.166700000000001},"country":"DE","_id":6556217,"name":"Egenhofen"},{"coord":{"lat":48.283329000000002,"lon":11.16667},"country":"DE","_id":2933212,"name":"Egenhofen"},{"coord":{"lat":47.766669999999998,"lon":11.23333},"country":"DE","_id":2933210,"name":"Egenried"},{"coord":{"lat":50.183331000000003,"lon":7.9500000000000002},"country":"DE","_id":2933209,"name":"Egenroth"},{"coord":{"lat":47.902648999999997,"lon":20.373289},"country":"HU","_id":721239,"name":"Eger"},{"coord":{"lat":47.907829,"lon":12.5366},"country":"DE","_id":2933203,"name":"Egerer"},{"coord":{"lat":47.325989,"lon":7.7963399999999998},"country":"CH","_id":7285701,"name":"Egerkingen"},{"coord":{"lat":47.319569000000001,"lon":7.7842399999999996},"country":"CH","_id":2660943,"name":"Egerkingen"},{"coord":{"lat":58.451327999999997,"lon":5.9996999999999998},"country":"NO","_id":3158792,"name":"Egersund"},{"coord":{"lat":47.866669000000002,"lon":20.33333},"country":"HU","_id":721225,"name":"Egerszalok"},{"coord":{"lat":48.116698999999997,"lon":8.8666699999999992},"country":"DE","_id":6555839,"name":"Egesheim"},{"coord":{"lat":48.116669000000002,"lon":8.8666699999999992},"country":"DE","_id":2933190,"name":"Egesheim"},{"coord":{"lat":52.219119999999997,"lon":9.4006900000000009},"country":"DE","_id":2933189,"name":"Egestorf"},{"coord":{"lat":53.193001000000002,"lon":10.063000000000001},"country":"DE","_id":6552627,"name":"Egestorf"},{"coord":{"lat":53.193001000000002,"lon":10.063000000000001},"country":"DE","_id":2933187,"name":"Egestorf"},{"coord":{"lat":52.283329000000002,"lon":9.5166699999999995},"country":"DE","_id":2933188,"name":"Egestorf"},{"coord":{"lat":47.471859000000002,"lon":8.5845099999999999},"country":"CH","_id":6291256,"name":"Egetswil"},{"coord":{"lat":47.587817999999999,"lon":7.9609699999999997},"country":"DE","_id":2933179,"name":"Egg"},{"coord":{"lat":47.633330999999998,"lon":9.9666700000000006},"country":"DE","_id":2933178,"name":"Egg"},{"coord":{"lat":47.297618999999997,"lon":8.6943199999999994},"country":"CH","_id":7285702,"name":"Egg"},{"coord":{"lat":47.407908999999997,"lon":9.9885000000000002},