[{"coord":{"lat":38.683331000000003,"lon":29.483329999999999},"country":"TR","_id":311616,"name":"İkisaray"},{"coord":{"lat":36.989719000000001,"lon":35.436100000000003},"country":"TR","_id":311319,"name":"İncirlik"},{"coord":{"lat":41.035080000000001,"lon":28.983311},"country":"TR","_id":745042,"name":"İstanbul"},{"coord":{"lat":38.462189000000002,"lon":27.092290999999999},"country":"TR","_id":311044,"name":"İzmir"},{"coord":{"lat":36.862040999999998,"lon":34.650879000000003},"country":"TR","_id":311728,"name":"İçel"}]