[{"coord":{"lat":42.829417999999997,"lon":-103.069908},"country":"US","_id":5696460,"name":"J and L Trailer Court"},{"coord":{"lat":-18.233329999999999,"lon":-51.966670999999998},"country":"BR","_id":3459872,"name":"J. M. Péres"},{"coord":{"lat":7.0743999999999998,"lon":79.891898999999995},"country":"LK","_id":1242835,"name":"Ja Ela"},{"coord":{"lat":61.049999,"lon":26.483329999999999},"country":"FI","_id":656183,"name":"Jaala"},{"coord":{"lat":13.223000000000001,"lon":45.305579999999999},"country":"YE","_id":74368,"name":"Jaar"},{"coord":{"lat":32.324089000000001,"lon":35.221321000000003},"country":"PS","_id":283570,"name":"Jaba"},{"coord":{"lat":31.857268999999999,"lon":35.258678000000003},"country":"PS","_id":283571,"name":"Jaba"},{"coord":{"lat":49.400002000000001,"lon":6.9000000000000004},"country":"DE","_id":2895528,"name":"Jabach"},{"coord":{"lat":-8.7276699999999998,"lon":115.17501799999999},"country":"ID","_id":7529289,"name":"Jabajero"},{"coord":{"lat":13.5,"lon":33.333328000000002},"country":"SD","_id":373463,"name":"Jabal Mayyah"},{"coord":{"lat":35.118327999999998,"lon":69.237778000000006},"country":"AF","_id":1139807,"name":"Jabal os Saraj"},{"coord":{"lat":-8.0822000000000003,"lon":111.966599},"country":"ID","_id":7579621,"name":"Jabalan"},{"coord":{"lat":40.237040999999998,"lon":-1.4080600000000001},"country":"ES","_id":6361538,"name":"Jabaloyas"},{"coord":{"lat":40.240101000000003,"lon":-1.40886},"country":"ES","_id":3120215,"name":"Jabaloyas"},{"coord":{"lat":23.166969000000002,"lon":79.950057999999999},"country":"IN","_id":1269633,"name":"Jabalpur"},{"coord":{"lat":38.017569999999999,"lon":-3.7600899999999999},"country":"ES","_id":6358499,"name":"Jabalquinto"},{"coord":{"lat":38.019348000000001,"lon":-3.72512},"country":"ES","_id":2516404,"name":"Jabalquinto"},{"coord":{"lat":31.52722,"lon":34.486339999999998},"country":"PS","_id":281129,"name":"Jabalya"},{"coord":{"lat":37.986018999999999,"lon":-1.2169700000000001},"country":"ES","_id":2516406,"name":"Jabalí Nuevo"},{"coord":{"lat":42.413071000000002,"lon":-5.5113500000000002},"country":"ES","_id":3120214,"name":"Jabares de los Oteros"},{"coord":{"lat":7.7500299999999998,"lon":168.97512800000001},"country":"MH","_id":7306526,"name":"Jabat"},{"coord":{"lat":51.185040000000001,"lon":3.0950199999999999},"country":"BE","_id":2795001,"name":"Jabbeke"},{"coord":{"lat":51.181849999999997,"lon":3.08935},"country":"BE","_id":2794999,"name":"Jabbeke"},{"coord":{"lat":53.169829999999997,"lon":12.44253},"country":"DE","_id":2895525,"name":"Jabel"},{"coord":{"lat":53.549999,"lon":12.550000000000001},"country":"DE","_id":6548062,"name":"Jabel"},{"coord":{"lat":53.549999,"lon":12.550000000000001},"country":"DE","_id":2895524,"name":"Jabel"},{"coord":{"lat":46.819420000000001,"lon":7.5658599999999998},"country":"CH","_id":7286157,"name":"Jaberg"},{"coord":{"lat":46.817959000000002,"lon":7.5691899999999999},"country":"CH","_id":6935404,"name":"Jaberg"},{"coord":{"lat":47.237121999999999,"lon":16.277539999999998},"country":"AT","_id":7871627,"name":"Jabing"},{"coord":{"lat":47.25,"lon":16.283331},"country":"AT","_id":2775163,"name":"Jabing"},{"coord":{"lat":35.034999999999997,"lon":10.90809},"country":"TN","_id":2470260,"name":"Jabinyanah"},{"coord":{"lat":35.361370000000001,"lon":35.925621},"country":"SY","_id":169304,"name":"Jablah"},{"coord":{"lat":43.660277999999998,"lon":17.761669000000001},"country":"BA","_id":3344411,"name":"Jablanica"},{"coord":{"lat":45.875832000000003,"lon":15.85361},"country":"HR","_id":3198994,"name":"Jablanovec"},{"coord":{"lat":51.725009999999997,"lon":23.087429},"country":"PL","_id":770731,"name":"Jablon"},{"coord":{"lat":50.703468000000001,"lon":15.429589999999999},"country":"CZ","_id":3074604,"name":"Jablonec nad Jizerou"},{"coord":{"lat":50.724311999999998,"lon":15.17108},"country":"CZ","_id":3074603,"name":"Jablonec nad Nisou"},{"coord":{"lat":49.697842000000001,"lon":21.899611},"country":"PL","_id":770724,"name":"Jablonica Polska"},{"coord":{"lat":49.694172000000002,"lon":22.115649999999999},"country":"PL","_id":770721,"name":"Jablonka"},{"coord":{"lat":49.479678999999997,"lon":19.693701000000001},"country":"PL","_id":3097823,"name":"Jablonka"},{"coord":{"lat":52.378849000000002,"lon":20.917449999999999},"country":"PL","_id":770706,"name":"Jablonna"},{"coord":{"lat":51.088749,"lon":22.593639},"country":"PL","_id":770711,"name":"Jablonna"},{"coord":{"lat":52.205978000000002,"lon":16.207411},"country":"PL","_id":3097813,"name":"Jablonna"},{"coord":{"lat":52.476638999999999,"lon":22.44228},"country":"PL","_id":770705,"name":"Jablonna Lacka"},{"coord":{"lat":50.029640000000001,"lon":16.60059},"country":"CZ","_id":3074598,"name":"Jablonne nad Orlici"},{"coord":{"lat":50.765281999999999,"lon":14.76052},"country":"CZ","_id":3074597,"name":"Jablonne v Podjestedi"},{"coord":{"lat":53.391368999999997,"lon":19.155090000000001},"country":"PL","_id":3097808,"name":"Jablonowo Pomorskie"},{"coord":{"lat":49.383549000000002,"lon":17.950210999999999},"country":"CZ","_id":3074594,"name":"Jablunka"},{"coord":{"lat":49.576720999999999,"lon":18.764579999999999},"country":"CZ","_id":3074593,"name":"Jablunkov"},{"coord":{"lat":-8.1802799999999998,"lon":-35.001389000000003},"country":"BR","_id":3397838,"name":"Jaboatao"},{"coord":{"lat":-8.1127800000000008,"lon":-35.014721000000002},"country":"BR","_id":6317344,"name":"Jaboatao dos Guararapes"},{"coord":{"lat":-8.1456800000000005,"lon":-34.973807999999998},"country":"BR","_id":6320527,"name":"Jaboatão dos Guararapes"},{"coord":{"lat":-8.1645000000000003,"lon":111.965103},"country":"ID","_id":7034573,"name":"Jabon"},{"coord":{"lat":9.3430599999999995,"lon":125.515556},"country":"PH","_id":1710399,"name":"Jabonga"},{"coord":{"lat":5.9209800000000001,"lon":169.64335600000001},"country":"MH","_id":2080422,"name":"Jabor"},{"coord":{"lat":-20.688061000000001,"lon":-48.412497999999999},"country":"BR","_id":3460471,"name":"Jaborandi"},{"coord":{"lat":-27.175830999999999,"lon":-51.733607999999997},"country":"BR","_id":3460472,"name":"Jaborá"},{"coord":{"lat":-21.254721,"lon":-48.322220000000002},"country":"BR","_id":3460441,"name":"Jaboticabal"},{"coord":{"lat":-19.513611000000001,"lon":-43.744999},"country":"BR","_id":3460450,"name":"Jaboticatubas"},{"coord":{"lat":-7.1197999999999997,"lon":108.67800099999999},"country":"ID","_id":8073894,"name":"Jabranti"},{"coord":{"lat":46.016669999999998,"lon":1.5333300000000001},"country":"FR","_id":6451734,"name":"Jabreilles-les-Bordes"},{"coord":{"lat":46.016669999999998,"lon":1.5333300000000001},"country":"FR","_id":3012585,"name":"Jabreilles-les-Bordes"},{"coord":{"lat":37.912520999999998,"lon":-6.7457500000000001},"country":"ES","_id":6358219,"name":"Jabugo"},{"coord":{"lat":37.916221999999998,"lon":-6.7296800000000001},"country":"ES","_id":2516401,"name":"Jabugo"},{"coord":{"lat":-35.400002000000001,"lon":140.066666},"country":"AU","_id":2162532,"name":"Jabuk"},{"coord":{"lat":-5.4631400000000001,"lon":105.667519},"country":"ID","_id":1642954,"name":"Jabung"},{"coord":{"lat":-8.1342999999999996,"lon":112.26460299999999},"country":"ID","_id":7375185,"name":"Jabung"},{"coord":{"lat":-6.9962999999999997,"lon":112.2295},"country":"ID","_id":8079935,"name":"Jabung"},{"coord":{"lat":49.505051000000002,"lon":19.672190000000001},"country":"PL","_id":7531173,"name":"Jabłonka"},{"coord":{"lat":52.393619999999999,"lon":20.870701},"country":"PL","_id":7531479,"name":"Jabłonna"},{"coord":{"lat":42.576050000000002,"lon":-0.54093999999999998},"country":"ES","_id":6358357,"name":"Jaca"},{"coord":{"lat":42.568981000000001,"lon":-0.54986999999999997},"country":"ES","_id":3120211,"name":"Jaca"},{"coord":{"lat":21.016670000000001,"lon":-99.183327000000006},"country":"MX","_id":3526646,"name":"Jacala"},{"coord":{"lat":14.01667,"lon":-86.666672000000005},"country":"HN","_id":3608798,"name":"Jacaleapa"},{"coord":{"lat":15.66667,"lon":-91.733329999999995},"country":"GT","_id":3595248,"name":"Jacaltenango"},{"coord":{"lat":-14.84972,"lon":-42.433331000000003},"country":"BR","_id":3460434,"name":"Jacaraci"},{"coord":{"lat":-6.6122199999999998,"lon":-35.292782000000003},"country":"BR","_id":3397800,"name":"Jacarau"},{"coord":{"lat":-6.2222200000000001,"lon":-57.752780999999999},"country":"BR","_id":3397763,"name":"Jacareacanga"},{"coord":{"lat":-23.305281000000001,"lon":-45.965831999999999},"country":"BR","_id":3460370,"name":"Jacarei"},{"coord":{"lat":-23.160561000000001,"lon":-49.969439999999999},"country":"BR","_id":3460362,"name":"Jacarezinho"},{"coord":{"lat":38.060799000000003,"lon":-0.86443000000000003},"country":"ES","_id":6355456,"name":"Jacarilla"},{"coord":{"lat":38.062469,"lon":-0.86821999999999999},"country":"ES","_id":2516399,"name":"Jacarilla"},{"coord":{"lat":-9.6355599999999999,"lon":-37.204720000000002},"country":"BR","_id":3397761,"name":"Jacaré dos Homens"},{"coord":{"lat":-5.7833300000000003,"lon":-35.349997999999999},"country":"BR","_id":3397758,"name":"Jacaré Mirim"},{"coord":{"lat":47.599997999999999,"lon":11.433299999999999},"country":"DE","_id":6556125,"name":"Jachenau"},{"coord":{"lat":47.605739999999997,"lon":11.433809999999999},"country":"DE","_id":2895517,"name":"Jachenau"},{"coord":{"lat":48.983330000000002,"lon":11.699999999999999},"country":"DE","_id":2895515,"name":"Jachenhausen"},{"coord":{"lat":50.358459000000003,"lon":12.93465},"country":"CZ","_id":3074587,"name":"Jachymov"},{"coord":{"lat":-20.882218999999999,"lon":-49.57},"country":"BR","_id":3460358,"name":"Jaci"},{"coord":{"lat":-15.96528,"lon":-54.968330000000002},"country":"BR","_id":3460355,"name":"Jaciara"},{"coord":{"lat":41.225811,"lon":-103.404099},"country":"US","_id":5696463,"name":"Jacinto"},{"coord":{"lat":-38.086060000000003,"lon":-63.431690000000003},"country":"AR","_id":3853592,"name":"Jacinto Arauz"},{"coord":{"lat":29.76745,"lon":-95.233817999999999},"country":"US","_id":4700401,"name":"Jacinto City"},{"coord":{"lat":-28.997499000000001,"lon":-49.763610999999997},"country":"BR","_id":3460351,"name":"Jacinto Machado"},{"coord":{"lat":37.196541000000003,"lon":-77.509147999999996},"country":"US","_id":4046760,"name":"Jack"},{"coord":{"lat":43.326050000000002,"lon":-110.434067},"country":"US","_id":5828620,"name":"Jack Pine"},{"coord":{"lat":51.033329000000002,"lon":6.4500000000000002},"country":"DE","_id":2895502,"name":"Jackerath"},{"coord":{"lat":-41.666671999999998,"lon":146.64999399999999},"country":"AU","_id":2162513,"name":"Jackeys Marsh"},{"coord":{"lat":41.983238,"lon":-114.67475899999999},"country":"US","_id":5705218,"name":"Jackpot"},{"coord":{"lat":36.330078,"lon":-84.183823000000004},"country":"US","_id":4632591,"name":"Jacksboro"},{"coord":{"lat":33.218449,"lon":-98.158660999999995},"country":"US","_id":4700455,"name":"Jacksboro"},{"coord":{"lat":38.721161000000002,"lon":-87.650299000000004},"country":"US","_id":4241691,"name":"Jackson"},{"coord":{"lat":-26.649999999999999,"lon":149.616669},"country":"AU","_id":2162488,"name":"Jackson"},{"coord":{"lat":13.15,"lon":-59.599997999999999},"country":"BB","_id":3373768,"name":"Jackson"},{"coord":{"lat":43.620789000000002,"lon":-94.988602},"country":"US","_id":5031678,"name":"Jackson"},{"coord":{"lat":32.298758999999997,"lon":-90.184807000000006},"country":"US","_id":4431410,"name":"Jackson"},{"coord":{"lat":39.776501000000003,"lon":-74.862380999999999},"country":"US","_id":4502434,"name":"Jackson"},{"coord":{"lat":35.614521000000003,"lon":-88.813950000000006},"country":"US","_id":4632595,"name":"Jackson"},{"coord":{"lat":42.245868999999999,"lon":-84.401352000000003},"country":"US","_id":4997384,"name":"Jackson"},{"coord":{"lat":31.509049999999998,"lon":-87.894440000000003},"country":"US","_id":4069458,"name":"Jackson"},{"coord":{"lat":33.294570999999998,"lon":-83.966019000000003},"country":"US","_id":4202426,"name":"Jackson"},{"coord":{"lat":37.553150000000002,"lon":-83.383506999999994},"country":"US","_id":4296081,"name":"Jackson"},{"coord":{"lat":37.825080999999997,"lon":-84.870789000000002},"country":"US","_id":4296082,"name":"Jackson"},{"coord":{"lat":30.837399999999999,"lon":-91.217613},"country":"US","_id":4328824,"name":"Jackson"},{"coord":{"lat":37.382271000000003,"lon":-89.666206000000003},"country":"US","_id":4392163,"name":"Jackson"},{"coord":{"lat":36.389598999999997,"lon":-77.421356000000003},"country":"US","_id":4473017,"name":"Jackson"},{"coord":{"lat":39.052021000000003,"lon":-82.636550999999997},"country":"US","_id":4515318,"name":"Jackson"},{"coord":{"lat":33.325420000000001,"lon":-81.787887999999995},"country":"US","_id":4583213,"name":"Jackson"},{"coord":{"lat":43.323891000000003,"lon":-88.166763000000003},"country":"US","_id":5257669,"name":"Jackson"},{"coord":{"lat":38.348801000000002,"lon":-120.774101},"country":"US","_id":5360160,"name":"Jackson"},{"coord":{"lat":43.479931000000001,"lon":-110.762428},"country":"US","_id":5828648,"name":"Jackson"},{"coord":{"lat":40.439490999999997,"lon":-84.040222},"country":"US","_id":5158960,"name":"Jackson Center"},{"coord":{"lat":30.423249999999999,"lon":-88.627799999999993},"country":"US","_id":4431425,"name":"Jackson County"},{"coord":{"lat":34.616740999999998,"lon":-99.383697999999995},"country":"US","_id":4539499,"name":"Jackson County"},{"coord":{"lat":35.600079000000001,"lon":-91.200126999999995},"country":"US","_id":4116263,"name":"Jackson County"},{"coord":{"lat":39.016669999999998,"lon":-94.350227000000004},"country":"US","_id":4392183,"name":"Jackson County"},{"coord":{"lat":40.666640999999998,"lon":-106.333923},"country":"US","_id":5578418,"name":"Jackson County"},{"coord":{"lat":42.250591,"lon":-84.416618},"country":"US","_id":4997389,"name":"Jackson County"},{"coord":{"lat":43.686110999999997,"lon":-101.67542299999999},"country":"US","_id":5765964,"name":"Jackson County"},{"coord":{"lat":38.878940999999998,"lon":-86.041923999999995},"country":"US","_id":4259572,"name":"Jackson County"},{"coord":{"lat":42.416511999999997,"lon":-122.83448},"country":"US","_id":5733351,"name":"Jackson County"},{"coord":{"lat":34.766750000000002,"lon":-86.000259},"country":"US","_id":4069472,"name":"Jackson County"},{"coord":{"lat":37.766719999999999,"lon":-89.350089999999994},"country":"US","_id":4241687,"name":"Jackson County"},{"coord":{"lat":42.166679000000002,"lon":-90.583457999999993},"country":"US","_id":4862320,"name":"Jackson County"},{"coord":{"lat":30.791861000000001,"lon":-85.166602999999995},"country":"US","_id":4159990,"name":"Jackson County"},{"coord":{"lat":37.416752000000002,"lon":-84.000480999999994},"country":"US","_id":4296106,"name":"Jackson County"},{"coord":{"lat":43.625511000000003,"lon":-94.874709999999993},"country":"US","_id":5031682,"name":"Jackson County"},{"coord":{"lat":32.333488000000003,"lon":-92.550147999999993},"country":"US","_id":4328854,"name":"Jackson Parish"},{"coord":{"lat":40.991759999999999,"lon":-74.980452999999997},"country":"US","_id":5099767,"name":"Jacksonburg"},{"coord":{"lat":39.733939999999997,"lon":-90.229011999999997},"country":"US","_id":4241704,"name":"Jacksonville"},{"coord":{"lat":34.866199000000002,"lon":-92.110152999999997},"country":"US","_id":4116315,"name":"Jacksonville"},{"coord":{"lat":30.332180000000001,"lon":-81.655647000000002},"country":"US","_id":4160021,"name":"Jacksonville"},{"coord":{"lat":34.754050999999997,"lon":-77.430237000000005},"country":"US","_id":4473083,"name":"Jacksonville"},{"coord":{"lat":33.813709000000003,"lon":-85.761353},"country":"US","_id":4069553,"name":"Jacksonville"},{"coord":{"lat":31.963778999999999,"lon":-95.270499999999998},"country":"US","_id":4700550,"name":"Jacksonville"},{"coord":{"lat":42.313460999999997,"lon":-122.966988},"country":"US","_id":5733409,"name":"Jacksonville"},{"coord":{"lat":30.294689000000002,"lon":-81.393142999999995},"country":"US","_id":4160023,"name":"Jacksonville Beach"},{"coord":{"lat":40.324539000000001,"lon":-75.849648000000002},"country":"US","_id":5195186,"name":"Jacksonwald"},{"coord":{"lat":-26.33201,"lon":27.98901},"country":"ZA","_id":994334,"name":"Jackson’s Drift"},{"coord":{"lat":10.300000000000001,"lon":123.81667299999999},"country":"PH","_id":1710395,"name":"Jaclupan"},{"coord":{"lat":18.234171,"lon":-72.534721000000005},"country":"HT","_id":3723779,"name":"Jacmel"},{"coord":{"lat":9.6149699999999996,"lon":-84.629752999999994},"country":"CR","_id":3623369,"name":"Jaco"},{"coord":{"lat":45.552750000000003,"lon":5.9116},"country":"FR","_id":3012577,"name":"Jacob-Bellecombette"},{"coord":{"lat":28.280999999999999,"lon":68.438759000000005},"country":"PK","_id":1176515,"name":"Jacobabad"},{"coord":{"lat":-11.18056,"lon":-40.518329999999999},"country":"BR","_id":3460344,"name":"Jacobina"},{"coord":{"lat":-29.91667,"lon":30.983329999999999},"country":"ZA","_id":994321,"name":"Jacobs"},{"coord":{"lat":52.354197999999997,"lon":14.3667},"country":"DE","_id":6551093,"name":"Jacobsdorf"},{"coord":{"lat":52.333328000000002,"lon":14.35},"country":"DE","_id":2895248,"name":"Jacobsdorf"},{"coord":{"lat":50.732970999999999,"lon":-4.5477999999999996},"country":"GB","_id":7300012,"name":"Jacobstow"},{"coord":{"lat":50.733330000000002,"lon":-4.5499999999999998},"country":"GB","_id":2645979,"name":"Jacobstow"},{"coord":{"lat":50.796458999999999,"lon":-4.0063700000000004},"country":"GB","_id":2645978,"name":"Jacobstowe"},{"coord":{"lat":39.883159999999997,"lon":-76.710517999999993},"country":"US","_id":4558838,"name":"Jacobus"},{"coord":{"lat":43.661388000000002,"lon":3.91222},"country":"FR","_id":3012576,"name":"Jacou"},{"coord":{"lat":5.2051499999999997,"lon":-4.4146000000000001},"country":"CI","_id":2287778,"name":"Jacqueville"},{"coord":{"lat":-24.692499000000002,"lon":-48.002220000000001},"country":"BR","_id":3460281,"name":"Jacupiranga"},{"coord":{"lat":11.074170000000001,"lon":-68.856041000000005},"country":"VE","_id":3639282,"name":"Jacura"},{"coord":{"lat":38.846488999999998,"lon":16.379801},"country":"IT","_id":6535317,"name":"Jacurso"},{"coord":{"lat":-22.285561000000001,"lon":-46.612220999999998},"country":"BR","_id":3460267,"name":"Jacutinga"},{"coord":{"lat":53.338248999999998,"lon":8.1871700000000001},"country":"DE","_id":2895474,"name":"Jaderberg"},{"coord":{"lat":-8.8428000000000004,"lon":121.051102},"country":"ID","_id":7569959,"name":"Jadho"},{"coord":{"lat":-6.7771999999999997,"lon":111.271698},"country":"ID","_id":8061009,"name":"Jadi"},{"coord":{"lat":-6.9603000000000002,"lon":111.991798},"country":"ID","_id":8076549,"name":"Jadi"},{"coord":{"lat":-6.9291999999999998,"lon":112.003601},"country":"ID","_id":8078533,"name":"Jadikrajan"},{"coord":{"lat":52.478489000000003,"lon":21.631989999999998},"country":"PL","_id":770662,"name":"Jadow"},{"coord":{"lat":49.958838999999998,"lon":20.644341000000001},"country":"PL","_id":770661,"name":"Jadowniki"},{"coord":{"lat":50.165458999999998,"lon":20.728451},"country":"PL","_id":770659,"name":"Jadowniki Mokre"},{"coord":{"lat":45.231110000000001,"lon":14.61833},"country":"HR","_id":3198964,"name":"Jadranovo"},{"coord":{"lat":44.599170999999998,"lon":19.353608999999999},"country":"RS","_id":3198963,"name":"Jadranska Lesnica"},{"coord":{"lat":40.922530999999999,"lon":-2.92923},"country":"ES","_id":6357932,"name":"Jadraque"},{"coord":{"lat":40.924540999999998,"lon":-2.9246799999999999},"country":"ES","_id":3120209,"name":"Jadraque"},{"coord":{"lat":55.855437999999999,"lon":11.96786},"country":"DK","_id":2619287,"name":"Jaegerspris"},{"coord":{"lat":-5.7080599999999997,"lon":-78.804717999999994},"country":"PE","_id":3696150,"name":"Jaen"},{"coord":{"lat":37.766669999999998,"lon":-3.7833299999999999},"country":"ES","_id":2516395,"name":"Jaen"},{"coord":{"lat":15.366669999999999,"lon":120.900002},"country":"PH","_id":1710390,"name":"Jaen"},{"coord":{"lat":15.327500000000001,"lon":120.919197},"country":"PH","_id":1710389,"name":"Jaen"},{"coord":{"lat":11.41667,"lon":122.400002},"country":"PH","_id":1710387,"name":"Jaena"},{"coord":{"lat":61.716670999999998,"lon":16.16667},"country":"SE","_id":2703145,"name":"Jaervsoe"},{"coord":{"lat":22.320829,"lon":88.230559999999997},"country":"IN","_id":1348944,"name":"Jafarpur"},{"coord":{"lat":9.66845,"lon":80.007423000000003},"country":"LK","_id":1242833,"name":"Jaffna"},{"coord":{"lat":42.813969,"lon":-72.023139999999998},"country":"US","_id":5088061,"name":"Jaffrey"},{"coord":{"lat":42.073528000000003,"lon":3.0112100000000002},"country":"ES","_id":6534070,"name":"Jafre"},{"coord":{"lat":42.072539999999996,"lon":3.0106199999999999},"country":"ES","_id":3120206,"name":"Jafre"},{"coord":{"lat":-7.0450999999999997,"lon":108.268997},"country":"ID","_id":8052152,"name":"Jaga"},{"coord":{"lat":-7.1052999999999997,"lon":108.3946},"country":"ID","_id":8054316,"name":"Jagabaya Dua"},{"coord":{"lat":30.16667,"lon":77.300003000000004},"country":"IN","_id":1269605,"name":"Jagadhri"},{"coord":{"lat":-6.3341000000000003,"lon":106.821404},"country":"ID","_id":1642941,"name":"Jagakarsa"},{"coord":{"lat":14.533329999999999,"lon":76.349997999999999},"country":"IN","_id":1269602,"name":"Jagalur"},{"coord":{"lat":22.233329999999999,"lon":85.650002000000001},"country":"IN","_id":1269592,"name":"Jagannathpur"},{"coord":{"lat":-7.0091999999999999,"lon":108.417297},"country":"ID","_id":8054155,"name":"Jagara"},{"coord":{"lat":-7.0065,"lon":108.367599},"country":"ID","_id":8052178,"name":"Jagasari"},{"coord":{"lat":26.837748999999999,"lon":75.825576999999996},"country":"IN","_id":8030622,"name":"Jagatpura"},{"coord":{"lat":20.266670000000001,"lon":86.166672000000005},"country":"IN","_id":1269581,"name":"Jagatsinghapur"},{"coord":{"lat":19.066669000000001,"lon":82.033332999999999},"country":"IN","_id":1269578,"name":"Jagdalpur"},{"coord":{"lat":50.416671999999998,"lon":124.116669},"country":"CN","_id":2036597,"name":"Jagdaqi"},{"coord":{"lat":25.483329999999999,"lon":84.416672000000005},"country":"IN","_id":1269573,"name":"Jagdispur"},{"coord":{"lat":50.366669000000002,"lon":11.23333},"country":"DE","_id":2895448,"name":"Jagdshof"},{"coord":{"lat":54.452202,"lon":9.5371000000000006},"country":"DE","_id":6551968,"name":"Jagel"},{"coord":{"lat":54.456519999999998,"lon":9.5375899999999998},"country":"DE","_id":2895445,"name":"Jagel"},{"coord":{"lat":-7.1769999999999996,"lon":107.944603},"country":"ID","_id":1642932,"name":"Jager"},{"coord":{"lat":46.855049000000001,"lon":15.734909999999999},"country":"AT","_id":7872292,"name":"Jagerberg"},{"coord":{"lat":46.853611000000001,"lon":15.738060000000001},"country":"AT","_id":2775155,"name":"Jagerberg"},{"coord":{"lat":-29.761258999999999,"lon":25.427059},"country":"ZA","_id":994257,"name":"Jagersfontein"},{"coord":{"lat":16.899999999999999,"lon":80.099997999999999},"country":"IN","_id":1269570,"name":"Jaggayyapeta"},{"coord":{"lat":50.094600999999997,"lon":22.572610999999998},"country":"PL","_id":770647,"name":"Jagiella"},{"coord":{"lat":-7.3067799999999998,"lon":112.754532},"country":"ID","_id":1985537,"name":"Jagirsidosermo"},{"coord":{"lat":48.099997999999999,"lon":13.33333},"country":"AT","_id":2775143,"name":"Jagleck"},{"coord":{"lat":9.6531000000000002,"lon":124.369698},"country":"PH","_id":1710378,"name":"Jagna"},{"coord":{"lat":26.866671,"lon":77.599997999999999},"country":"IN","_id":1269567,"name":"Jagnair"},{"coord":{"lat":43.981392,"lon":21.262219999999999},"country":"RS","_id":789923,"name":"Jagodina"},{"coord":{"lat":41.633330999999998,"lon":24.350000000000001},"country":"BG","_id":6461265,"name":"Jagodina"},{"coord":{"lat":45.532218999999998,"lon":13.654999999999999},"country":"SI","_id":3343518,"name":"Jagodje"},{"coord":{"lat":45.699168999999998,"lon":18.576941000000001},"country":"HR","_id":3198943,"name":"Jagodnjak"},{"coord":{"lat":-7.0480999999999998,"lon":111.25340300000001},"country":"ID","_id":7375440,"name":"Jagong"},{"coord":{"lat":-6.9987000000000004,"lon":112.353897},"country":"ID","_id":8080538,"name":"Jagran"},{"coord":{"lat":30.783331,"lon":75.483329999999995},"country":"IN","_id":1269564,"name":"Jagraon"},{"coord":{"lat":49.236111000000001,"lon":9.1947200000000002},"country":"DE","_id":2895311,"name":"Jagstfeld"},{"coord":{"lat":48.89922,"lon":10.171989999999999},"country":"DE","_id":2895310,"name":"Jagsthausen"},{"coord":{"lat":49.310600000000001,"lon":9.4683299999999999},"country":"DE","_id":6555521,"name":"Jagsthausen"},{"coord":{"lat":49.310558,"lon":9.4683299999999999},"country":"DE","_id":2895309,"name":"Jagsthausen"},{"coord":{"lat":49.030472000000003,"lon":10.09747},"country":"DE","_id":6555587,"name":"Jagstzell"},{"coord":{"lat":49.030548000000003,"lon":10.09751},"country":"DE","_id":2895304,"name":"Jagstzell"},{"coord":{"lat":18.799999,"lon":78.933327000000006},"country":"IN","_id":1269562,"name":"Jagtial"},{"coord":{"lat":18.161631,"lon":-65.995437999999993},"country":"PR","_id":4565621,"name":"Jagual"},{"coord":{"lat":-23.112780000000001,"lon":-51.531939999999999},"country":"BR","_id":3460243,"name":"Jaguapitã"},{"coord":{"lat":-13.530559999999999,"lon":-39.970829000000002},"country":"BR","_id":3460242,"name":"Jaguaquara"},{"coord":{"lat":-32.566108999999997,"lon":-53.375832000000003},"country":"BR","_id":3460232,"name":"Jaguarao"},{"coord":{"lat":-10.26389,"lon":-40.195830999999998},"country":"BR","_id":3460225,"name":"Jaguarari"},{"coord":{"lat":-19.649170000000002,"lon":-42.749721999999998},"country":"BR","_id":3460235,"name":"Jaguaraçu"},{"coord":{"lat":-5.6127799999999999,"lon":-38.766941000000003},"country":"BR","_id":3397680,"name":"Jaguaretama"},{"coord":{"lat":-29.497499000000001,"lon":-54.689999},"country":"BR","_id":3460221,"name":"Jaguari"},{"coord":{"lat":-24.251110000000001,"lon":-49.705829999999999},"country":"BR","_id":3460214,"name":"Jaguariaiva"},{"coord":{"lat":-5.6580599999999999,"lon":-38.619999},"country":"BR","_id":3397678,"name":"Jaguaribara"},{"coord":{"lat":-5.8905599999999998,"lon":-38.621941},"country":"BR","_id":3397675,"name":"Jaguaribe"},{"coord":{"lat":-12.91667,"lon":-39.166671999999998},"country":"BR","_id":3460205,"name":"Jaguaripe"},{"coord":{"lat":-22.705560999999999,"lon":-46.985827999999998},"country":"BR","_id":3460200,"name":"Jaguariuna"},{"coord":{"lat":-22.694731000000001,"lon":-47.017280999999997},"country":"BR","_id":6322331,"name":"Jaguariúna"},{"coord":{"lat":-4.8338900000000002,"lon":-37.781109000000001},"country":"BR","_id":3397665,"name":"Jaguaruana"},{"coord":{"lat":-28.614999999999998,"lon":-49.025557999999997},"country":"BR","_id":3460197,"name":"Jaguaruna"},{"coord":{"lat":22.526938999999999,"lon":-81.128608999999997},"country":"CU","_id":3556437,"name":"Jaguey Grande"},{"coord":{"lat":11.140000000000001,"lon":122.723602},"country":"PH","_id":1710363,"name":"Jaguimitan"},{"coord":{"lat":7.3547200000000004,"lon":3.98333},"country":"NG","_id":2336648,"name":"Jagun Elesin"},{"coord":{"lat":9.2422199999999997,"lon":125.55806},"country":"PH","_id":1710362,"name":"Jagupit"},{"coord":{"lat":-6.5869,"lon":106.410797},"country":"ID","_id":7844386,"name":"Jaha"},{"coord":{"lat":25.216669,"lon":84.983329999999995},"country":"IN","_id":1269557,"name":"Jahanabad"},{"coord":{"lat":28.633329,"lon":79.716667000000001},"country":"IN","_id":1269555,"name":"Jahanabad"},{"coord":{"lat":28.41667,"lon":78.099997999999999},"country":"IN","_id":1269551,"name":"Jahangirabad"},{"coord":{"lat":28.183330999999999,"lon":77.716667000000001},"country":"IN","_id":1269548,"name":"Jahangirpur"},{"coord":{"lat":31.805519,"lon":72.277107000000001},"country":"PK","_id":1176444,"name":"Jahanian Shah"},{"coord":{"lat":25.616671,"lon":75.283332999999999},"country":"IN","_id":1269545,"name":"Jahazpur"},{"coord":{"lat":25.4758,"lon":60.361401000000001},"country":"IR","_id":1160915,"name":"Jahlīār"},{"coord":{"lat":52.721629999999998,"lon":12.71101},"country":"DE","_id":2895293,"name":"Jahnberge"},{"coord":{"lat":50.716670999999998,"lon":13.18333},"country":"DE","_id":2895285,"name":"Jahnsdorf"},{"coord":{"lat":50.75,"lon":12.85},"country":"DE","_id":2895284,"name":"Jahnsdorf"},{"coord":{"lat":52.516669999999998,"lon":14.23333},"country":"DE","_id":2895283,"name":"Jahnsfelde"},{"coord":{"lat":54.066699999999997,"lon":9.6333300000000008},"country":"DE","_id":6551864,"name":"Jahrsdorf"},{"coord":{"lat":54.066668999999997,"lon":9.6333300000000008},"country":"DE","_id":2895271,"name":"Jahrsdorf"},{"coord":{"lat":52.560070000000003,"lon":10.97672},"country":"DE","_id":2895269,"name":"Jahrstedt"},{"coord":{"lat":-6.8106,"lon":111.745903},"country":"ID","_id":8074711,"name":"Jahulu"},{"coord":{"lat":25.433332,"lon":81.866669000000002},"country":"IN","_id":1269552,"name":"Jahāngīrābād"},{"coord":{"lat":19.611691,"lon":-71.148467999999994},"country":"DO","_id":3504193,"name":"Jaibon"},{"coord":{"lat":-7.3591699999999998,"lon":-41.137779000000002},"country":"BR","_id":3397660,"name":"Jaicos"},{"coord":{"lat":48.549992000000003,"lon":15.50348},"country":"AT","_id":7872916,"name":"Jaidhof"},{"coord":{"lat":48.533329000000002,"lon":15.48333},"country":"AT","_id":2775138,"name":"Jaidhof"},{"coord":{"lat":26.847660000000001,"lon":89.375579999999999},"country":"IN","_id":7284820,"name":"Jaigaon"},{"coord":{"lat":26.15333,"lon":83.334716999999998},"country":"IN","_id":1269525,"name":"Jainpur"},{"coord":{"lat":47.716670999999998,"lon":13.616669999999999},"country":"AT","_id":2775137,"name":"Jainzen"},{"coord":{"lat":26.916668000000001,"lon":75.816665999999998},"country":"IN","_id":1269515,"name":"Jaipur"},{"coord":{"lat":27,"lon":76},"country":"IN","_id":1269519,"name":"Jaipur"},{"coord":{"lat":23.433330999999999,"lon":86.133330999999998},"country":"IN","_id":1269517,"name":"Jaipur"},{"coord":{"lat":26.25,"lon":81.533332999999999},"country":"IN","_id":1269509,"name":"Jais"},{"coord":{"lat":26.914684000000001,"lon":70.918075999999999},"country":"IN","_id":1269507,"name":"Jaisalmer"},{"coord":{"lat":23.700001,"lon":81.383330999999998},"country":"IN","_id":1269503,"name":"Jaisinghnagar"},{"coord":{"lat":16.799999,"lon":74.566672999999994},"country":"IN","_id":1269502,"name":"Jaisingpur"},{"coord":{"lat":27.600000000000001,"lon":77.599997999999999},"country":"IN","_id":1269501,"name":"Jait"},{"coord":{"lat":26.203060000000001,"lon":73.936394000000007},"country":"IN","_id":1269498,"name":"Jaitaran"},{"coord":{"lat":23.233329999999999,"lon":78.616669000000002},"country":"IN","_id":1269495,"name":"Jaithari"},{"coord":{"lat":30.466669,"lon":74.883330999999998},"country":"IN","_id":1269488,"name":"Jaito"},{"coord":{"lat":-8.0726999999999993,"lon":112.295601},"country":"ID","_id":7035291,"name":"Jajar"},{"coord":{"lat":-7.5682,"lon":108.478104},"country":"ID","_id":1642913,"name":"Jajawai"},{"coord":{"lat":-7.2652000000000001,"lon":106.757896},"country":"ID","_id":7847537,"name":"Jajaway"},{"coord":{"lat":44.342219999999998,"lon":17.265560000000001},"country":"BA","_id":3198934,"name":"Jajce"},{"coord":{"lat":11.97969,"lon":11.44426},"country":"NG","_id":2336624,"name":"Jajere"},{"coord":{"lat":20.850000000000001,"lon":86.333327999999995},"country":"IN","_id":1269477,"name":"Jajpur"},{"coord":{"lat":47.142502,"lon":16.581479999999999},"country":"HU","_id":3051001,"name":"Jak"},{"coord":{"lat":48.200001,"lon":20.933330999999999},"country":"HU","_id":719700,"name":"Jakabtanya"},{"coord":{"lat":27.549178999999999,"lon":90.752502000000007},"country":"BT","_id":1337301,"name":"Jakar"},{"coord":{"lat":-6.21462,"lon":106.84513099999999},"country":"ID","_id":1642911,"name":"Jakarta"},{"coord":{"lat":49.915100000000002,"lon":17.684000000000001},"country":"CZ","_id":3074577,"name":"Jakartovice"},{"coord":{"lat":-6.7803000000000004,"lon":111.242897},"country":"ID","_id":1642902,"name":"Jaken"},{"coord":{"lat":-6.7619999999999996,"lon":111.164299},"country":"ID","_id":1642901,"name":"Jakenan"},{"coord":{"lat":29.44079,"lon":-97.97139},"country":"US","_id":4700591,"name":"Jakes Colony"},{"coord":{"lat":29.799999,"lon":75.833327999999995},"country":"IN","_id":1269470,"name":"Jakhal"},{"coord":{"lat":13.550000000000001,"lon":-14.966670000000001},"country":"GM","_id":2413365,"name":"Jakhaly"},{"coord":{"lat":6.0999999999999996,"lon":10.65},"country":"CM","_id":2230641,"name":"Jakiri"},{"coord":{"lat":59.42268,"lon":17.835079},"country":"SE","_id":2703396,"name":"Jakobsberg"},{"coord":{"lat":54.233299000000002,"lon":12.933299999999999},"country":"DE","_id":6548122,"name":"Jakobsdorf"},{"coord":{"lat":54.233330000000002,"lon":12.93333},"country":"DE","_id":2895246,"name":"Jakobsdorf"},{"coord":{"lat":63.666671999999998,"lon":22.700001},"country":"FI","_id":656131,"name":"Jakobstad"},{"coord":{"lat":63.674858,"lon":22.702559999999998},"country":"FI","_id":656130,"name":"Jakobstad"},{"coord":{"lat":50.049999,"lon":9.3166700000000002},"country":"DE","_id":2895235,"name":"Jakobsthal"},{"coord":{"lat":49.616698999999997,"lon":7.9500000000000002},"country":"DE","_id":6554957,"name":"Jakobsweiler"},{"coord":{"lat":49.616669000000002,"lon":7.9500000000000002},"country":"DE","_id":2895234,"name":"Jakobsweiler"},{"coord":{"lat":50.766669999999998,"lon":6.5666700000000002},"country":"DE","_id":2895233,"name":"Jakobwüllesheim"},{"coord":{"lat":60.259399000000002,"lon":25.078011},"country":"FI","_id":847519,"name":"Jakomäki"},{"coord":{"lat":45.951388999999999,"lon":15.856109999999999},"country":"HR","_id":3198924,"name":"Jakovlje"},{"coord":{"lat":45.358058999999997,"lon":17.763888999999999},"country":"HR","_id":3198922,"name":"Jaksic"},{"coord":{"lat":52.219650000000001,"lon":21.680320999999999},"country":"PL","_id":770609,"name":"Jakubow"},{"coord":{"lat":51.269919999999999,"lon":22.634150000000002},"country":"PL","_id":770602,"name":"Jakubowice Murowane"},{"coord":{"lat":52.239539999999998,"lon":21.681141},"country":"PL","_id":7531413,"name":"Jakubów"},{"coord":{"lat":32.113177999999998,"lon":-103.193512},"country":"US","_id":5473083,"name":"Jal"},{"coord":{"lat":21.08333,"lon":-104.43332700000001},"country":"MX","_id":4004170,"name":"Jala"},{"coord":{"lat":19.799999,"lon":-97.300003000000004},"country":"MX","_id":3526625,"name":"Jalacingo"},{"coord":{"lat":49.450001,"lon":117.699997},"country":"CN","_id":2036595,"name":"Jalai Nur"},{"coord":{"lat":14.33333,"lon":121.33332799999999},"country":"PH","_id":1710358,"name":"Jalajala"},{"coord":{"lat":14.353,"lon":121.322502},"country":"PH","_id":1710357,"name":"Jalajala"},{"coord":{"lat":11.697789999999999,"lon":77.872978000000003},"country":"IN","_id":1269449,"name":"Jalakandapuram"},{"coord":{"lat":40.933331000000003,"lon":73},"country":"KG","_id":1528249,"name":"Jalal-Abad"},{"coord":{"lat":41.5,"lon":72.5},"country":"KG","_id":1529778,"name":"Jalal-Abad Oblasty"},{"coord":{"lat":27.716667000000001,"lon":79.666663999999997},"country":"IN","_id":1269447,"name":"Jalalabad"},{"coord":{"lat":34.426471999999997,"lon":70.451530000000005},"country":"AF","_id":1139715,"name":"Jalalabad"},{"coord":{"lat":30.616671,"lon":74.25},"country":"IN","_id":1269445,"name":"Jalalabad"},{"coord":{"lat":29.61861,"lon":77.438332000000003},"country":"IN","_id":1269446,"name":"Jalalabad"},{"coord":{"lat":3.3765999999999998,"lon":45.599601999999997},"country":"SO","_id":56414,"name":"Jalalaqsi"},{"coord":{"lat":27.866671,"lon":78.266670000000005},"country":"IN","_id":1269441,"name":"Jalali"},{"coord":{"lat":20.966669,"lon":72.900002000000001},"country":"IN","_id":1269439,"name":"Jalalpur"},{"coord":{"lat":26.316669000000001,"lon":82.733329999999995},"country":"IN","_id":1269435,"name":"Jalalpur"},{"coord":{"lat":32.637439999999998,"lon":74.218292000000005},"country":"PK","_id":1176368,"name":"Jalalpur"},{"coord":{"lat":29.506869999999999,"lon":71.219170000000005},"country":"PK","_id":1176358,"name":"Jalalpur Pirwala"},{"coord":{"lat":-6.2611999999999997,"lon":106.1203},"country":"ID","_id":7780078,"name":"Jalanbaru"},{"coord":{"lat":39.208720999999997,"lon":-1.11527},"country":"ES","_id":6362007,"name":"Jalance"},{"coord":{"lat":39.200001,"lon":-1.06667},"country":"ES","_id":2516390,"name":"Jalance"},{"coord":{"lat":31.325559999999999,"lon":75.579170000000005},"country":"IN","_id":1268782,"name":"Jalandhar"},{"coord":{"lat":-4.0382999999999996,"lon":120.321602},"country":"ID","_id":1642892,"name":"Jalang"},{"coord":{"lat":16.5,"lon":-95.466667000000001},"country":"MX","_id":3526621,"name":"Jalapa"},{"coord":{"lat":14.633330000000001,"lon":-89.983329999999995},"country":"GT","_id":3595237,"name":"Jalapa"},{"coord":{"lat":13.922219999999999,"lon":-86.123458999999997},"country":"NI","_id":3618954,"name":"Jalapa"},{"coord":{"lat":17.725000000000001,"lon":-92.808327000000006},"country":"MX","_id":3803064,"name":"Jalapa"},{"coord":{"lat":18.83333,"lon":-97.083327999999995},"country":"MX","_id":3526613,"name":"Jalapilla"},{"coord":{"lat":-8.5302000000000007,"lon":121.805099},"country":"ID","_id":7338330,"name":"Jalasenga"},{"coord":{"lat":62.5,"lon":22.75},"country":"FI","_id":656117,"name":"Jalasjarvi"},{"coord":{"lat":62.5,"lon":22.83333},"country":"FI","_id":656118,"name":"Jalasjärvi"},{"coord":{"lat":19.178889999999999,"lon":-99.417502999999996},"country":"MX","_id":3526611,"name":"Jalatlaco"},{"coord":{"lat":-7.2373000000000003,"lon":108.348297},"country":"ID","_id":1642890,"name":"Jalatrang"},{"coord":{"lat":10.893330000000001,"lon":122.74749799999999},"country":"PH","_id":1710347,"name":"Jalaud"},{"coord":{"lat":10.8436,"lon":122.640404},"country":"PH","_id":1710348,"name":"Jalaud"},{"coord":{"lat":26.145099999999999,"lon":79.336601000000002},"country":"IN","_id":1269422,"name":"Jalaun"},{"coord":{"lat":32.459572000000001,"lon":35.415160999999998},"country":"PS","_id":283540,"name":"Jalbun"},{"coord":{"lat":21.466669,"lon":-105.116669},"country":"MX","_id":4004161,"name":"Jalcocotan"},{"coord":{"lat":19.33333,"lon":-96.75},"country":"MX","_id":3526610,"name":"Jalcomulco"},{"coord":{"lat":-20.268889999999999,"lon":-50.545830000000002},"country":"BR","_id":3460186,"name":"Jales"},{"coord":{"lat":27.483329999999999,"lon":78.316672999999994},"country":"IN","_id":1269415,"name":"Jalesar"},{"coord":{"lat":21.816669000000001,"lon":87.216667000000001},"country":"IN","_id":1269413,"name":"Jaleshwar"},{"coord":{"lat":26.647110000000001,"lon":85.800811999999993},"country":"NP","_id":1283323,"name":"Jaleswar"},{"coord":{"lat":21.048611000000001,"lon":76.534439000000006},"country":"IN","_id":1269406,"name":"Jalgaon"},{"coord":{"lat":21.016670000000001,"lon":75.566672999999994},"country":"IN","_id":1269407,"name":"Jalgaon"},{"coord":{"lat":17.75,"lon":73.183327000000006},"country":"IN","_id":1269410,"name":"Jalgaon"},{"coord":{"lat":50.559798999999998,"lon":5.9684100000000004},"country":"BE","_id":2794990,"name":"Jalhay"},{"coord":{"lat":50.558762000000002,"lon":5.9676400000000003},"country":"BE","_id":2794989,"name":"Jalhay"},{"coord":{"lat":13.35,"lon":-15.966670000000001},"country":"GM","_id":2413344,"name":"Jali"},{"coord":{"lat":39.25,"lon":48.5},"country":"AZ","_id":148155,"name":"Jalilabad Rayon"},{"coord":{"lat":-8.2542000000000009,"lon":113.81909899999999},"country":"ID","_id":7037542,"name":"Jalinan"},{"coord":{"lat":8.8833300000000008,"lon":11.366669999999999},"country":"NG","_id":2336589,"name":"Jalingo"},{"coord":{"lat":3.25413,"lon":-76.543457000000004},"country":"CO","_id":3764011,"name":"Jalisco"},{"coord":{"lat":32.155830000000002,"lon":34.952781999999999},"country":"IL","_id":294634,"name":"Jaljulya"},{"coord":{"lat":46.280830000000002,"lon":16.319718999999999},"country":"HR","_id":3198918,"name":"Jalkovec"},{"coord":{"lat":47.196911,"lon":-0.86738000000000004},"country":"FR","_id":3012549,"name":"Jallais"},{"coord":{"lat":19.83333,"lon":75.883330999999998},"country":"IN","_id":1269395,"name":"Jalna"},{"coord":{"lat":38.740631,"lon":-0.01129},"country":"ES","_id":2516389,"name":"Jalon"},{"coord":{"lat":42.218040000000002,"lon":-2.49004},"country":"ES","_id":3120196,"name":"Jalon de Cameros"},{"coord":{"lat":25.350000000000001,"lon":72.616669000000002},"country":"IN","_id":1269392,"name":"Jalor"},{"coord":{"lat":21.200001,"lon":-102.466667},"country":"MX","_id":4004153,"name":"Jalostotitlan"},{"coord":{"lat":18.716669,"lon":-98.900002000000001},"country":"MX","_id":3526607,"name":"Jaloxtoc"},{"coord":{"lat":19.816669000000001,"lon":-99.183327000000006},"country":"MX","_id":3526606,"name":"Jalpa"},{"coord":{"lat":21.633329,"lon":-102.966667},"country":"MX","_id":4004148,"name":"Jalpa"},{"coord":{"lat":18.133329,"lon":-93.083327999999995},"country":"MX","_id":3526603,"name":"Jalpa de Mendez"},{"coord":{"lat":26.516670000000001,"lon":88.733329999999995},"country":"IN","_id":1269388,"name":"Jalpaiguri"},{"coord":{"lat":21.233329999999999,"lon":-99.483329999999995},"country":"MX","_id":3526601,"name":"Jalpan"},{"coord":{"lat":14.14167,"lon":-90.008613999999994},"country":"GT","_id":3595232,"name":"Jalpatagua"},{"coord":{"lat":32.424641000000001,"lon":35.364207999999998},"country":"PS","_id":283536,"name":"Jalqamus"},{"coord":{"lat":12.448600000000001,"lon":34.218601},"country":"SD","_id":375192,"name":"Jalqani"},{"coord":{"lat":34.473061000000001,"lon":68.643332999999998},"country":"AF","_id":1139683,"name":"Jalrez"},{"coord":{"lat":19.750561000000001,"lon":-99.095557999999997},"country":"MX","_id":3526600,"name":"Jaltenco"},{"coord":{"lat":19.733329999999999,"lon":-98.633330999999998},"country":"MX","_id":3526599,"name":"Jaltepec"},{"coord":{"lat":21.149999999999999,"lon":-98.533332999999999},"country":"MX","_id":3526591,"name":"Jaltocan"},{"coord":{"lat":49.116261000000002,"lon":17.427879000000001},"country":"CZ","_id":3074558,"name":"Jalubi"},{"coord":{"lat":-6.5415000000000001,"lon":105.996201},"country":"ID","_id":7765694,"name":"Jalupang Dua"},{"coord":{"lat":46.260829999999999,"lon":16.475000000000001},"country":"HR","_id":3198913,"name":"Jalzabet"},{"coord":{"lat":42.213551000000002,"lon":-2.49268},"country":"ES","_id":6359071,"name":"Jalón de Cameros"},{"coord":{"lat":38.721587999999997,"lon":-0.036600000000000001},"country":"ES","_id":6355457,"name":"Jalón\/Xaló"},{"coord":{"lat":30.41667,"lon":46.183331000000003},"country":"IQ","_id":95308,"name":"Jalīb Shihāb"},{"coord":{"lat":26.295829999999999,"lon":68.629172999999994},"country":"PK","_id":1403734,"name":"Jam Sahib"},{"coord":{"lat":0.069680000000000006,"lon":42.744968},"country":"SO","_id":56399,"name":"Jamaame"},{"coord":{"lat":10.8788,"lon":122.621201},"country":"PH","_id":1710336,"name":"Jamabalod"},{"coord":{"lat":23.716669,"lon":86.400002000000001},"country":"IN","_id":1269379,"name":"Jamadoba"},{"coord":{"lat":22.200001,"lon":78.583327999999995},"country":"IN","_id":1269377,"name":"Jamai"},{"coord":{"lat":18.25,"lon":-77.5},"country":"JM","_id":3489940,"name":"Jamaica"},{"coord":{"lat":22.97917,"lon":-82.170280000000005},"country":"CU","_id":3556406,"name":"Jamaica"},{"coord":{"lat":42.309818,"lon":-71.120330999999993},"country":"US","_id":4940764,"name":"Jamaica Plain"},{"coord":{"lat":25.845832999999999,"lon":63.393054999999997},"country":"PK","_id":1176303,"name":"Jamak"},{"coord":{"lat":24.91667,"lon":89.933327000000006},"country":"BD","_id":1185106,"name":"Jamalpur"},{"coord":{"lat":25.299999,"lon":86.5},"country":"IN","_id":1269374,"name":"Jamalpur"},{"coord":{"lat":14.699999999999999,"lon":-87.583327999999995},"country":"HN","_id":3608743,"name":"Jamalteca"},{"coord":{"lat":-7.1894,"lon":108.183601},"country":"ID","_id":8025880,"name":"Jamanis"},{"coord":{"lat":19.635521000000001,"lon":-70.446640000000002},"country":"DO","_id":3504175,"name":"Jamao al Norte"},{"coord":{"lat":19.033331,"lon":-96.233329999999995},"country":"MX","_id":3526588,"name":"Jamapa"},{"coord":{"lat":20.299999,"lon":-102.716667},"country":"MX","_id":4004126,"name":"Jamay"},{"coord":{"lat":2.7922500000000001,"lon":-76.322577999999993},"country":"CO","_id":3680393,"name":"Jambalo"},{"coord":{"lat":-7.4203999999999999,"lon":108.695099},"country":"ID","_id":8070155,"name":"Jamban"},{"coord":{"lat":-8.1622500000000002,"lon":112.738213},"country":"ID","_id":1965671,"name":"Jambangan"},{"coord":{"lat":-8.0493000000000006,"lon":113.923897},"country":"ID","_id":7350818,"name":"Jambearum"},{"coord":{"lat":-23.253610999999999,"lon":-45.687778000000002},"country":"BR","_id":3460180,"name":"Jambeiro"},{"coord":{"lat":-8.1006,"lon":113.067398},"country":"ID","_id":7037147,"name":"Jambekumbu"},{"coord":{"lat":-34.650002000000001,"lon":150.78332499999999},"country":"AU","_id":2162446,"name":"Jamberoo"},{"coord":{"lat":-8.0160999999999998,"lon":113.38400300000001},"country":"ID","_id":7350321,"name":"Jambesari"},{"coord":{"lat":-6.7290000000000001,"lon":111.580803},"country":"ID","_id":8068759,"name":"Jambeyan"},{"coord":{"lat":-1.6000000000000001,"lon":103.616669},"country":"ID","_id":1642858,"name":"Jambi"},{"coord":{"lat":-24.216669,"lon":150.366669},"country":"AU","_id":2162445,"name":"Jambin"},{"coord":{"lat":41.385921000000003,"lon":-5.64832},"country":"ES","_id":6362534,"name":"Jambrina"},{"coord":{"lat":41.391959999999997,"lon":-5.66411},"country":"ES","_id":3120195,"name":"Jambrina"},{"coord":{"lat":-7.5672199999999998,"lon":109.027496},"country":"ID","_id":6385783,"name":"Jambuandap"},{"coord":{"lat":-6.5465,"lon":105.872803},"country":"ID","_id":7764766,"name":"Jambubol"},{"coord":{"lat":-7.3135000000000003,"lon":108.87020099999999},"country":"ID","_id":6387918,"name":"Jambuluwuk"},{"coord":{"lat":22.049999,"lon":72.800003000000004},"country":"IN","_id":1269350,"name":"Jambusar"},{"coord":{"lat":-8.0934000000000008,"lon":112.462997},"country":"ID","_id":7035576,"name":"Jambuwerkrajan"},{"coord":{"lat":53.041302000000002,"lon":11.0471},"country":"DE","_id":6558466,"name":"Jameln"},{"coord":{"lat":53.049999,"lon":11.08333},"country":"DE","_id":2895226,"name":"Jameln"},{"coord":{"lat":44.885280999999999,"lon":19.0625},"country":"RS","_id":3198908,"name":"Jamena"},{"coord":{"lat":35.088771999999999,"lon":-77.034949999999995},"country":"US","_id":4473137,"name":"James City"},{"coord":{"lat":37.300151999999997,"lon":-76.766350000000003},"country":"US","_id":4766447,"name":"James City County"},{"coord":{"lat":-32.161200999999998,"lon":-63.466881000000001},"country":"AR","_id":3853562,"name":"James Craik"},{"coord":{"lat":40.352612000000001,"lon":-74.440146999999996},"country":"US","_id":5099795,"name":"Jamesburg"},{"coord":{"lat":40.949539000000001,"lon":-72.581481999999994},"country":"US","_id":5122533,"name":"Jamesport"},{"coord":{"lat":42.097000000000001,"lon":-79.235328999999993},"country":"US","_id":5122534,"name":"Jamestown"},{"coord":{"lat":46.910542,"lon":-98.708443000000003},"country":"US","_id":5059836,"name":"Jamestown"},{"coord":{"lat":-33.200001,"lon":138.60000600000001},"country":"AU","_id":2069194,"name":"Jamestown"},{"coord":{"lat":-15.93872,"lon":-5.7167500000000002},"country":"SH","_id":3370903,"name":"Jamestown"},{"coord":{"lat":36.984791000000001,"lon":-85.063011000000003},"country":"US","_id":4296173,"name":"Jamestown"},{"coord":{"lat":35.994301,"lon":-79.935310000000001},"country":"US","_id":4473158,"name":"Jamestown"},{"coord":{"lat":39.658118999999999,"lon":-83.734916999999996},"country":"US","_id":4515427,"name":"Jamestown"},{"coord":{"lat":36.427570000000003,"lon":-84.931892000000005},"country":"US","_id":4632852,"name":"Jamestown"},{"coord":{"lat":41.497050999999999,"lon":-71.367278999999996},"country":"US","_id":5222866,"name":"Jamestown"},{"coord":{"lat":37.953259000000003,"lon":-120.42269899999999},"country":"US","_id":5360382,"name":"Jamestown"},{"coord":{"lat":42.088509000000002,"lon":-79.281097000000003},"country":"US","_id":7258777,"name":"Jamestown West"},{"coord":{"lat":-6.3681000000000001,"lon":105.882599},"country":"ID","_id":7780929,"name":"Jami"},{"coord":{"lat":-37.316668999999997,"lon":146.133331},"country":"AU","_id":2162440,"name":"Jamieson"},{"coord":{"lat":61.816668999999997,"lon":22.700001},"country":"FI","_id":656090,"name":"Jamijarvi"},{"coord":{"lat":37.737869000000003,"lon":-3.9163800000000002},"country":"ES","_id":6358501,"name":"Jamilena"},{"coord":{"lat":37.747162000000003,"lon":-3.9143400000000002},"country":"ES","_id":2516386,"name":"Jamilena"},{"coord":{"lat":11.408899999999999,"lon":122.50949900000001},"country":"PH","_id":1710325,"name":"Jamindan"},{"coord":{"lat":53.916671999999998,"lon":13.866669999999999},"country":"DE","_id":2895223,"name":"Jamitzow"},{"coord":{"lat":56.799999,"lon":16.683330999999999},"country":"SE","_id":2703348,"name":"Jamjo"},{"coord":{"lat":16.516670000000001,"lon":75.300003000000004},"country":"IN","_id":1269328,"name":"Jamkhandi"},{"coord":{"lat":52,"lon":14.3667},"country":"DE","_id":6547565,"name":"Jamlitz"},{"coord":{"lat":52,"lon":14.366669999999999},"country":"DE","_id":2895221,"name":"Jamlitz"},{"coord":{"lat":32.131641000000002,"lon":35.204040999999997},"country":"PS","_id":283521,"name":"Jammain"},{"coord":{"lat":35.622311000000003,"lon":10.756959999999999},"country":"TN","_id":2470191,"name":"Jammal"},{"coord":{"lat":14.83333,"lon":78.400002000000001},"country":"IN","_id":1269323,"name":"Jammalamadugu"},{"coord":{"lat":57.145828000000002,"lon":9.5625},"country":"DK","_id":6543926,"name":"Jammerbugt Kommune"},{"coord":{"lat":32.733330000000002,"lon":74.866669000000002},"country":"IN","_id":1269321,"name":"Jammu"},{"coord":{"lat":33.992629999999998,"lon":72.617722000000001},"country":"PK","_id":1339510,"name":"Jammun"},{"coord":{"lat":22.466669,"lon":70.066672999999994},"country":"IN","_id":1269317,"name":"Jamnagar"},{"coord":{"lat":-6.8015999999999996,"lon":111.85520200000001},"country":"ID","_id":8075931,"name":"Jamong"},{"coord":{"lat":9.9076000000000004,"lon":123.600151},"country":"PH","_id":1710318,"name":"Jampang"},{"coord":{"lat":-7.2579000000000002,"lon":106.625603},"country":"ID","_id":1642834,"name":"Jampang Kulon"},{"coord":{"lat":-7.0568,"lon":106.801399},"country":"ID","_id":1642832,"name":"Jampang Tengah"},{"coord":{"lat":-18.462779999999999,"lon":-41.803890000000003},"country":"BR","_id":3460176,"name":"Jampruca"},{"coord":{"lat":29.64414,"lon":70.595444000000001},"country":"PK","_id":1176241,"name":"Jampur"},{"coord":{"lat":61.864201000000001,"lon":25.190020000000001},"country":"FI","_id":656083,"name":"Jamsa"},{"coord":{"lat":61.918998999999999,"lon":25.170110999999999},"country":"FI","_id":656076,"name":"Jamsankoski"},{"coord":{"lat":22.799999,"lon":86.183327000000006},"country":"IN","_id":1269300,"name":"Jamshedpur"},{"coord":{"lat":56.233330000000002,"lon":14.51667},"country":"SE","_id":2703339,"name":"Jamshog"},{"coord":{"lat":25.43939,"lon":68.290267999999998},"country":"PK","_id":1176229,"name":"Jamshoro"},{"coord":{"lat":23.950001,"lon":86.800003000000004},"country":"IN","_id":1269298,"name":"Jamtara"},{"coord":{"lat":45.254168999999997,"lon":21.416941000000001},"country":"RO","_id":675295,"name":"Jamu Mare"},{"coord":{"lat":24.91667,"lon":86.216667000000001},"country":"IN","_id":1269291,"name":"Jamui"},{"coord":{"lat":32.716999000000001,"lon":-116.87612900000001},"country":"US","_id":5360403,"name":"Jamul"},{"coord":{"lat":3.2607400000000002,"lon":-76.534987999999998},"country":"CO","_id":3680387,"name":"Jamundi"},{"coord":{"lat":-7.4931000000000001,"lon":108.25250200000001},"country":"ID","_id":8045282,"name":"Jamupu"},{"coord":{"lat":23.700001,"lon":87.083327999999995},"country":"IN","_id":1269280,"name":"Jamuria"},{"coord":{"lat":28.966667000000001,"lon":75.966667000000001},"country":"IN","_id":1269372,"name":"Jamālpur"},{"coord":{"lat":33.553058999999998,"lon":68.426108999999997},"country":"AF","_id":1447259,"name":"Jam‘eh ‘Olyā"},{"coord":{"lat":-27.922460999999998,"lon":24.830521000000001},"country":"ZA","_id":994023,"name":"Jan Kempdorp"},{"coord":{"lat":28.01474,"lon":-81.771750999999995},"country":"US","_id":4160086,"name":"Jan-Phyl Village"},{"coord":{"lat":13.901389999999999,"lon":121.50805699999999},"country":"PH","_id":1710311,"name":"Janagdong"},{"coord":{"lat":-6.3167099999999996,"lon":105.881371},"country":"ID","_id":1642822,"name":"Janaka"},{"coord":{"lat":60.900002000000001,"lon":24.600000000000001},"country":"FI","_id":656073,"name":"Janakkala"},{"coord":{"lat":60.833328000000002,"lon":24.66667},"country":"FI","_id":656074,"name":"Janakkala"},{"coord":{"lat":26.718281000000001,"lon":85.906464},"country":"NP","_id":1283318,"name":"Janakpur"},{"coord":{"lat":27.33333,"lon":86},"country":"NP","_id":1283316,"name":"Janakpur Zone"},{"coord":{"lat":-8.6951999999999998,"lon":116.40149700000001},"country":"ID","_id":7410248,"name":"Janapria"},{"coord":{"lat":-15.8025,"lon":-43.308891000000003},"country":"BR","_id":3460174,"name":"Janauba"},{"coord":{"lat":-38.366669000000002,"lon":143.10000600000001},"country":"AU","_id":2162434,"name":"Jancourt"},{"coord":{"lat":33.429851999999997,"lon":72.019278999999997},"country":"PK","_id":1176218,"name":"Jand"},{"coord":{"lat":-17.048611000000001,"lon":-50.146110999999998},"country":"BR","_id":3460173,"name":"Jandaia"},{"coord":{"lat":-23.603059999999999,"lon":-51.643329999999999},"country":"BR","_id":3460172,"name":"Jandaia do Sul"},{"coord":{"lat":10.16667,"lon":124.18332700000001},"country":"PH","_id":1710303,"name":"Jandayan"},{"coord":{"lat":36.392960000000002,"lon":36.689621000000002},"country":"SY","_id":169190,"name":"Jandayris"},{"coord":{"lat":48.733299000000002,"lon":13.699999999999999},"country":"DE","_id":6556476,"name":"Jandelsbrunn"},{"coord":{"lat":48.733330000000002,"lon":13.699999999999999},"country":"DE","_id":2895213,"name":"Jandelsbrunn"},{"coord":{"lat":31.16667,"lon":75.616669000000002},"country":"IN","_id":1269269,"name":"Jandiala"},{"coord":{"lat":31.561389999999999,"lon":75.026672000000005},"country":"IN","_id":1269267,"name":"Jandiala Guru"},{"coord":{"lat":31.819859999999998,"lon":73.918120999999999},"country":"PK","_id":1176206,"name":"Jandiala Sher Khan"},{"coord":{"lat":-23.5275,"lon":-46.902500000000003},"country":"BR","_id":3460170,"name":"Jandira"},{"coord":{"lat":-26.783331,"lon":151.10000600000001},"country":"AU","_id":2162433,"name":"Jandowae"},{"coord":{"lat":-6.0155599999999998,"lon":-37.40889},"country":"BR","_id":3397643,"name":"Janduís"},{"coord":{"lat":40.067470999999998,"lon":-7.7792300000000001},"country":"PT","_id":8014340,"name":"Janeiro de Cima"},{"coord":{"lat":40.067982000000001,"lon":-7.8011200000000001},"country":"PT","_id":2738666,"name":"Janeiro de Cima"},{"coord":{"lat":-25.41667,"lon":25.549999},"country":"BW","_id":933719,"name":"Janeng"},{"coord":{"lat":42.682789,"lon":-89.018722999999994},"country":"US","_id":5257754,"name":"Janesville"},{"coord":{"lat":44.116081000000001,"lon":-93.707999999999998},"country":"US","_id":5031749,"name":"Janesville"},{"coord":{"lat":40.296557999999997,"lon":-120.524109},"country":"US","_id":5565862,"name":"Janesville"},{"coord":{"lat":40.043911000000001,"lon":44.023338000000003},"country":"AM","_id":616735,"name":"Janfida"},{"coord":{"lat":17.716669,"lon":79.183327000000006},"country":"IN","_id":1269256,"name":"Jangaon"},{"coord":{"lat":24.466669,"lon":88.066672999999994},"country":"IN","_id":1269247,"name":"Jangipur"},{"coord":{"lat":-6.9873000000000003,"lon":112.284599},"country":"ID","_id":8080451,"name":"Jangkungkusumo"},{"coord":{"lat":-7.2072000000000003,"lon":107.908699},"country":"ID","_id":7920901,"name":"Jangkurang Kidul"},{"coord":{"lat":-7.1436999999999999,"lon":108.505302},"country":"ID","_id":8059662,"name":"Janglapa"},{"coord":{"lat":-7.4871999999999996,"lon":108.670799},"country":"ID","_id":8070233,"name":"Jangraga"},{"coord":{"lat":32.763148999999999,"lon":68.397216999999998},"country":"AF","_id":1139500,"name":"Jani Khel"},{"coord":{"lat":52.756698999999998,"lon":18.111601},"country":"PL","_id":7533087,"name":"Janikowo"},{"coord":{"lat":52.753281000000001,"lon":18.113278999999999},"country":"PL","_id":3097688,"name":"Janikowo"},{"coord":{"lat":32.458838999999998,"lon":35.295101000000003},"country":"PS","_id":283506,"name":"Janin"},{"coord":{"lat":10.949299999999999,"lon":122.50610399999999},"country":"PH","_id":1710286,"name":"Janiuay"},{"coord":{"lat":44.665278999999998,"lon":19.247779999999999},"country":"BA","_id":3198895,"name":"Janja"},{"coord":{"lat":42.925282000000003,"lon":17.428329000000002},"country":"HR","_id":3198884,"name":"Janjina"},{"coord":{"lat":41.110278999999998,"lon":21.011391},"country":"MK","_id":789893,"name":"Jankovec"},{"coord":{"lat":51.598080000000003,"lon":17.788239999999998},"country":"PL","_id":3097638,"name":"Jankow Przygodzki"},{"coord":{"lat":50.000900000000001,"lon":18.98901},"country":"PL","_id":3097660,"name":"Jankowice"},{"coord":{"lat":50.044787999999997,"lon":18.547070000000001},"country":"PL","_id":3097651,"name":"Jankowice Rybnickie"},{"coord":{"lat":-34.016669999999998,"lon":151.066666},"country":"AU","_id":2162419,"name":"Jannali"},{"coord":{"lat":31.66958,"lon":35.219608000000001},"country":"PS","_id":283133,"name":"Jannatah"},{"coord":{"lat":54.633301000000003,"lon":9.3000000000000007},"country":"DE","_id":6552029,"name":"Janneby"},{"coord":{"lat":54.633330999999998,"lon":9.3000000000000007},"country":"DE","_id":2895200,"name":"Janneby"},{"coord":{"lat":59.233330000000002,"lon":14.43333},"country":"SE","_id":2703321,"name":"Jannelund"},{"coord":{"lat":45.753459999999997,"lon":5.1102699999999999},"country":"FR","_id":3012508,"name":"Janneyrias"},{"coord":{"lat":51.183331000000003,"lon":14.31667},"country":"DE","_id":2895193,"name":"Jannowitz"},{"coord":{"lat":51.399470999999998,"lon":13.85127},"country":"DE","_id":2895192,"name":"Jannowitz"},{"coord":{"lat":14.08586,"lon":121.094887},"country":"PH","_id":1710279,"name":"Janopol"},{"coord":{"lat":46.298611000000001,"lon":19.32583},"country":"HU","_id":3050967,"name":"Janoshalma"},{"coord":{"lat":47.119370000000004,"lon":17.165030000000002},"country":"HU","_id":3050964,"name":"Janoshaza"},{"coord":{"lat":47.383330999999998,"lon":20.066669000000001},"country":"HU","_id":719678,"name":"Janoshida"},{"coord":{"lat":45.173611000000001,"lon":21.008329},"country":"RS","_id":789888,"name":"Janosik"},{"coord":{"lat":47.786208999999999,"lon":17.136030000000002},"country":"HU","_id":3050927,"name":"Janossomorja"},{"coord":{"lat":50.585079,"lon":13.56368},"country":"CZ","_id":3074512,"name":"Janov"},{"coord":{"lat":50.772041000000002,"lon":15.169129999999999},"country":"CZ","_id":3074482,"name":"Janov nad Nisou"},{"coord":{"lat":49.621409999999997,"lon":18.406019000000001},"country":"CZ","_id":3074500,"name":"Janovice"},{"coord":{"lat":49.345149999999997,"lon":13.21813},"country":"CZ","_id":3074491,"name":"Janovice nad Uhlavou"},{"coord":{"lat":53.467467999999997,"lon":23.230519999999999},"country":"PL","_id":770473,"name":"Janow"},{"coord":{"lat":50.706950999999997,"lon":22.410391000000001},"country":"PL","_id":770425,"name":"Janow Lubelski"},{"coord":{"lat":52.193981000000001,"lon":23.212178999999999},"country":"PL","_id":770413,"name":"Janow Podlaski"},{"coord":{"lat":49.891540999999997,"lon":20.860809},"country":"PL","_id":770456,"name":"Janowice"},{"coord":{"lat":50.875689999999999,"lon":15.923220000000001},"country":"PL","_id":3097599,"name":"Janowice Wielkie"},{"coord":{"lat":51.323588999999998,"lon":21.889399999999998},"country":"PL","_id":770441,"name":"Janowiec"},{"coord":{"lat":52.755828999999999,"lon":17.489811},"country":"PL","_id":3097594,"name":"Janowiec Wielkopolski"},{"coord":{"lat":47.620280999999999,"lon":-1.6143799999999999},"country":"FR","_id":3012506,"name":"Jans"},{"coord":{"lat":29.33333,"lon":77.849997999999999},"country":"IN","_id":1269227,"name":"Jansath"},{"coord":{"lat":51.860661,"lon":14.49813},"country":"DE","_id":2895189,"name":"Janschwalde"},{"coord":{"lat":51.783352000000001,"lon":-104.71779600000001},"country":"CA","_id":5985770,"name":"Jansen"},{"coord":{"lat":47.616669000000002,"lon":18.91667},"country":"HU","_id":3050922,"name":"Jansentanya"},{"coord":{"lat":-7.2474999999999996,"lon":108.15630299999999},"country":"ID","_id":8026120,"name":"Jantake"},{"coord":{"lat":18.700001,"lon":-98.766670000000005},"country":"MX","_id":3526584,"name":"Jantetelco"},{"coord":{"lat":9.4442000000000004,"lon":123.16570299999999},"country":"PH","_id":1710276,"name":"Jantianon"},{"coord":{"lat":-15.48333,"lon":-44.366669000000002},"country":"BR","_id":3460148,"name":"Januaria"},{"coord":{"lat":29.269171,"lon":47.978062000000001},"country":"KW","_id":285603,"name":"Janub as Surrah"},{"coord":{"lat":50.391891000000001,"lon":18.136800999999998},"country":"PL","_id":3097561,"name":"Januszkowice"},{"coord":{"lat":-7.4709000000000003,"lon":108.129097},"country":"ID","_id":8022879,"name":"Januti"},{"coord":{"lat":49.166671999999998,"lon":-0.14999999999999999},"country":"FR","_id":6427270,"name":"Janville"},{"coord":{"lat":49.167912000000001,"lon":-0.16699},"country":"FR","_id":3012501,"name":"Janville"},{"coord":{"lat":48.202838999999997,"lon":1.8802000000000001},"country":"FR","_id":3012502,"name":"Janville"},{"coord":{"lat":48.513519000000002,"lon":2.2706400000000002},"country":"FR","_id":3012499,"name":"Janville-sur-Juine"},{"coord":{"lat":47.959147999999999,"lon":-1.4982899999999999},"country":"FR","_id":3012495,"name":"Janze"},{"coord":{"lat":50.700600000000001,"lon":22.413601},"country":"PL","_id":7533529,"name":"Janów Lubelski"},{"coord":{"lat":23.633329,"lon":75.133330999999998},"country":"IN","_id":1269217,"name":"Jaora"},{"coord":{"lat":-6.9423000000000004,"lon":111.29029800000001},"country":"ID","_id":1642775,"name":"Japah"},{"coord":{"lat":35.685360000000003,"lon":139.75309799999999},"country":"JP","_id":1861060,"name":"Japan"},{"coord":{"lat":-10.59333,"lon":-36.940280999999999},"country":"BR","_id":3460136,"name":"Japaratuba"},{"coord":{"lat":-20.141390000000001,"lon":-45.503329999999998},"country":"BR","_id":3460137,"name":"Japaraíba"},{"coord":{"lat":-6.7443,"lon":111.441101},"country":"ID","_id":8068238,"name":"Japeledok"},{"coord":{"lat":-6.7495000000000003,"lon":111.449501},"country":"ID","_id":1642776,"name":"Japerejo"},{"coord":{"lat":-22.643060999999999,"lon":-43.653331999999999},"country":"BR","_id":3460132,"name":"Japeri"},{"coord":{"lat":10.76111,"lon":123.54361},"country":"PH","_id":1710269,"name":"Japitan"},{"coord":{"lat":10.1279,"lon":123.503502},"country":"PH","_id":1710270,"name":"Japitan"},{"coord":{"lat":-10.34667,"lon":-36.801108999999997},"country":"BR","_id":3460127,"name":"Japoata"},{"coord":{"lat":48.801330999999998,"lon":15.5639},"country":"AT","_id":7871777,"name":"Japons"},{"coord":{"lat":48.792499999999997,"lon":15.56831},"country":"AT","_id":2775125,"name":"Japons"},{"coord":{"lat":62.378990000000002,"lon":27.433720000000001},"country":"FI","_id":656015,"name":"Jappila"},{"coord":{"lat":-0.31667000000000001,"lon":102.349998},"country":"ID","_id":1642773,"name":"Japura"},{"coord":{"lat":7.5175000000000001,"lon":-78.170280000000005},"country":"PA","_id":3708432,"name":"Jaque"},{"coord":{"lat":18.311729,"lon":-71.161452999999995},"country":"DO","_id":3504160,"name":"Jaquimeyes"},{"coord":{"lat":36.303890000000003,"lon":65.484168999999994},"country":"AF","_id":1139362,"name":"Jar-e Qūdūq"},{"coord":{"lat":41.199618999999998,"lon":-1.89822},"country":"ES","_id":6362818,"name":"Jaraba"},{"coord":{"lat":41.190829999999998,"lon":-1.8844000000000001},"country":"ES","_id":3120188,"name":"Jaraba"},{"coord":{"lat":19.121780000000001,"lon":-70.642180999999994},"country":"DO","_id":3504158,"name":"Jarabacoa"},{"coord":{"lat":36.817501,"lon":38.011108},"country":"SY","_id":169179,"name":"Jarabulus"},{"coord":{"lat":51.968539999999997,"lon":17.297070000000001},"country":"PL","_id":3097553,"name":"Jaraczewo"},{"coord":{"lat":39.147208999999997,"lon":-1.0824},"country":"ES","_id":6362009,"name":"Jarafuel"},{"coord":{"lat":39.140129000000002,"lon":-1.0730599999999999},"country":"ES","_id":2516369,"name":"Jarafuel"},{"coord":{"lat":-15.75694,"lon":-49.334437999999999},"country":"BR","_id":3460107,"name":"Jaragua"},{"coord":{"lat":-26.486111000000001,"lon":-49.066668999999997},"country":"BR","_id":3460102,"name":"Jaragua do Sul"},{"coord":{"lat":39.695067999999999,"lon":-5.8540299999999998},"country":"ES","_id":6356799,"name":"Jaraicejo"},{"coord":{"lat":39.666240999999999,"lon":-5.8130800000000002},"country":"ES","_id":2516367,"name":"Jaraicejo"},{"coord":{"lat":40.060051000000001,"lon":-5.7542600000000004},"country":"ES","_id":3120186,"name":"Jaraiz de la Vera"},{"coord":{"lat":44.916671999999998,"lon":19.757218999999999},"country":"RS","_id":3198868,"name":"Jarak"},{"coord":{"lat":20.366671,"lon":-101.06667299999999},"country":"MX","_id":4004092,"name":"Jaral del Progreso"},{"coord":{"lat":34.613121,"lon":-106.76364100000001},"country":"US","_id":5473163,"name":"Jarales"},{"coord":{"lat":42.124039000000003,"lon":-3.3174700000000001},"country":"ES","_id":6356472,"name":"Jaramillo de la Fuente"},{"coord":{"lat":42.114719000000001,"lon":-3.3123900000000002},"country":"ES","_id":3120182,"name":"Jaramillo de la Fuente"},{"coord":{"lat":42.099049000000001,"lon":-3.3594599999999999},"country":"ES","_id":6356473,"name":"Jaramillo Quemado"},{"coord":{"lat":42.085678000000001,"lon":-3.3586800000000001},"country":"ES","_id":3120181,"name":"Jaramillo Quemado"},{"coord":{"lat":40.093471999999998,"lon":-5.62446},"country":"ES","_id":6356801,"name":"Jarandilla de la Vera"},{"coord":{"lat":40.129150000000003,"lon":-5.6607900000000004},"country":"ES","_id":3120179,"name":"Jarandilla de la Vera"},{"coord":{"lat":-8.1077999999999992,"lon":112.446297},"country":"ID","_id":1642765,"name":"Jarangan"},{"coord":{"lat":31.33333,"lon":73.433327000000006},"country":"PK","_id":1176106,"name":"Jaranwala"},{"coord":{"lat":32.280819000000001,"lon":35.899287999999999},"country":"JO","_id":248875,"name":"Jarash"},{"coord":{"lat":40.034069000000002,"lon":-5.7523099999999996},"country":"ES","_id":6356800,"name":"Jaraíz de la Vera"},{"coord":{"lat":59.953601999999997,"lon":10.6553},"country":"NO","_id":6693020,"name":"Jarbakken"},{"coord":{"lat":60.716670999999998,"lon":16.600000000000001},"country":"SE","_id":2703300,"name":"Jarbo"},{"coord":{"lat":52.655349999999999,"lon":11.89579},"country":"DE","_id":2895177,"name":"Jarchau"},{"coord":{"lat":50.424380999999997,"lon":23.585760000000001},"country":"PL","_id":770395,"name":"Jarczow"},{"coord":{"lat":46.414509000000002,"lon":-1.5764},"country":"FR","_id":3012484,"name":"Jard-sur-Mer"},{"coord":{"lat":48.150002000000001,"lon":20.25},"country":"HU","_id":719668,"name":"Jardanhaza"},{"coord":{"lat":-34.283329000000002,"lon":116.116669},"country":"AU","_id":2069168,"name":"Jardee"},{"coord":{"lat":54.833302000000003,"lon":9.1999999999999993},"country":"DE","_id":6552030,"name":"Jardelund"},{"coord":{"lat":54.833328000000002,"lon":9.1999999999999993},"country":"DE","_id":2895174,"name":"Jardelund"},{"coord":{"lat":-21.48028,"lon":-56.138061999999998},"country":"BR","_id":3460087,"name":"Jardim"},{"coord":{"lat":-3.4644400000000002,"lon":-39.056671000000001},"country":"BR","_id":3397590,"name":"Jardim"},{"coord":{"lat":-24.179171,"lon":-51.692219000000001},"country":"BR","_id":3460076,"name":"Jardim Alegre"},{"coord":{"lat":-6.3786100000000001,"lon":-37.351939999999999},"country":"BR","_id":3397562,"name":"Jardim de Piranhas"},{"coord":{"lat":-6.5844399999999998,"lon":-36.774441000000003},"country":"BR","_id":3397560,"name":"Jardim do Serido"},{"coord":{"lat":-27.62932,"lon":-48.664279999999998},"country":"BR","_id":7874557,"name":"Jardim Eldorado"},{"coord":{"lat":32.733330000000002,"lon":-17.200001},"country":"PT","_id":2267364,"name":"Jardim Pelado"},{"coord":{"lat":-23.125,"lon":-46.548889000000003},"country":"BR","_id":3475310,"name":"Jardim São Nicolau"},{"coord":{"lat":5.5990200000000003,"lon":-75.819762999999995},"country":"CO","_id":3680366,"name":"Jardin"},{"coord":{"lat":45.496169999999999,"lon":4.9064100000000002},"country":"FR","_id":3012487,"name":"Jardin"},{"coord":{"lat":-27.043461000000001,"lon":-55.226978000000003},"country":"AR","_id":3433349,"name":"Jardin America"},{"coord":{"lat":18.288838999999999,"lon":-67.136848000000001},"country":"PR","_id":4565636,"name":"Jardines de Anasco"},{"coord":{"lat":19.49333,"lon":-99.270279000000002},"country":"MX","_id":3827446,"name":"Jardines de San Mateo"},{"coord":{"lat":22.266670000000001,"lon":114.18332700000001},"country":"HK","_id":1819706,"name":"Jardines Lookout"},{"coord":{"lat":-21.017779999999998,"lon":-47.763888999999999},"country":"BR","_id":3460071,"name":"Jardinopolis"},{"coord":{"lat":43.849997999999999,"lon":27},"country":"BG","_id":6459740,"name":"Jarebica"},{"coord":{"lat":44.538891,"lon":19.42417},"country":"RS","_id":3198859,"name":"Jarebice"},{"coord":{"lat":60.392730999999998,"lon":10.56155},"country":"NO","_id":3150911,"name":"Jaren"},{"coord":{"lat":46.616669000000002,"lon":15.68333},"country":"SI","_id":3198856,"name":"Jareninski Vrh"},{"coord":{"lat":49.30677,"lon":95.447852999999995},"country":"MN","_id":1515577,"name":"Jargalant"},{"coord":{"lat":47.150002000000001,"lon":99.633330999999998},"country":"MN","_id":1515578,"name":"Jargalant"},{"coord":{"lat":46.926701000000001,"lon":91.087822000000003},"country":"MN","_id":1515579,"name":"Jargalant"},{"coord":{"lat":45.709541000000002,"lon":97.175956999999997},"country":"MN","_id":1515580,"name":"Jargalant"},{"coord":{"lat":50.067501,"lon":105.880562},"country":"MN","_id":2030170,"name":"Jargalant"},{"coord":{"lat":49.666671999999998,"lon":106.33332799999999},"country":"MN","_id":2030171,"name":"Jargalant"},{"coord":{"lat":49.295909999999999,"lon":100.25711099999999},"country":"MN","_id":2030172,"name":"Jargalant"},{"coord":{"lat":48.520561000000001,"lon":105.868332},"country":"MN","_id":2030173,"name":"Jargalant"},{"coord":{"lat":47.793090999999997,"lon":101.972351},"country":"MN","_id":2030175,"name":"Jargalant"},{"coord":{"lat":47.533329000000002,"lon":100.216667},"country":"MN","_id":2030176,"name":"Jargalant"},{"coord":{"lat":49.129150000000003,"lon":104.408028},"country":"MN","_id":6997333,"name":"Jargalant"},{"coord":{"lat":47.863159000000003,"lon":2.1264799999999999},"country":"FR","_id":3012483,"name":"Jargeau"},{"coord":{"lat":11.86538,"lon":121.44040699999999},"country":"PH","_id":1711866,"name":"Jarigue"},{"coord":{"lat":40.169331,"lon":-6.0080600000000004},"country":"ES","_id":6355238,"name":"Jarilla"},{"coord":{"lat":40.171557999999997,"lon":-6.0028100000000002},"country":"ES","_id":3120171,"name":"Jarilla"},{"coord":{"lat":-23.101391,"lon":-46.728329000000002},"country":"BR","_id":3460068,"name":"Jarinu"},{"coord":{"lat":19.674999,"lon":-101.086113},"country":"MX","_id":4025193,"name":"Jaripeo"},{"coord":{"lat":45.783329000000002,"lon":27.066669000000001},"country":"RO","_id":675293,"name":"Jaristea"},{"coord":{"lat":-36.266669999999998,"lon":143.96667500000001},"country":"AU","_id":2162407,"name":"Jarklin"},{"coord":{"lat":45.268889999999999,"lon":20.758329},"country":"RS","_id":789880,"name":"Jarkovac"},{"coord":{"lat":45.054169000000002,"lon":20.024999999999999},"country":"RS","_id":789879,"name":"Jarkovci"},{"coord":{"lat":42.441668999999997,"lon":23.258329},"country":"BG","_id":6461674,"name":"Jarlovo"},{"coord":{"lat":53.923850999999999,"lon":13.34032},"country":"DE","_id":2895162,"name":"Jarmen"},{"coord":{"lat":45.318061999999998,"lon":18.72917},"country":"HR","_id":3198852,"name":"Jarmina"},{"coord":{"lat":54.11356,"lon":13.25578},"country":"DE","_id":2895161,"name":"Jarmshagen"},{"coord":{"lat":60.533329000000002,"lon":14.366669999999999},"country":"SE","_id":2703268,"name":"Jarna"},{"coord":{"lat":45.681598999999999,"lon":-0.17329},"country":"FR","_id":3012477,"name":"Jarnac"},{"coord":{"lat":52.650002000000001,"lon":10.300000000000001},"country":"DE","_id":2895158,"name":"Jarnsen"},{"coord":{"lat":49.157359999999997,"lon":5.8787700000000003},"country":"FR","_id":3012467,"name":"Jarny"},{"coord":{"lat":27.816040000000001,"lon":86.713218999999995},"country":"NP","_id":7996816,"name":"Jaro"},{"coord":{"lat":11.188330000000001,"lon":124.782501},"country":"PH","_id":1710262,"name":"Jaro"},{"coord":{"lat":51.961497999999999,"lon":17.5075},"country":"PL","_id":7533024,"name":"Jarocin"},{"coord":{"lat":51.972659999999998,"lon":17.502559999999999},"country":"PL","_id":3097528,"name":"Jarocin"},{"coord":{"lat":50.564590000000003,"lon":22.321211000000002},"country":"PL","_id":770383,"name":"Jarocin"},{"coord":{"lat":50.356200999999999,"lon":15.92136},"country":"CZ","_id":3074462,"name":"Jaromer"},{"coord":{"lat":49.625560999999998,"lon":16.751850000000001},"country":"CZ","_id":3074461,"name":"Jaromerice"},{"coord":{"lat":49.094082,"lon":15.89331},"country":"CZ","_id":3074459,"name":"Jaromerice nad Rokytnou"},{"coord":{"lat":48.756568999999999,"lon":16.233509000000002},"country":"CZ","_id":3074452,"name":"Jaroslavice"},{"coord":{"lat":50.016232000000002,"lon":22.677758999999998},"country":"PL","_id":770380,"name":"Jaroslaw"},{"coord":{"lat":49.189892,"lon":15.06734},"country":"CZ","_id":3074444,"name":"Jarosov nad Nezarkou"},{"coord":{"lat":49.862670999999999,"lon":19.519621000000001},"country":"PL","_id":3097504,"name":"Jaroszowice"},{"coord":{"lat":50.040000999999997,"lon":22.670400999999998},"country":"PL","_id":7532223,"name":"Jarosław"},{"coord":{"lat":49.953780999999999,"lon":14.072340000000001},"country":"CZ","_id":3074440,"name":"Jarov"},{"coord":{"lat":63.349997999999999,"lon":13.48333},"country":"SE","_id":2703212,"name":"Jarpen"},{"coord":{"lat":54.733330000000002,"lon":9.4166699999999999},"country":"DE","_id":2895155,"name":"Jarplund"},{"coord":{"lat":54.733330000000002,"lon":9.4166699999999999},"country":"DE","_id":3208552,"name":"Jarplund-Weding"},{"coord":{"lat":41.56673,"lon":-1.69391},"country":"ES","_id":6362819,"name":"Jarque"},{"coord":{"lat":41.556128999999999,"lon":-1.67563},"country":"ES","_id":3120169,"name":"Jarque"},{"coord":{"lat":40.709949000000002,"lon":-0.79542999999999997},"country":"ES","_id":6361539,"name":"Jarque de la Val"},{"coord":{"lat":40.702831000000003,"lon":-0.80083000000000004},"country":"ES","_id":3120168,"name":"Jarque de la Val"},{"coord":{"lat":-32.349997999999999,"lon":116.06667299999999},"country":"AU","_id":2069163,"name":"Jarrahdale"},{"coord":{"lat":13.616669999999999,"lon":-15.18333},"country":"GM","_id":2413265,"name":"Jarreng"},{"coord":{"lat":20.683330999999999,"lon":-105.26667},"country":"MX","_id":4004060,"name":"Jarretadera"},{"coord":{"lat":39.604548999999999,"lon":-76.477737000000005},"country":"US","_id":4359359,"name":"Jarrettsville"},{"coord":{"lat":45.117320999999997,"lon":5.7595700000000001},"country":"FR","_id":3012465,"name":"Jarrie"},{"coord":{"lat":54.980358000000003,"lon":-1.4842299999999999},"country":"GB","_id":2645972,"name":"Jarrow"},{"coord":{"lat":-10.438890000000001,"lon":-62.466388999999999},"country":"BR","_id":3925040,"name":"Jaru"},{"coord":{"lat":23.043060000000001,"lon":-82.010834000000003},"country":"CU","_id":3556351,"name":"Jaruco"},{"coord":{"lat":-6.9000000000000004,"lon":111.885201},"country":"ID","_id":1642760,"name":"Jarurejo"},{"coord":{"lat":59.038609000000001,"lon":25.886391},"country":"EE","_id":591968,"name":"Jarva-Jaani"},{"coord":{"lat":58.778888999999999,"lon":24.82583},"country":"EE","_id":591965,"name":"Jarvakandi"},{"coord":{"lat":60.473689999999998,"lon":25.089919999999999},"country":"FI","_id":655958,"name":"Jarvenpaa"},{"coord":{"lat":54.450150000000001,"lon":-113.98539700000001},"country":"CA","_id":5985869,"name":"Jarvie"},{"coord":{"lat":48.669071000000002,"lon":6.2063600000000001},"country":"FR","_id":3012449,"name":"Jarville-la-Malgrange"},{"coord":{"lat":27.16667,"lon":81.550003000000004},"country":"IN","_id":1269183,"name":"Jarwal"},{"coord":{"lat":47.555630000000001,"lon":-0.23182},"country":"FR","_id":3012447,"name":"Jarze"},{"coord":{"lat":48.362068000000001,"lon":11.56311},"country":"DE","_id":2895148,"name":"Jarzt"},{"coord":{"lat":43.502898999999999,"lon":-6.9010600000000002},"country":"ES","_id":3120175,"name":"Jarén"},{"coord":{"lat":42.703308,"lon":-0.64931000000000005},"country":"ES","_id":6358358,"name":"Jasa"},{"coord":{"lat":42.694800999999998,"lon":-0.66605000000000003},"country":"ES","_id":3120164,"name":"Jasa"},{"coord":{"lat":45.446941000000002,"lon":20.85528},"country":"RS","_id":789875,"name":"Jasa Tomic"},{"coord":{"lat":8.6500000000000004,"lon":124.783333},"country":"PH","_id":1710259,"name":"Jasaan"},{"coord":{"lat":8.6541700000000006,"lon":124.755562},"country":"PH","_id":1710258,"name":"Jasaan"},{"coord":{"lat":22.033331,"lon":71.199996999999996},"country":"IN","_id":1269179,"name":"Jasdan"},{"coord":{"lat":42.592781000000002,"lon":18.269171},"country":"HR","_id":3198826,"name":"Jasenice"},{"coord":{"lat":22.899999999999999,"lon":84.150002000000001},"country":"IN","_id":1269177,"name":"Jashpurnagar"},{"coord":{"lat":24.516670000000001,"lon":86.650002000000001},"country":"IN","_id":1269175,"name":"Jasidih"},{"coord":{"lat":49.969878999999999,"lon":20.571898999999998},"country":"PL","_id":770357,"name":"Jasien"},{"coord":{"lat":51.751418999999999,"lon":15.014189999999999},"country":"PL","_id":3097480,"name":"Jasien"},{"coord":{"lat":52.414149999999999,"lon":21.411501000000001},"country":"PL","_id":770348,"name":"Jasienica"},{"coord":{"lat":49.822811000000002,"lon":19.841909000000001},"country":"PL","_id":3097471,"name":"Jasienica"},{"coord":{"lat":49.813122,"lon":18.921551000000001},"country":"PL","_id":3097472,"name":"Jasienica"},{"coord":{"lat":49.751438,"lon":21.941759000000001},"country":"PL","_id":770346,"name":"Jasienica Rosielna"},{"coord":{"lat":51.821041000000001,"lon":20.940989999999999},"country":"PL","_id":770341,"name":"Jasieniec"},{"coord":{"lat":32.992328999999998,"lon":36.060181},"country":"SY","_id":165997,"name":"Jasim"},{"coord":{"lat":49.658408999999999,"lon":21.976780000000002},"country":"PL","_id":770316,"name":"Jasionow"},{"coord":{"lat":49.442290999999997,"lon":21.807949000000001},"country":"PL","_id":770295,"name":"Jasliska"},{"coord":{"lat":49.745060000000002,"lon":21.472521},"country":"PL","_id":770293,"name":"Jaslo"},{"coord":{"lat":28.293060000000001,"lon":-82.690101999999996},"country":"US","_id":4160100,"name":"Jasmine Estates"},{"coord":{"lat":53.400002000000001,"lon":11.366669999999999},"country":"DE","_id":2895139,"name":"Jasnitz"},{"coord":{"lat":24.5,"lon":80.483329999999995},"country":"IN","_id":1269172,"name":"Jaso"},{"coord":{"lat":39.163100999999997,"lon":-87.199180999999996},"country":"US","_id":4259639,"name":"Jasonville"},{"coord":{"lat":38.391441,"lon":-86.931106999999997},"country":"US","_id":4259640,"name":"Jasper"},{"coord":{"lat":52.883319999999998,"lon":-118.08566999999999},"country":"CA","_id":5985918,"name":"Jasper"},{"coord":{"lat":33.831218999999997,"lon":-87.277512000000002},"country":"US","_id":4069659,"name":"Jasper"},{"coord":{"lat":36.008128999999997,"lon":-93.186569000000006},"country":"US","_id":4116400,"name":"Jasper"},{"coord":{"lat":30.518270000000001,"lon":-82.948188999999999},"country":"US","_id":4160102,"name":"Jasper"},{"coord":{"lat":34.467869,"lon":-84.429091999999997},"country":"US","_id":4202634,"name":"Jasper"},{"coord":{"lat":35.074241999999998,"lon":-85.626082999999994},"country":"US","_id":4632892,"name":"Jasper"},{"coord":{"lat":30.920200000000001,"lon":-93.996582000000004},"country":"US","_id":4700731,"name":"Jasper"},{"coord":{"lat":30.733540000000001,"lon":-94.016852999999998},"country":"US","_id":4700729,"name":"Jasper County"},{"coord":{"lat":33.333461999999997,"lon":-83.683228},"country":"US","_id":4202638,"name":"Jasper County"},{"coord":{"lat":37.200062000000003,"lon":-94.350219999999993},"country":"US","_id":4392354,"name":"Jasper County"},{"coord":{"lat":41.041431000000003,"lon":-87.151413000000005},"country":"US","_id":4922007,"name":"Jasper County"},{"coord":{"lat":41.683318999999997,"lon":-93.050201000000001},"country":"US","_id":4862456,"name":"Jasper County"},{"coord":{"lat":32.545712000000002,"lon":-94.324081000000007},"country":"US","_id":4700744,"name":"Jasper Heights"},{"coord":{"lat":52.885761000000002,"lon":-118.057152},"country":"CA","_id":5985934,"name":"Jasper Park Lodge"},{"coord":{"lat":-34.816668999999997,"lon":150.66667200000001},"country":"AU","_id":2162402,"name":"Jaspers Brush"},{"coord":{"lat":29.283331,"lon":78.816672999999994},"country":"IN","_id":1269168,"name":"Jaspur"},{"coord":{"lat":27.25,"lon":78.683327000000006},"country":"IN","_id":1269165,"name":"Jasrana"},{"coord":{"lat":45.983521000000003,"lon":4.76004},"country":"FR","_id":3012444,"name":"Jassans-Riottier"},{"coord":{"lat":46.213160999999999,"lon":5.3257899999999996},"country":"FR","_id":3012441,"name":"Jasseron"},{"coord":{"lat":54.714770999999999,"lon":18.628440999999999},"country":"PL","_id":7531426,"name":"Jastarnia"},{"coord":{"lat":54.696060000000003,"lon":18.678730000000002},"country":"PL","_id":3097421,"name":"Jastarnia"},{"coord":{"lat":51.304110999999999,"lon":22.435459000000002},"country":"PL","_id":770288,"name":"Jastkow"},{"coord":{"lat":45.668331000000002,"lon":15.64861},"country":"HR","_id":3198799,"name":"Jastrebarsko"},{"coord":{"lat":53.407600000000002,"lon":16.788699999999999},"country":"PL","_id":7533179,"name":"Jastrowie"},{"coord":{"lat":53.420479,"lon":16.81756},"country":"PL","_id":3097420,"name":"Jastrowie"},{"coord":{"lat":51.247250000000001,"lon":20.947579999999999},"country":"PL","_id":770286,"name":"Jastrzab"},{"coord":{"lat":50.670189000000001,"lon":19.181699999999999},"country":"PL","_id":3097416,"name":"Jastrzab"},{"coord":{"lat":51.497421000000003,"lon":21.237089000000001},"country":"PL","_id":770269,"name":"Jastrzebia"},{"coord":{"lat":49.797328999999998,"lon":20.880890000000001},"country":"PL","_id":770271,"name":"Jastrzebia"},{"coord":{"lat":54.831347999999998,"lon":18.313009000000001},"country":"PL","_id":3097409,"name":"Jastrzebia Gora"},{"coord":{"lat":49.955421000000001,"lon":18.574788999999999},"country":"PL","_id":3097391,"name":"Jastrzebie Zdroj"},{"coord":{"lat":50.172699000000001,"lon":18.0989},"country":"PL","_id":3097405,"name":"Jastrzębie"},{"coord":{"lat":49.950001,"lon":18.58333},"country":"PL","_id":3097395,"name":"Jastrzębie Dolne"},{"coord":{"lat":49.960628999999997,"lon":18.600531},"country":"PL","_id":7530961,"name":"Jastrzębie-Zdrój"},{"coord":{"lat":49.960602000000002,"lon":18.6005},"country":"PL","_id":7531863,"name":"Jastrzębie-Zdrój"},{"coord":{"lat":-6.4347000000000003,"lon":106.001503},"country":"ID","_id":7846042,"name":"Jasugih Selatan"},{"coord":{"lat":26.878610999999999,"lon":78.902778999999995},"country":"IN","_id":1269158,"name":"Jaswantnagar"},{"coord":{"lat":47.366669000000002,"lon":20.100000000000001},"country":"HU","_id":719656,"name":"Jaszalsoszentgyorgy"},{"coord":{"lat":47.516669999999998,"lon":20.149999999999999},"country":"HU","_id":719655,"name":"Jaszapati"},{"coord":{"lat":47.642380000000003,"lon":19.980378999999999},"country":"HU","_id":3050909,"name":"Jaszarokszallas"},{"coord":{"lat":47.5,"lon":19.91667},"country":"HU","_id":3050907,"name":"Jaszbereny"},{"coord":{"lat":47.566101000000003,"lon":20.015340999999999},"country":"HU","_id":719649,"name":"Jaszdozsa"},{"coord":{"lat":47.520378000000001,"lon":19.990860000000001},"country":"HU","_id":719645,"name":"Jaszjakohalma"},{"coord":{"lat":47.049999,"lon":20.066669000000001},"country":"HU","_id":719644,"name":"Jaszkarajeno"},{"coord":{"lat":47.450001,"lon":20.216669},"country":"HU","_id":719643,"name":"Jaszkiser"},{"coord":{"lat":47.366669000000002,"lon":20.16667},"country":"HU","_id":719640,"name":"Jaszladany"},{"coord":{"lat":47.583328000000002,"lon":20.183330999999999},"country":"HU","_id":719635,"name":"Jaszszentandras"},{"coord":{"lat":46.566848999999998,"lon":19.760650999999999},"country":"HU","_id":3050901,"name":"Jaszszentlaszlo"},{"coord":{"lat":49.747002000000002,"lon":21.471700999999999},"country":"PL","_id":7532613,"name":"Jasło"},{"coord":{"lat":-17.88139,"lon":-51.714438999999999},"country":"BR","_id":3460064,"name":"Jatai"},{"coord":{"lat":-23.254169000000001,"lon":-50.979999999999997},"country":"BR","_id":3460048,"name":"Jataizinho"},{"coord":{"lat":-6.8727,"lon":106.256401},"country":"ID","_id":1642755,"name":"Jatake"},{"coord":{"lat":20.16667,"lon":85.699996999999996},"country":"IN","_id":1269154,"name":"Jatani"},{"coord":{"lat":25.016670000000001,"lon":79.050003000000004},"country":"IN","_id":1269153,"name":"Jatara"},{"coord":{"lat":-7.9900000000000002,"lon":-36.496391000000003},"country":"BR","_id":3397546,"name":"Jataúba"},{"coord":{"lat":-7.5772199999999996,"lon":110.897499},"country":"ID","_id":1642754,"name":"Jaten"},{"coord":{"lat":-6.5152999999999999,"lon":106.195801},"country":"ID","_id":7766873,"name":"Jati"},{"coord":{"lat":-7.1959,"lon":107.966904},"country":"ID","_id":7920567,"name":"Jati"},{"coord":{"lat":-7.1158000000000001,"lon":107.91179700000001},"country":"ID","_id":7921813,"name":"Jati"},{"coord":{"lat":-7.3037000000000001,"lon":108.2033},"country":"ID","_id":8023786,"name":"Jati"},{"coord":{"lat":24.353901,"lon":68.267059000000003},"country":"PK","_id":1176048,"name":"Jati"},{"coord":{"lat":-8.2439999999999998,"lon":113.22170300000001},"country":"ID","_id":7375634,"name":"Jatiarum"},{"coord":{"lat":-6.4747199999999996,"lon":108.31527699999999},"country":"ID","_id":1642726,"name":"Jatibarang"},{"coord":{"lat":21.941939999999999,"lon":-79.169998000000007},"country":"CU","_id":3556334,"name":"Jatibonico"},{"coord":{"lat":-8.1489999999999991,"lon":112.048599},"country":"ID","_id":7034805,"name":"Jatidowo"},{"coord":{"lat":41.237968000000002,"lon":-0.39445999999999998},"country":"ES","_id":6361540,"name":"Jatiel"},{"coord":{"lat":41.220081,"lon":-0.38183},"country":"ES","_id":3120162,"name":"Jatiel"},{"coord":{"lat":-8.1369000000000007,"lon":112.538101},"country":"ID","_id":1965628,"name":"Jatikerto"},{"coord":{"lat":-7.0907,"lon":111.3964},"country":"ID","_id":7333254,"name":"Jatiklampok"},{"coord":{"lat":-7.53444,"lon":109.11972},"country":"ID","_id":1642717,"name":"Jatilawang"},{"coord":{"lat":-8.5136000000000003,"lon":114.257103},"country":"ID","_id":7037707,"name":"Jatimulyo"},{"coord":{"lat":-7.1734999999999998,"lon":108.40280199999999},"country":"ID","_id":1642708,"name":"Jatinagara"},{"coord":{"lat":-7.1718999999999999,"lon":108.418999},"country":"ID","_id":8064210,"name":"Jatinagara Kulon"},{"coord":{"lat":-7.0027999999999997,"lon":108.329002},"country":"ID","_id":1642702,"name":"Jatipamor"},{"coord":{"lat":-6.80823,"lon":106.01760899999999},"country":"ID","_id":7787580,"name":"Jatiraya"},{"coord":{"lat":-6.8400999999999996,"lon":111.52040100000001},"country":"ID","_id":8073168,"name":"Jatirego"},{"coord":{"lat":-7.5799000000000003,"lon":112.418503},"country":"ID","_id":1642694,"name":"Jatirejo"},{"coord":{"lat":-8.1821999999999999,"lon":111.88009599999999},"country":"ID","_id":7034598,"name":"Jatirejo"},{"coord":{"lat":-8.1273,"lon":112.488899},"country":"ID","_id":7034990,"name":"Jatirejo"},{"coord":{"lat":-6.9203999999999999,"lon":111.471397},"country":"ID","_id":8071069,"name":"Jatirejo"},{"coord":{"lat":-6.8857999999999997,"lon":111.65920300000001},"country":"ID","_id":1642693,"name":"Jatirogo"},{"coord":{"lat":-7.8833299999999999,"lon":111.116669},"country":"ID","_id":1642692,"name":"Jatiroto"},{"coord":{"lat":-8.1218000000000004,"lon":113.36370100000001},"country":"ID","_id":1642691,"name":"Jatiroto"},{"coord":{"lat":-8.3183000000000007,"lon":113.635201},"country":"ID","_id":7406224,"name":"Jatisari"},{"coord":{"lat":-7.4100099999999998,"lon":107.01554899999999},"country":"ID","_id":7860122,"name":"Jatisari"},{"coord":{"lat":-7.1534000000000004,"lon":108.54879800000001},"country":"ID","_id":8059683,"name":"Jatisari"},{"coord":{"lat":-6.6333000000000002,"lon":111.508499},"country":"ID","_id":8068668,"name":"Jatisari"},{"coord":{"lat":-6.8253000000000004,"lon":111.739304},"country":"ID","_id":8074715,"name":"Jatisari"},{"coord":{"lat":-7.7637,"lon":114.101501},"country":"ID","_id":7581842,"name":"Jatisari Satu"},{"coord":{"lat":-6.7336099999999997,"lon":108.26277899999999},"country":"ID","_id":1642684,"name":"Jatiwangi"},{"coord":{"lat":-7.6609999999999996,"lon":108.227699},"country":"ID","_id":8020939,"name":"Jatiwangi"},{"coord":{"lat":-7.3784999999999998,"lon":108.258003},"country":"ID","_id":8045236,"name":"Jatiwangi"},{"coord":{"lat":-9.1830599999999993,"lon":-38.268889999999999},"country":"BR","_id":3392243,"name":"Jatoba"},{"coord":{"lat":29.516541,"lon":70.850318999999999},"country":"PK","_id":1176035,"name":"Jatoi Shimali"},{"coord":{"lat":-15.75,"lon":-71.346671999999998},"country":"PE","_id":3937765,"name":"Jatun Orcochiri"},{"coord":{"lat":26.883333,"lon":76.199996999999996},"country":"IN","_id":1269142,"name":"Jatwāra"},{"coord":{"lat":43.383330999999998,"lon":-1.43333},"country":"FR","_id":6440428,"name":"Jatxou"},{"coord":{"lat":43.388229000000003,"lon":-1.4315},"country":"FR","_id":3012438,"name":"Jatxou"},{"coord":{"lat":53.583302000000003,"lon":13.941700000000001},"country":"DE","_id":6548459,"name":"Jatznick"},{"coord":{"lat":53.599997999999999,"lon":13.93333},"country":"DE","_id":2895131,"name":"Jatznick"},{"coord":{"lat":-22.296391,"lon":-48.557780999999999},"country":"BR","_id":3460005,"name":"Jau"},{"coord":{"lat":45.416671999999998,"lon":-0.96667000000000003},"country":"FR","_id":6432256,"name":"Jau-Dignac-et-Loirac"},{"coord":{"lat":45.408180000000002,"lon":-0.95850999999999997},"country":"FR","_id":3012436,"name":"Jau-Dignac-et-Loirac"},{"coord":{"lat":17.96913,"lon":-66.365723000000003},"country":"PR","_id":4565676,"name":"Jauca"},{"coord":{"lat":32.289799000000002,"lon":72.281302999999994},"country":"PK","_id":1176022,"name":"Jauharabad"},{"coord":{"lat":-11.775840000000001,"lon":-75.496559000000005},"country":"PE","_id":3937733,"name":"Jauja"},{"coord":{"lat":37.302951999999998,"lon":-4.65564},"country":"ES","_id":2516343,"name":"Jauja"},{"coord":{"lat":44.635399,"lon":4.2572999999999999},"country":"FR","_id":3012431,"name":"Jaujac"},{"coord":{"lat":41.451981000000004,"lon":-0.99256},"country":"ES","_id":3120161,"name":"Jaulin"},{"coord":{"lat":41.429839999999999,"lon":-0.97541999999999995},"country":"ES","_id":6362820,"name":"Jaulín"},{"coord":{"lat":23.41667,"lon":-99.383330999999998},"country":"MX","_id":3526564,"name":"Jaumave"},{"coord":{"lat":46.605910999999999,"lon":7.2662100000000001},"country":"CH","_id":7286158,"name":"Jaun"},{"coord":{"lat":46.683331000000003,"lon":0.36667},"country":"FR","_id":6445266,"name":"Jaunay-Clan"},{"coord":{"lat":46.684520999999997,"lon":0.37128},"country":"FR","_id":3012417,"name":"Jaunay-Clan"},{"coord":{"lat":57.039101000000002,"lon":24.174129000000001},"country":"LV","_id":459419,"name":"Jaunciems"},{"coord":{"lat":56.964722000000002,"lon":23.75},"country":"LV","_id":459411,"name":"Jaundubulti"},{"coord":{"lat":56.616669000000002,"lon":25.08333},"country":"LV","_id":459402,"name":"Jaunjelgava"},{"coord":{"lat":56.514172000000002,"lon":25.295829999999999},"country":"LV","_id":7628333,"name":"Jaunjelgavas Novads"},{"coord":{"lat":57.183331000000003,"lon":26.049999},"country":"LV","_id":459359,"name":"Jaunpiebalga"},{"coord":{"lat":57.150002000000001,"lon":25.973610000000001},"country":"LV","_id":7628381,"name":"Jaunpiebalgas Novads"},{"coord":{"lat":56.732498,"lon":23.013611000000001},"country":"LV","_id":459357,"name":"Jaunpils"},{"coord":{"lat":25.733329999999999,"lon":82.683327000000006},"country":"IN","_id":1269135,"name":"Jaunpur"},{"coord":{"lat":32.831940000000003,"lon":74.576392999999996},"country":"IN","_id":1431732,"name":"Jaurian"},{"coord":{"lat":44.416671999999998,"lon":6.7333299999999996},"country":"FR","_id":6424403,"name":"Jausiers"},{"coord":{"lat":44.417048999999999,"lon":6.7294700000000001},"country":"FR","_id":3012406,"name":"Jausiers"},{"coord":{"lat":49.391201000000002,"lon":2.7780900000000002},"country":"FR","_id":3012404,"name":"Jaux"},{"coord":{"lat":4.5166700000000004,"lon":-74.433327000000006},"country":"CO","_id":3680349,"name":"Java"},{"coord":{"lat":42.399718999999997,"lon":43.936667999999997},"country":"GE","_id":614217,"name":"Java"},{"coord":{"lat":14.254899999999999,"lon":120.916618},"country":"PH","_id":1710249,"name":"Javalera"},{"coord":{"lat":34.796107999999997,"lon":46.517220000000002},"country":"IR","_id":130245,"name":"Javanrud"},{"coord":{"lat":49.150002000000001,"lon":112.73333},"country":"MN","_id":2030161,"name":"Javarthushuu"},{"coord":{"lat":45.283329000000002,"lon":3.48333},"country":"FR","_id":6434356,"name":"Javaugues"},{"coord":{"lat":45.28886,"lon":3.4812500000000002},"country":"FR","_id":3012401,"name":"Javaugues"},{"coord":{"lat":38.783329000000002,"lon":0.16667000000000001},"country":"ES","_id":2516336,"name":"Javea"},{"coord":{"lat":38.764389000000001,"lon":0.19166},"country":"ES","_id":6355458,"name":"Javea"},{"coord":{"lat":48.319327999999999,"lon":-1.2162999999999999},"country":"FR","_id":3012399,"name":"Javene"},{"coord":{"lat":52.533329000000002,"lon":11.5},"country":"DE","_id":2895117,"name":"Javenitz"},{"coord":{"lat":45.566668999999997,"lon":0.56667000000000001},"country":"FR","_id":6429404,"name":"Javerlhac-et-la-Chapelle-Saint-Robert"},{"coord":{"lat":45.569729000000002,"lon":0.56088000000000005},"country":"FR","_id":3012396,"name":"Javerlhac-et-la-Chapelle-Saint-Robert"},{"coord":{"lat":48.801890999999998,"lon":105.924004},"country":"MN","_id":2030159,"name":"Javhlant"},{"coord":{"lat":47.783329000000002,"lon":112.116669},"country":"MN","_id":2032491,"name":"Javhlant"},{"coord":{"lat":42.539791000000001,"lon":-1.26179},"country":"ES","_id":6359683,"name":"Javier"},{"coord":{"lat":42.591189999999997,"lon":-1.2088399999999999},"country":"ES","_id":3120154,"name":"Javier"},{"coord":{"lat":8.4888899999999996,"lon":126.084999},"country":"PH","_id":1710247,"name":"Javier"},{"coord":{"lat":50.390770000000003,"lon":17.00272},"country":"CZ","_id":3074398,"name":"Javornik"},{"coord":{"lat":33.665450999999997,"lon":56.855750999999998},"country":"IR","_id":130261,"name":"Javādīyeh"},{"coord":{"lat":-8.5619999999999994,"lon":120.6371},"country":"ID","_id":7089118,"name":"Jawa"},{"coord":{"lat":31.85247,"lon":35.939281000000001},"country":"JO","_id":248843,"name":"Jawa"},{"coord":{"lat":24.600000000000001,"lon":74.849997999999999},"country":"IN","_id":1269126,"name":"Jawad"},{"coord":{"lat":-8.7681000000000004,"lon":121.236603},"country":"ID","_id":7570046,"name":"Jawagae"},{"coord":{"lat":28.683332,"lon":77.199996999999996},"country":"IN","_id":1269125,"name":"Jawaharnagar"},{"coord":{"lat":-8.6603999999999992,"lon":121.22380099999999},"country":"ID","_id":7415125,"name":"Jawakisa"},{"coord":{"lat":31.883329,"lon":76.316672999999994},"country":"IN","_id":1269119,"name":"Jawala Mukhi"},{"coord":{"lat":35.063609999999997,"lon":64.149169999999998},"country":"AF","_id":1139335,"name":"Jawand"},{"coord":{"lat":23,"lon":76.5},"country":"IN","_id":1269110,"name":"Jawar"},{"coord":{"lat":-8.7073,"lon":121.28089900000001},"country":"ID","_id":7089402,"name":"Jawatiwa"},{"coord":{"lat":36.616669000000002,"lon":37.450001},"country":"SY","_id":169138,"name":"Jawban Bak"},{"coord":{"lat":13.83783,"lon":45.834881000000003},"country":"YE","_id":74219,"name":"Jawf al Maqbabah"},{"coord":{"lat":2.7808700000000002,"lon":45.500481000000001},"country":"SO","_id":56335,"name":"Jawhar"},{"coord":{"lat":19.91667,"lon":73.233329999999995},"country":"IN","_id":1269106,"name":"Jawhar"},{"coord":{"lat":14.932779999999999,"lon":47.027630000000002},"country":"YE","_id":7931039,"name":"Jawl al Majma"},{"coord":{"lat":27.666668000000001,"lon":85.316665999999998},"country":"NP","_id":1283312,"name":"Jawlakhel"},{"coord":{"lat":51.067599999999999,"lon":16.184999000000001},"country":"PL","_id":7532658,"name":"Jawor"},{"coord":{"lat":51.051318999999999,"lon":16.193470000000001},"country":"PL","_id":3097367,"name":"Jawor"},{"coord":{"lat":49.846401,"lon":21.894038999999999},"country":"PL","_id":770225,"name":"Jawornik"},{"coord":{"lat":49.855801,"lon":19.893149999999999},"country":"PL","_id":3097355,"name":"Jawornik"},{"coord":{"lat":49.890819999999998,"lon":22.288678999999998},"country":"PL","_id":770221,"name":"Jawornik Polski"},{"coord":{"lat":49.763900999999997,"lon":18.908701000000001},"country":"PL","_id":7531843,"name":"Jaworze"},{"coord":{"lat":49.793509999999998,"lon":18.947901000000002},"country":"PL","_id":3097339,"name":"Jaworze"},{"coord":{"lat":50.189140000000002,"lon":19.301331000000001},"country":"PL","_id":7530817,"name":"Jaworzno"},{"coord":{"lat":50.189098000000001,"lon":19.301300000000001},"country":"PL","_id":7531790,"name":"Jaworzno"},{"coord":{"lat":50.205280000000002,"lon":19.274981},"country":"PL","_id":3097333,"name":"Jaworzno"},{"coord":{"lat":50.913398999999998,"lon":16.432409},"country":"PL","_id":3097328,"name":"Jaworzyna Slaska"},{"coord":{"lat":49.540191999999998,"lon":18.869961},"country":"PL","_id":3097327,"name":"Jaworzynka"},{"coord":{"lat":44.947552000000002,"lon":-72.437049999999999},"country":"US","_id":5237445,"name":"Jay"},{"coord":{"lat":36.421188000000001,"lon":-94.796897999999999},"country":"US","_id":4539557,"name":"Jay"},{"coord":{"lat":44.503948000000001,"lon":-70.216171000000003},"country":"US","_id":4968234,"name":"Jay"},{"coord":{"lat":-7.4527999999999999,"lon":107.88490299999999},"country":"ID","_id":7915023,"name":"Jayabakti"},{"coord":{"lat":11.216670000000001,"lon":79.366669000000002},"country":"IN","_id":1269102,"name":"Jayamkondacholapuram"},{"coord":{"lat":-6.3908300000000002,"lon":-79.821938000000003},"country":"PE","_id":3696104,"name":"Jayanca"},{"coord":{"lat":-2.5333299999999999,"lon":140.699997},"country":"ID","_id":2082600,"name":"Jayapura"},{"coord":{"lat":-7.3520000000000003,"lon":108.03220399999999},"country":"ID","_id":8017911,"name":"Jayapura"},{"coord":{"lat":13.67333,"lon":-89.439719999999994},"country":"SV","_id":3585455,"name":"Jayaque"},{"coord":{"lat":-7.2042999999999999,"lon":107.900398},"country":"ID","_id":7920440,"name":"Jayaraga Kaler"},{"coord":{"lat":-7.5380000000000003,"lon":108.34880099999999},"country":"ID","_id":8045094,"name":"Jayasari"},{"coord":{"lat":-7.4592000000000001,"lon":108.273499},"country":"ID","_id":8045528,"name":"Jayawangi"},{"coord":{"lat":36.936909,"lon":-3.79427},"country":"ES","_id":6357724,"name":"Jayena"},{"coord":{"lat":36.949199999999998,"lon":-3.8231299999999999},"country":"ES","_id":2516334,"name":"Jayena"},{"coord":{"lat":23.683330999999999,"lon":86.983329999999995},"country":"IN","_id":1269096,"name":"Jaykaynagar"},{"coord":{"lat":26.58333,"lon":86.150002000000001},"country":"IN","_id":1269093,"name":"Jaynagar"},{"coord":{"lat":22.175830999999999,"lon":88.417777999999998},"country":"IN","_id":1269094,"name":"Jaynagar-Majilpur"},{"coord":{"lat":-14.09417,"lon":-71.338607999999994},"country":"PE","_id":3953711,"name":"Jayobamba"},{"coord":{"lat":18.850000000000001,"lon":82.583327999999995},"country":"IN","_id":1269092,"name":"Jaypur"},{"coord":{"lat":33.807400000000001,"lon":36.740360000000003},"country":"SY","_id":169113,"name":"Jayrud"},{"coord":{"lat":33.248150000000003,"lon":-100.57373},"country":"US","_id":5523963,"name":"Jayton"},{"coord":{"lat":11.050000000000001,"lon":122.383331},"country":"PH","_id":1710235,"name":"Jayubo"},{"coord":{"lat":-15.563330000000001,"lon":-71.303061999999997},"country":"PE","_id":3951767,"name":"Jayune"},{"coord":{"lat":18.218571000000001,"lon":-66.591560000000001},"country":"PR","_id":4565679,"name":"Jayuya"},{"coord":{"lat":32.201248,"lon":35.034160999999997},"country":"PS","_id":283469,"name":"Jayyus"},{"coord":{"lat":41.240841000000003,"lon":-8.0517500000000002},"country":"PT","_id":8012644,"name":"Jazente"},{"coord":{"lat":41.245029000000002,"lon":-8.0513499999999993},"country":"PT","_id":2738663,"name":"Jazente"},{"coord":{"lat":45.902500000000003,"lon":20.216391000000002},"country":"RS","_id":789828,"name":"Jazovo"},{"coord":{"lat":37.825851,"lon":-3.7331599999999998},"country":"ES","_id":6358500,"name":"Jaén"},{"coord":{"lat":42.164439999999999,"lon":21.176109},"country":"MK","_id":789830,"name":"Jažince"},{"coord":{"lat":29.525998999999999,"lon":52.590800999999999},"country":"IR","_id":390237,"name":"Ja‘farābād-e Now"},{"coord":{"lat":34.121108999999997,"lon":35.648060000000001},"country":"LB","_id":273203,"name":"Jbail"},