[{"coord":{"lat":41.133330999999998,"lon":0.91666999999999998},"country":"ES","_id":3129609,"name":"l' Argentera"},{"coord":{"lat":46.635620000000003,"lon":6.3026600000000004},"country":"CH","_id":7287676,"name":"L'Abbaye"},{"coord":{"lat":50.395930999999997,"lon":3.8668399999999998},"country":"BE","_id":2793529,"name":"L'aisette"},{"coord":{"lat":38.579707999999997,"lon":-0.10265000000000001},"country":"ES","_id":6355387,"name":"l'Alfàs del Pi"},{"coord":{"lat":48.016669999999998,"lon":1.2166699999999999},"country":"FR","_id":3008452,"name":"L'Allier"},{"coord":{"lat":40.896278000000002,"lon":0.79242000000000001},"country":"ES","_id":6361256,"name":"l'Ametlla de Mar"},{"coord":{"lat":41.678631000000003,"lon":2.2507199999999998},"country":"ES","_id":6356043,"name":"l'Ametlla del Vallès"},{"coord":{"lat":40.830199999999998,"lon":0.69306000000000001},"country":"ES","_id":6361426,"name":"l'Ampolla"},{"coord":{"lat":46.408389999999997,"lon":-74.870956000000007},"country":"CA","_id":6049524,"name":"L'Annonciation"},{"coord":{"lat":51.516800000000003,"lon":-56.831389999999999},"country":"CA","_id":6049580,"name":"L'Anse-au-Loup"},{"coord":{"lat":42.36504,"lon":13.39349},"country":"IT","_id":6541999,"name":"L'Aquila"},{"coord":{"lat":41.266669999999998,"lon":1.6000000000000001},"country":"ES","_id":3129793,"name":"L'Arboç"},{"coord":{"lat":41.134579000000002,"lon":0.90497000000000005},"country":"ES","_id":6361260,"name":"l'Argentera"},{"coord":{"lat":45.390720000000002,"lon":2.9950000000000001},"country":"FR","_id":3006952,"name":"L'Argillier"},{"coord":{"lat":48.700088999999998,"lon":-71.682404000000005},"country":"CA","_id":6050215,"name":"L'Ascension-de-Notre-Seigneur"},{"coord":{"lat":50.505401999999997,"lon":4.33873},"country":"BE","_id":2793212,"name":"L'Aulnois"},{"coord":{"lat":48.732658000000001,"lon":0.37585000000000002},"country":"FR","_id":3006023,"name":"L'Aunay"},{"coord":{"lat":45.883330999999998,"lon":2.51667},"country":"FR","_id":3004582,"name":"L'Eclause"},{"coord":{"lat":-21.233329999999999,"lon":55.466670999999998},"country":"RE","_id":6690287,"name":"L'Entre-Deux"},{"coord":{"lat":42.122478000000001,"lon":3.1317900000000001},"country":"ES","_id":6534053,"name":"l'Escala"},{"coord":{"lat":46.416671999999998,"lon":7.1500000000000004},"country":"CH","_id":2659972,"name":"L'Etivaz"},{"coord":{"lat":49.484718000000001,"lon":0.13472000000000001},"country":"FR","_id":3231369,"name":"L'Eure"},{"coord":{"lat":48.783329000000002,"lon":2.3333300000000001},"country":"FR","_id":6614252,"name":"L'Haÿ-les-Roses"},{"coord":{"lat":44.692242,"lon":-1.23637},"country":"FR","_id":2998628,"name":"L'Herbe"},{"coord":{"lat":48.283329000000002,"lon":0.65000000000000002},"country":"FR","_id":6615036,"name":"L'Hermitière"},{"coord":{"lat":48.281879000000004,"lon":0.64487000000000005},"country":"FR","_id":2998605,"name":"L'Hermitière"},{"coord":{"lat":41.365780000000001,"lon":2.11172},"country":"ES","_id":6356131,"name":"l'Hospitalet de Llobregat"},{"coord":{"lat":42.589142000000002,"lon":1.79931},"country":"FR","_id":2998554,"name":"L'Hospitalet-près-l'Andorre"},{"coord":{"lat":42.590698000000003,"lon":1.8035000000000001},"country":"FR","_id":6618222,"name":"L'Hospitalet-près-l'Andorre"},{"coord":{"lat":48.583328000000002,"lon":0.71667000000000003},"country":"FR","_id":6614339,"name":"L'Hôme-Chamondot"},{"coord":{"lat":48.587798999999997,"lon":0.71238999999999997},"country":"FR","_id":2998597,"name":"L'Hôme-Chamondot"},{"coord":{"lat":45.190769000000003,"lon":0.44319999999999998},"country":"FR","_id":2998583,"name":"L'Hôpital"},{"coord":{"lat":49.133330999999998,"lon":0.40000000000000002},"country":"FR","_id":6614950,"name":"L'Hôtellerie"},{"coord":{"lat":49.142021,"lon":0.40839999999999999},"country":"FR","_id":2998551,"name":"L'Hôtellerie"},{"coord":{"lat":46.621200999999999,"lon":6.3843300000000003},"country":"CH","_id":7287677,"name":"L'Isle"},{"coord":{"lat":46.618439000000002,"lon":6.4132699999999998},"country":"CH","_id":2659874,"name":"L'Isle"},{"coord":{"lat":43.916671999999998,"lon":5.0499999999999998},"country":"FR","_id":6614369,"name":"L'Isle-sur-la-Sorgue"},{"coord":{"lat":48.013469999999998,"lon":-69.340637000000001},"country":"CA","_id":6325526,"name":"L'Isle-Verte"},{"coord":{"lat":47.103081000000003,"lon":-70.350219999999993},"country":"CA","_id":6325523,"name":"L'Islet"},{"coord":{"lat":47.122478000000001,"lon":-70.374640999999997},"country":"CA","_id":6941419,"name":"L'Islet-sur-Mer"},{"coord":{"lat":33.554271999999997,"lon":-7.6410799999999997},"country":"MA","_id":2543342,"name":"L'Oasis"},{"coord":{"lat":50.383330999999998,"lon":5.2833300000000003},"country":"BE","_id":2792243,"name":"L'Obélisque"},{"coord":{"lat":50.468390999999997,"lon":4.2486800000000002},"country":"BE","_id":2792189,"name":"L'Olive"},{"coord":{"lat":46.601452000000002,"lon":6.23942},"country":"CH","_id":6619276,"name":"L'Orient"},{"coord":{"lat":48.483330000000002,"lon":0.34999999999999998},"country":"FR","_id":2997561,"name":"L'Ormeau"},{"coord":{"lat":48.975299999999997,"lon":0.037699999999999997},"country":"FR","_id":6615922,"name":"L'Oudon"},{"coord":{"lat":48.997059,"lon":0.0096600000000000002},"country":"FR","_id":6620042,"name":"L'Oudon"},{"coord":{"lat":48.468311,"lon":-0.81093000000000004},"country":"FR","_id":6615244,"name":"L'Épinay-le-Comte"},{"coord":{"lat":48.468311,"lon":-0.81093000000000004},"country":"FR","_id":3002793,"name":"L'Épinay-le-Comte"},{"coord":{"lat":-21.25,"lon":55.383330999999998},"country":"RE","_id":6690288,"name":"L'Étang-Salé"},{"coord":{"lat":-21.25,"lon":55.383330999999998},"country":"RE","_id":935902,"name":"L'Étang-Salé"},{"coord":{"lat":35.904139999999998,"lon":14.45415},"country":"MT","_id":2562800,"name":"L-Iklin"},{"coord":{"lat":43.314658999999999,"lon":-3.8548},"country":"ES","_id":3120049,"name":"La Abadilla"},{"coord":{"lat":40.299529999999997,"lon":-4.6358800000000002},"country":"ES","_id":3120038,"name":"La Adrada"},{"coord":{"lat":40.011989999999997,"lon":-3.7925499999999999},"country":"ES","_id":3120031,"name":"La Alameda de la Sagra"},{"coord":{"lat":40.450001,"lon":-3.5833300000000001},"country":"ES","_id":3120030,"name":"La Alameda de Osuna"},{"coord":{"lat":19.233329999999999,"lon":-103.716667},"country":"MX","_id":4003626,"name":"La Albarrada"},{"coord":{"lat":37.939757999999998,"lon":-1.1416200000000001},"country":"ES","_id":2516231,"name":"La Alberca"},{"coord":{"lat":40.489078999999997,"lon":-6.1110699999999998},"country":"ES","_id":3120027,"name":"La Alberca"},{"coord":{"lat":39.514580000000002,"lon":-2.4927199999999998},"country":"ES","_id":2516230,"name":"La Alberca de Zancara"},{"coord":{"lat":38.717789000000003,"lon":-6.8232600000000003},"country":"ES","_id":2516228,"name":"La Albuera"},{"coord":{"lat":20.899999999999999,"lon":-101.48333},"country":"MX","_id":4003618,"name":"La Aldea"},{"coord":{"lat":42.895919999999997,"lon":-3.53226},"country":"ES","_id":3120022,"name":"La Aldea"},{"coord":{"lat":40.299239999999998,"lon":-3.5935999999999999},"country":"ES","_id":3120019,"name":"La Aldehuela"},{"coord":{"lat":37.353377999999999,"lon":-2.0407999999999999},"country":"ES","_id":7114175,"name":"La Alfoquia"},{"coord":{"lat":37.463669000000003,"lon":-6.0129400000000004},"country":"ES","_id":2516217,"name":"La Algaba"},{"coord":{"lat":18.397449000000002,"lon":-66.602401999999998},"country":"PR","_id":4565731,"name":"La Alianza"},{"coord":{"lat":41.476700000000001,"lon":-1.3745099999999999},"country":"ES","_id":3120012,"name":"La Almunia de Dona Godina"},{"coord":{"lat":-34.262718,"lon":-60.969200000000001},"country":"AR","_id":3852815,"name":"La Angelita"},{"coord":{"lat":2.19611,"lon":-75.980002999999996},"country":"CO","_id":3792743,"name":"La Argentina"},{"coord":{"lat":11.033329999999999,"lon":-63.862782000000003},"country":"VE","_id":3480908,"name":"La Asuncion"},{"coord":{"lat":9.9796099999999992,"lon":-84.172813000000005},"country":"CR","_id":3623287,"name":"La Asuncion"},{"coord":{"lat":37.239421999999998,"lon":-6.00936},"country":"ES","_id":2516188,"name":"La Atalaya"},{"coord":{"lat":20.91667,"lon":-100.73333},"country":"MX","_id":4003573,"name":"La Aurora"},{"coord":{"lat":14.58333,"lon":-90.5},"country":"GT","_id":3595030,"name":"La Aurora"},{"coord":{"lat":37.554310000000001,"lon":-1.1697},"country":"ES","_id":2516182,"name":"La Azohía"},{"coord":{"lat":8.7131399999999992,"lon":-71.444168000000005},"country":"VE","_id":3638904,"name":"La Azulita"},{"coord":{"lat":48.650002000000001,"lon":0.48332999999999998},"country":"FR","_id":3011405,"name":"La Bachelerie"},{"coord":{"lat":45.145802000000003,"lon":1.1546000000000001},"country":"FR","_id":6616144,"name":"La Bachellerie"},{"coord":{"lat":45.146259000000001,"lon":1.1544399999999999},"country":"FR","_id":3011404,"name":"La Bachellerie"},{"coord":{"lat":48.180118999999998,"lon":-0.89202000000000004},"country":"FR","_id":3011402,"name":"La Baconniere"},{"coord":{"lat":48.339821000000001,"lon":-70.889281999999994},"country":"CA","_id":6621036,"name":"La Baie"},{"coord":{"lat":45.961101999999997,"lon":6.04251},"country":"FR","_id":3011386,"name":"La Balme-de-Sillingy"},{"coord":{"lat":-27.73348,"lon":-64.242783000000003},"country":"AR","_id":3852629,"name":"La Banda"},{"coord":{"lat":42.300258999999997,"lon":-5.8977199999999996},"country":"ES","_id":3119979,"name":"La Baneza"},{"coord":{"lat":45.283329000000002,"lon":3.7166700000000001},"country":"FR","_id":3011372,"name":"La Baraque"},{"coord":{"lat":20.283331,"lon":-102.56667299999999},"country":"MX","_id":4003526,"name":"La Barca"},{"coord":{"lat":47.413502000000001,"lon":7.2006899999999998},"country":"CH","_id":7286236,"name":"La Baroche"},{"coord":{"lat":40.166167999999999,"lon":-0.063670000000000004},"country":"ES","_id":3119972,"name":"La Barona"},{"coord":{"lat":41.934398999999999,"lon":1.18712},"country":"ES","_id":6358799,"name":"la Baronia de Rialb"},{"coord":{"lat":8.3000000000000007,"lon":-82.566672999999994},"country":"PA","_id":3708134,"name":"La Barqueta"},{"coord":{"lat":37.632229000000002,"lon":-0.69530999999999998},"country":"ES","_id":2516169,"name":"La Barra"},{"coord":{"lat":-34.366669000000002,"lon":-53.766669999999998},"country":"UY","_id":3442163,"name":"La Barra"},{"coord":{"lat":19.200001,"lon":-104.68332700000001},"country":"MX","_id":4003520,"name":"La Barra de Navidad"},{"coord":{"lat":-17.75,"lon":-62.983330000000002},"country":"BO","_id":3912423,"name":"La Barraca"},{"coord":{"lat":46.880580999999999,"lon":-2.12168},"country":"FR","_id":3011332,"name":"La Barre-de-Monts"},{"coord":{"lat":43.081229999999998,"lon":0.38438},"country":"FR","_id":3011315,"name":"La Barthe-de-Neste"},{"coord":{"lat":50.534241000000002,"lon":2.8062},"country":"FR","_id":3011307,"name":"La Bassee"},{"coord":{"lat":43.787070999999997,"lon":5.6346800000000004},"country":"FR","_id":3011268,"name":"La Bastide-des-Jourdans"},{"coord":{"lat":45.628132000000001,"lon":6.45106},"country":"FR","_id":3011234,"name":"La Bathie"},{"coord":{"lat":45.237609999999997,"lon":4.2474999999999996},"country":"FR","_id":7645419,"name":"La Batie"},{"coord":{"lat":45.578079000000002,"lon":5.53024},"country":"FR","_id":3011220,"name":"La Batie-Montgascon"},{"coord":{"lat":44.566668999999997,"lon":6.2000000000000002},"country":"FR","_id":3011218,"name":"La Batie-Neuve"},{"coord":{"lat":14.633330000000001,"lon":-61.133330999999998},"country":"MQ","_id":3570550,"name":"La Batterie"},{"coord":{"lat":47.285998999999997,"lon":-2.3914},"country":"FR","_id":6456916,"name":"La Baule-Escoublac"},{"coord":{"lat":47.292209999999997,"lon":-2.36395},"country":"FR","_id":3019766,"name":"La Baule-Escoublac"},{"coord":{"lat":48.139857999999997,"lon":0.98163},"country":"FR","_id":3011188,"name":"La Bazoche-Gouet"},{"coord":{"lat":48.096888999999997,"lon":0.15534000000000001},"country":"FR","_id":3011187,"name":"La Bazoge"},{"coord":{"lat":41.498932000000003,"lon":1.83769},"country":"ES","_id":3119959,"name":"La Beguda Alta"},{"coord":{"lat":44.545731000000004,"lon":4.9360799999999996},"country":"FR","_id":3011150,"name":"La Begude-de-Mazenc"},{"coord":{"lat":-17.549999,"lon":-63.216670999999998},"country":"BO","_id":3912418,"name":"La Belgica"},{"coord":{"lat":5.7908299999999997,"lon":-73.848892000000006},"country":"CO","_id":3776586,"name":"La Belleza"},{"coord":{"lat":5.8637100000000002,"lon":-73.961669999999998},"country":"CO","_id":3679776,"name":"La Belleza"},{"coord":{"lat":48.633330999999998,"lon":-0.033329999999999999},"country":"FR","_id":6614673,"name":"La Bellière"},{"coord":{"lat":48.625351000000002,"lon":-0.032759999999999997},"country":"FR","_id":3011129,"name":"La Bellière"},{"coord":{"lat":45.583328000000002,"lon":3.7999999999999998},"country":"FR","_id":3011095,"name":"La Bernardie"},{"coord":{"lat":47.049518999999997,"lon":-1.2658700000000001},"country":"FR","_id":3011093,"name":"La Bernardiere"},{"coord":{"lat":47.080399,"lon":-2.0364200000000001},"country":"FR","_id":3011090,"name":"La Bernerie-en-Retz"},{"coord":{"lat":14.466670000000001,"lon":-60.866669000000002},"country":"MQ","_id":3570547,"name":"La Berry"},{"coord":{"lat":45.759158999999997,"lon":5.9306999999999999},"country":"FR","_id":3011031,"name":"La Biolle"},{"coord":{"lat":41.951259999999998,"lon":3.04209},"country":"ES","_id":6534020,"name":"la Bisbal d'Empordà"},{"coord":{"lat":41.283329000000002,"lon":1.48333},"country":"ES","_id":3128005,"name":"la Bisbal del Penedes"},{"coord":{"lat":41.279598,"lon":1.4793000000000001},"country":"ES","_id":6361271,"name":"la Bisbal del Penedès"},{"coord":{"lat":41.950001,"lon":3.0499999999999998},"country":"ES","_id":3119952,"name":"la Bisbal dEmporda"},{"coord":{"lat":26.292850000000001,"lon":-98.037780999999995},"country":"US","_id":4703882,"name":"La Blanca"},{"coord":{"lat":48.866669000000002,"lon":-1.23333},"country":"FR","_id":6456960,"name":"La Bloutière"},{"coord":{"lat":48.874279000000001,"lon":-1.23821},"country":"FR","_id":3011012,"name":"La Bloutière"},{"coord":{"lat":37.659999999999997,"lon":-4.1065500000000004},"country":"ES","_id":2516163,"name":"La Bobadilla"},{"coord":{"lat":8.9499999999999993,"lon":-79.566672999999994},"country":"PA","_id":3708111,"name":"La Boca"},{"coord":{"lat":40.239910000000002,"lon":-0.070660000000000001},"country":"ES","_id":3119950,"name":"La Bodega"},{"coord":{"lat":47.420952,"lon":-0.39723000000000003},"country":"FR","_id":3011010,"name":"La Bohalle"},{"coord":{"lat":45.842781000000002,"lon":5.0363899999999999},"country":"FR","_id":3011008,"name":"La Boisse"},{"coord":{"lat":46.950119000000001,"lon":-1.1904699999999999},"country":"FR","_id":3010990,"name":"La Boissiere-de-Montaigu"},{"coord":{"lat":46.563980000000001,"lon":-1.4617199999999999},"country":"FR","_id":3010989,"name":"La Boissiere-des-Landes"},{"coord":{"lat":45.165759999999999,"lon":2.8950999999999998},"country":"FR","_id":3010982,"name":"La Boissonnière"},{"coord":{"lat":-26.950001,"lon":-65.300003000000004},"country":"AR","_id":3852490,"name":"La Bolsa"},{"coord":{"lat":19.04167,"lon":-96.622223000000005},"country":"MX","_id":3823576,"name":"La Bomba"},{"coord":{"lat":48.183331000000003,"lon":-1.43333},"country":"FR","_id":3010911,"name":"La Bouexiere"},{"coord":{"lat":43.396191000000002,"lon":5.59307},"country":"FR","_id":3010905,"name":"La Bouilladisse"},{"coord":{"lat":48.677509000000001,"lon":-1.21166},"country":"FR","_id":3010885,"name":"La Boulouze"},{"coord":{"lat":45.583328000000002,"lon":2.75},"country":"FR","_id":6457006,"name":"La Bourboule"},{"coord":{"lat":45.588371000000002,"lon":2.73956},"country":"FR","_id":3010882,"name":"La Bourboule"},{"coord":{"lat":45.375400999999997,"lon":1.14567},"country":"FR","_id":3010880,"name":"La Bourdaleychie"},{"coord":{"lat":48.512599999999999,"lon":-1.6608799999999999},"country":"FR","_id":3010854,"name":"La Boussac"},{"coord":{"lat":46.465420000000002,"lon":2.4273400000000001},"country":"FR","_id":3010849,"name":"La Boutellière"},{"coord":{"lat":49.966591000000001,"lon":4.3606699999999998},"country":"BE","_id":2793748,"name":"La Bouverie"},{"coord":{"lat":40.836207999999999,"lon":-6.7954699999999999},"country":"ES","_id":6360310,"name":"La Bouza"},{"coord":{"lat":40.836261999999998,"lon":-6.7955100000000002},"country":"ES","_id":3119941,"name":"La Bouza"},{"coord":{"lat":15.800000000000001,"lon":-85.966667000000001},"country":"HN","_id":3608377,"name":"La Brea"},{"coord":{"lat":-4.2608300000000003,"lon":-80.887496999999996},"country":"PE","_id":3814568,"name":"La Breita"},{"coord":{"lat":47.999741,"lon":6.8649899999999997},"country":"FR","_id":3010815,"name":"La Bresse"},{"coord":{"lat":50.421008999999998,"lon":4.3609999999999998},"country":"BE","_id":2793741,"name":"La Bretagne"},{"coord":{"lat":45.265320000000003,"lon":3.95004},"country":"FR","_id":3010798,"name":"La Breure"},{"coord":{"lat":45.525039999999997,"lon":5.7407300000000001},"country":"FR","_id":3010791,"name":"La Bridoire"},{"coord":{"lat":48.47298,"lon":7.2163899999999996},"country":"FR","_id":3010778,"name":"La Broque"},{"coord":{"lat":45.101500999999999,"lon":0.67303000000000002},"country":"FR","_id":3010738,"name":"La Brousse"},{"coord":{"lat":47.014918999999999,"lon":-1.1973},"country":"FR","_id":3010726,"name":"La Bruffiere"},{"coord":{"lat":44.821418999999999,"lon":3.9306000000000001},"country":"FR","_id":3010724,"name":"La Brugère"},{"coord":{"lat":48.393841000000002,"lon":0.90896999999999994},"country":"FR","_id":3010718,"name":"La Brulardière"},{"coord":{"lat":50.394779,"lon":4.6144400000000001},"country":"BE","_id":2793733,"name":"La Bruyere"},{"coord":{"lat":46.968201000000001,"lon":6.5827900000000001},"country":"CH","_id":7286237,"name":"La Brévine"},{"coord":{"lat":46.980549000000003,"lon":6.6063900000000002},"country":"CH","_id":2660078,"name":"La Brévine"},{"coord":{"lat":-31.171129000000001,"lon":-63.606361},"country":"AR","_id":3852428,"name":"La Buena Parada"},{"coord":{"lat":45.3354,"lon":5.6228199999999999},"country":"FR","_id":3010685,"name":"La Buisse"},{"coord":{"lat":8.4561109999999999,"lon":-71.508330999999998},"country":"VE","_id":3798900,"name":"La Burrera"},{"coord":{"lat":14.06667,"lon":-87.216667000000001},"country":"HN","_id":3608367,"name":"La Burrera"},{"coord":{"lat":-20.932279999999999,"lon":55.291580000000003},"country":"RE","_id":935737,"name":"La Butte"},{"coord":{"lat":44.733330000000002,"lon":1.2},"country":"FR","_id":3011153,"name":"La Bégonie"},{"coord":{"lat":42.436191999999998,"lon":0.30292999999999998},"country":"ES","_id":3119919,"name":"La Cabezonada"},{"coord":{"lat":9.1333300000000008,"lon":-79.533332999999999},"country":"PA","_id":3708066,"name":"La Cabima"},{"coord":{"lat":40.863861,"lon":-3.6126499999999999},"country":"ES","_id":3119918,"name":"La Cabrera"},{"coord":{"lat":9.9666700000000006,"lon":-84.116669000000002},"country":"CR","_id":3623279,"name":"La Caja"},{"coord":{"lat":42.349997999999999,"lon":-7.25},"country":"ES","_id":3119914,"name":"La Cal"},{"coord":{"lat":50.718910000000001,"lon":6.0131300000000003},"country":"BE","_id":2793723,"name":"La Calamine"},{"coord":{"lat":50.718089999999997,"lon":6.0110700000000001},"country":"BE","_id":2793722,"name":"La Calamine"},{"coord":{"lat":20.783331,"lon":-101.31667299999999},"country":"MX","_id":4003270,"name":"La Calera"},{"coord":{"lat":20.200001,"lon":-104.199997},"country":"MX","_id":4003273,"name":"La Calera"},{"coord":{"lat":-20.366671,"lon":-69.383330999999998},"country":"CL","_id":3886406,"name":"La Calera"},{"coord":{"lat":-31.343769000000002,"lon":-64.335289000000003},"country":"AR","_id":3852374,"name":"La Calera"},{"coord":{"lat":4.3833299999999999,"lon":-73.983329999999995},"country":"CO","_id":3679661,"name":"La Calera"},{"coord":{"lat":4.7206900000000003,"lon":-73.969261000000003},"country":"CO","_id":3679660,"name":"La Calera"},{"coord":{"lat":43.922829,"lon":4.2661699999999998},"country":"FR","_id":3010634,"name":"La Calmette"},{"coord":{"lat":43.533329000000002,"lon":-5.7000000000000002},"country":"ES","_id":3119910,"name":"La Calzada"},{"coord":{"lat":43.538609000000001,"lon":-5.6924999999999999},"country":"ES","_id":3212154,"name":"La Calzada"},{"coord":{"lat":38.703387999999997,"lon":-3.7756099999999999},"country":"ES","_id":2516122,"name":"La Calzada de Calatrava"},{"coord":{"lat":49.349997999999999,"lon":-1},"country":"FR","_id":6455551,"name":"La Cambe"},{"coord":{"lat":49.343471999999998,"lon":-1.0058400000000001},"country":"FR","_id":3010631,"name":"La Cambe"},{"coord":{"lat":37.568908999999998,"lon":-5.4267000000000003},"country":"ES","_id":2516118,"name":"La Campana"},{"coord":{"lat":20.616671,"lon":-100.31667299999999},"country":"MX","_id":4003211,"name":"La Canada"},{"coord":{"lat":34.199168999999998,"lon":-118.18785099999999},"country":"US","_id":5363859,"name":"La Canada Flintridge"},{"coord":{"lat":19.473410000000001,"lon":-70.816292000000004},"country":"DO","_id":3503338,"name":"La Canela"},{"coord":{"lat":41.121101000000003,"lon":1.18065},"country":"ES","_id":3119889,"name":"La Canonja"},{"coord":{"lat":44.431331999999998,"lon":3.21584},"country":"FR","_id":3010619,"name":"La Canourgue"},{"coord":{"lat":44.866669000000002,"lon":1.25},"country":"FR","_id":3010620,"name":"La Canéda"},{"coord":{"lat":49.966670999999998,"lon":3.9166699999999999},"country":"FR","_id":3010609,"name":"La Capelle"},{"coord":{"lat":50.733021000000001,"lon":1.70147},"country":"FR","_id":3010607,"name":"La Capelle-les-Boulogne"},{"coord":{"lat":5.7049300000000001,"lon":-73.475273000000001},"country":"CO","_id":3679622,"name":"La Capilla"},{"coord":{"lat":46.236229000000002,"lon":6.2049799999999999},"country":"CH","_id":7669680,"name":"La Capite"},{"coord":{"lat":42.516669999999998,"lon":11.466670000000001},"country":"IT","_id":3175350,"name":"La Capriola"},{"coord":{"lat":7.5133330000000003,"lon":-61.907223000000002},"country":"VE","_id":3807442,"name":"La Caratica"},{"coord":{"lat":10.466670000000001,"lon":-66.533332999999999},"country":"VE","_id":3638649,"name":"La Carbonera"},{"coord":{"lat":37.673591999999999,"lon":-4.9312199999999997},"country":"ES","_id":2516089,"name":"La Carlota"},{"coord":{"lat":-33.419930000000001,"lon":-63.297691},"country":"AR","_id":3852279,"name":"La Carlota"},{"coord":{"lat":10.42333,"lon":122.92083},"country":"PH","_id":1708226,"name":"La Carlota"},{"coord":{"lat":10.41667,"lon":122.91667200000001},"country":"PH","_id":1708224,"name":"La Carlota City"},{"coord":{"lat":48.783329000000002,"lon":-0.45000000000000001},"country":"FR","_id":6456997,"name":"La Carneille"},{"coord":{"lat":48.783329000000002,"lon":-0.45000000000000001},"country":"FR","_id":3010596,"name":"La Carneille"},{"coord":{"lat":38.275588999999997,"lon":-3.6153400000000002},"country":"ES","_id":2516088,"name":"La Carolina"},{"coord":{"lat":40.354519000000003,"lon":-5.5621400000000003},"country":"ES","_id":6355659,"name":"La Carrera"},{"coord":{"lat":40.347771000000002,"lon":-5.5547399999999998},"country":"ES","_id":3119884,"name":"La Carrera"},{"coord":{"lat":42.516669999999998,"lon":-6.0333300000000003},"country":"ES","_id":3119880,"name":"La Carrera de Otero"},{"coord":{"lat":45.180351000000002,"lon":7.5163200000000003},"country":"IT","_id":6535399,"name":"La Cassa"},{"coord":{"lat":45.049999,"lon":1.31667},"country":"FR","_id":6456783,"name":"La Cassagne"},{"coord":{"lat":45.045448,"lon":1.3179399999999999},"country":"FR","_id":3010582,"name":"La Cassagne"},{"coord":{"lat":10.35,"lon":123.06667299999999},"country":"PH","_id":1708218,"name":"La Castellana"},{"coord":{"lat":10.3239,"lon":123.0215},"country":"PH","_id":1708217,"name":"La Castellana"},{"coord":{"lat":43.351269000000002,"lon":-3.70377},"country":"ES","_id":3119872,"name":"La Cavada"},{"coord":{"lat":44.009608999999998,"lon":3.1583999999999999},"country":"FR","_id":3010558,"name":"La Cavalerie"},{"coord":{"lat":19.699809999999999,"lon":-71.120841999999996},"country":"DO","_id":3503256,"name":"La Caya"},{"coord":{"lat":8.7197220000000009,"lon":-71.085555999999997},"country":"VE","_id":3638703,"name":"La Caña"},{"coord":{"lat":40.416671999999998,"lon":-3.5333299999999999},"country":"ES","_id":3119903,"name":"La Cañada"},{"coord":{"lat":39.533329000000002,"lon":-0.48332999999999998},"country":"ES","_id":2516112,"name":"La Cañada"},{"coord":{"lat":36.840198999999998,"lon":-2.4060100000000002},"country":"ES","_id":2516105,"name":"La Cañada de San Urbano"},{"coord":{"lat":15.75971,"lon":-86.782211000000004},"country":"HN","_id":3608248,"name":"La Ceiba"},{"coord":{"lat":6.8716670000000004,"lon":-61.596668000000001},"country":"VE","_id":3807556,"name":"La Ceiba"},{"coord":{"lat":20.766670000000001,"lon":-97.766670000000005},"country":"MX","_id":3526056,"name":"La Ceiba"},{"coord":{"lat":10.23442,"lon":-67.345191999999997},"country":"VE","_id":3806295,"name":"La Ceiba"},{"coord":{"lat":10.883330000000001,"lon":-74.783332999999999},"country":"CO","_id":3679556,"name":"La Ceibita"},{"coord":{"lat":6.0308200000000003,"lon":-75.431503000000006},"country":"CO","_id":3679554,"name":"La Ceja"},{"coord":{"lat":5.0433300000000001,"lon":-76.016670000000005},"country":"CO","_id":3679542,"name":"La Celia"},{"coord":{"lat":43.393909000000001,"lon":6.03484},"country":"FR","_id":3010541,"name":"La Celle"},{"coord":{"lat":47.021999000000001,"lon":0.60487999999999997},"country":"FR","_id":3010530,"name":"La Celle-Saint-Avant"},{"coord":{"lat":48.849997999999999,"lon":2.1499999999999999},"country":"FR","_id":6456495,"name":"La Celle-Saint-Cloud"},{"coord":{"lat":48.850287999999999,"lon":2.1452300000000002},"country":"FR","_id":3010529,"name":"La Celle-Saint-Cloud"},{"coord":{"lat":48.811458999999999,"lon":2.9691999999999998},"country":"FR","_id":3010523,"name":"La Celle-sur-Morin"},{"coord":{"lat":41.968769000000002,"lon":2.6024099999999999},"country":"ES","_id":6534042,"name":"la Cellera de Ter"},{"coord":{"lat":41.969189,"lon":2.6240199999999998},"country":"ES","_id":3118954,"name":"la Cellera de Ter"},{"coord":{"lat":46.099997999999999,"lon":2.73333},"country":"FR","_id":6457010,"name":"La Cellette"},{"coord":{"lat":46.103031000000001,"lon":2.7199599999999999},"country":"FR","_id":3010520,"name":"La Cellette"},{"coord":{"lat":37.076720999999999,"lon":-88.973679000000004},"country":"US","_id":4297236,"name":"La Center"},{"coord":{"lat":45.862338999999999,"lon":-122.67037999999999},"country":"US","_id":5800069,"name":"La Center"},{"coord":{"lat":49.505920000000003,"lon":0.41332000000000002},"country":"FR","_id":3010515,"name":"La Cerlangue"},{"coord":{"lat":-33.951149000000001,"lon":-62.972382000000003},"country":"AR","_id":3852125,"name":"La Cesira"},{"coord":{"lat":-30.149999999999999,"lon":-71.116669000000002},"country":"CL","_id":3886292,"name":"La Chacrita"},{"coord":{"lat":46.671661,"lon":-1.29084},"country":"FR","_id":3010483,"name":"La Chaize-le-Vicomte"},{"coord":{"lat":45.358662000000002,"lon":6.3024899999999997},"country":"FR","_id":3010460,"name":"La Chambre"},{"coord":{"lat":42.481811999999998,"lon":-6.7247199999999996},"country":"ES","_id":3119860,"name":"La Chana"},{"coord":{"lat":46.416671999999998,"lon":2.5},"country":"FR","_id":6456648,"name":"La Chapelaude"},{"coord":{"lat":46.422241,"lon":2.5023599999999999},"country":"FR","_id":3010448,"name":"La Chapelaude"},{"coord":{"lat":46.099997999999999,"lon":3.5833300000000001},"country":"FR","_id":6456649,"name":"La Chapelle"},{"coord":{"lat":46.091549000000001,"lon":3.5724499999999999},"country":"FR","_id":3010432,"name":"La Chapelle"},{"coord":{"lat":45.52364,"lon":5.6066399999999996},"country":"FR","_id":3010436,"name":"La Chapelle"},{"coord":{"lat":46.588619000000001,"lon":-1.64757},"country":"FR","_id":3010414,"name":"La Chapelle-Achard"},{"coord":{"lat":47.270859000000002,"lon":-1.3391299999999999},"country":"FR","_id":3010396,"name":"La Chapelle-Basse-Mer"},{"coord":{"lat":46.208407999999999,"lon":4.7624500000000003},"country":"FR","_id":3010372,"name":"La Chapelle-de-Guinchay"},{"coord":{"lat":45.584220999999999,"lon":5.4661099999999996},"country":"FR","_id":3010371,"name":"La Chapelle-de-la-Tour"},{"coord":{"lat":48.177052000000003,"lon":-1.73143},"country":"FR","_id":3010369,"name":"La Chapelle-des-Fougeretz"},{"coord":{"lat":47.448447999999999,"lon":-2.23834},"country":"FR","_id":3010368,"name":"La Chapelle-des-Marais"},{"coord":{"lat":47.182029999999997,"lon":-1.01857},"country":"FR","_id":3010357,"name":"La Chapelle-du-Genet"},{"coord":{"lat":48.031910000000003,"lon":1.3095300000000001},"country":"FR","_id":3010351,"name":"La Chapelle-du-Noyer"},{"coord":{"lat":49.128422,"lon":2.5340500000000001},"country":"FR","_id":3010344,"name":"La Chapelle-en-Serval"},{"coord":{"lat":45.366669000000002,"lon":0.75},"country":"FR","_id":6455691,"name":"La Chapelle-Faucher"},{"coord":{"lat":45.370460999999999,"lon":0.75190000000000001},"country":"FR","_id":3010339,"name":"La Chapelle-Faucher"},{"coord":{"lat":48.549469000000002,"lon":2.8977599999999999},"country":"FR","_id":3010332,"name":"La Chapelle-Gauthier"},{"coord":{"lat":47.176670000000001,"lon":-1.3400000000000001},"country":"FR","_id":3010321,"name":"La Chapelle-Heulin"},{"coord":{"lat":48.347752,"lon":-1.10209},"country":"FR","_id":3010316,"name":"La Chapelle-Janson"},{"coord":{"lat":48.318137999999998,"lon":2.57152},"country":"FR","_id":3010315,"name":"La Chapelle-la-Reine"},{"coord":{"lat":47.372261000000002,"lon":-1.97071},"country":"FR","_id":3010312,"name":"La Chapelle-Launay"},{"coord":{"lat":48.483330000000002,"lon":0.65000000000000002},"country":"FR","_id":6457004,"name":"La Chapelle-Montligeon"},{"coord":{"lat":48.482329999999997,"lon":0.65615999999999997},"country":"FR","_id":3010304,"name":"La Chapelle-Montligeon"},{"coord":{"lat":44.778689999999997,"lon":1.11554},"country":"FR","_id":3010292,"name":"La Chapelle-Péchaud"},{"coord":{"lat":49.097518999999998,"lon":1.38209},"country":"FR","_id":3010285,"name":"La Chapelle-Reanville"},{"coord":{"lat":48.03595,"lon":0.15623999999999999},"country":"FR","_id":3010281,"name":"La Chapelle-Saint-Aubin"},{"coord":{"lat":47.333931,"lon":-1.0563100000000001},"country":"FR","_id":3010278,"name":"La Chapelle-Saint-Florent"},{"coord":{"lat":46.746428999999999,"lon":-0.47643000000000002},"country":"FR","_id":3010273,"name":"La Chapelle-Saint-Laurent"},{"coord":{"lat":48.317340999999999,"lon":4.0398800000000001},"country":"FR","_id":3010271,"name":"La Chapelle-Saint-Luc"},{"coord":{"lat":47.886477999999997,"lon":1.8345},"country":"FR","_id":3010265,"name":"La Chapelle-Saint-Mesmin"},{"coord":{"lat":47.062480999999998,"lon":2.3244699999999998},"country":"FR","_id":3010254,"name":"La Chapelle-Saint-Ursin"},{"coord":{"lat":48.858620000000002,"lon":2.9345500000000002},"country":"FR","_id":3010239,"name":"La Chapelle-sur-Crecy"},{"coord":{"lat":47.295841000000003,"lon":-1.5530900000000001},"country":"FR","_id":3010237,"name":"La Chapelle-sur-Erdre"},{"coord":{"lat":47.299999,"lon":-1.55},"country":"FR","_id":6456914,"name":"La Chapelle-sur-Erdre"},{"coord":{"lat":47.250629000000004,"lon":0.21887000000000001},"country":"FR","_id":3010235,"name":"La Chapelle-sur-Loire"},{"coord":{"lat":45.466670999999998,"lon":3.3999999999999999},"country":"FR","_id":6457014,"name":"La Chapelle-sur-Usson"},{"coord":{"lat":45.465308999999998,"lon":3.3989799999999999},"country":"FR","_id":3010231,"name":"La Chapelle-sur-Usson"},{"coord":{"lat":48.124859000000001,"lon":-1.86619},"country":"FR","_id":3010226,"name":"La Chapelle-Thouarault"},{"coord":{"lat":45.783329000000002,"lon":3.6833300000000002},"country":"FR","_id":3010225,"name":"La Chapelle-Tringuard"},{"coord":{"lat":45.574660999999999,"lon":0.80188000000000004},"country":"FR","_id":3010221,"name":"La Chapelle-Verlaine"},{"coord":{"lat":48.515338999999997,"lon":0.92657999999999996},"country":"FR","_id":3010207,"name":"La Charbonnière"},{"coord":{"lat":47.183331000000003,"lon":3.01667},"country":"FR","_id":3010201,"name":"La Charite-sur-Loire"},{"coord":{"lat":47.183331000000003,"lon":3.01667},"country":"FR","_id":6456992,"name":"La Charité-sur-Loire"},{"coord":{"lat":46.741531000000002,"lon":3.0524800000000001},"country":"FR","_id":3010190,"name":"La Charnée"},{"coord":{"lat":47.731171000000003,"lon":0.56852000000000003},"country":"FR","_id":3010181,"name":"La Chartre-sur-le-Loir"},{"coord":{"lat":45.716670999999998,"lon":3.5499999999999998},"country":"FR","_id":3010203,"name":"La Charère"},{"coord":{"lat":46.647860999999999,"lon":-0.73916000000000004},"country":"FR","_id":3010161,"name":"La Chataigneraie"},{"coord":{"lat":46.583328000000002,"lon":1.98333},"country":"FR","_id":3010154,"name":"La Chatre"},{"coord":{"lat":45.849997999999999,"lon":2.5499999999999998},"country":"FR","_id":3010143,"name":"La Chaud"},{"coord":{"lat":47.616199000000002,"lon":1.36765},"country":"FR","_id":3010092,"name":"La Chaussee-Saint-Victor"},{"coord":{"lat":45.383330999999998,"lon":3.3833299999999999},"country":"FR","_id":3010078,"name":"La Chaux"},{"coord":{"lat":47.222099,"lon":7.0282900000000001},"country":"CH","_id":2660077,"name":"La Chaux"},{"coord":{"lat":47.110149,"lon":6.8334000000000001},"country":"CH","_id":7286240,"name":"La Chaux-de-Fonds"},{"coord":{"lat":47.099930000000001,"lon":6.8258599999999996},"country":"CH","_id":2660076,"name":"La Chaux-de-Fonds"},{"coord":{"lat":47.222641000000003,"lon":7.0286900000000001},"country":"CH","_id":7286241,"name":"La Chaux-des-Breuleux"},{"coord":{"lat":47.091239999999999,"lon":-1.6097300000000001},"country":"FR","_id":3010040,"name":"La Chevroliere"},{"coord":{"lat":37.698749999999997,"lon":-4.9500700000000002},"country":"ES","_id":2516070,"name":"La Chica Carlota"},{"coord":{"lat":10.550000000000001,"lon":-71.75},"country":"VE","_id":3638472,"name":"La Chiquinquira"},{"coord":{"lat":18.616671,"lon":-90.716667000000001},"country":"MX","_id":3820971,"name":"La Chiquita"},{"coord":{"lat":46.472270999999999,"lon":6.8736600000000001},"country":"CH","_id":2660074,"name":"La Chièsaz"},{"coord":{"lat":45.233330000000002,"lon":3.48333},"country":"FR","_id":6456906,"name":"La Chomette"},{"coord":{"lat":45.230400000000003,"lon":3.4740799999999998},"country":"FR","_id":3010031,"name":"La Chomette"},{"coord":{"lat":8.8802800000000008,"lon":-79.783332999999999},"country":"PA","_id":3707961,"name":"La Chorrera"},{"coord":{"lat":4.6666699999999999,"lon":-74.349997999999999},"country":"CO","_id":3679505,"name":"La Chorrera"},{"coord":{"lat":13.91667,"lon":-88.216667000000001},"country":"HN","_id":3608198,"name":"La Chorrera"},{"coord":{"lat":18.068580999999998,"lon":-71.106505999999996},"country":"DO","_id":3503100,"name":"La Cienaga"},{"coord":{"lat":35.562809000000001,"lon":-106.130859},"country":"US","_id":5474794,"name":"La Cienega"},{"coord":{"lat":46.716670999999998,"lon":2.8833299999999999},"country":"FR","_id":3010026,"name":"La Cinardière"},{"coord":{"lat":43.166671999999998,"lon":5.5999999999999996},"country":"FR","_id":6456718,"name":"La Ciotat"},{"coord":{"lat":43.174759000000002,"lon":5.6044900000000002},"country":"FR","_id":3010025,"name":"La Ciotat"},{"coord":{"lat":-33.549999,"lon":-70.683327000000006},"country":"CL","_id":3886243,"name":"La Cisterna"},{"coord":{"lat":46.142798999999997,"lon":2.8319800000000002},"country":"FR","_id":3010023,"name":"La Cité"},{"coord":{"lat":24.383329,"lon":-106.050003},"country":"MX","_id":4002901,"name":"La Ciudad"},{"coord":{"lat":6.1733330000000004,"lon":-61.417220999999998},"country":"VE","_id":3807669,"name":"La Clarita"},{"coord":{"lat":46.290019999999998,"lon":4.3042199999999999},"country":"FR","_id":3010014,"name":"La Clayette"},{"coord":{"lat":38.879767999999999,"lon":-88.715332000000004},"country":"US","_id":4242425,"name":"La Clede"},{"coord":{"lat":-27.133329,"lon":-60.666671999999998},"country":"AR","_id":3851993,"name":"La Clotilde"},{"coord":{"lat":45.905200999999998,"lon":6.4237599999999997},"country":"FR","_id":3010004,"name":"La Clusaz"},{"coord":{"lat":46.883330999999998,"lon":6.3833299999999999},"country":"FR","_id":3010000,"name":"La Cluse-et-Mijoux"},{"coord":{"lat":-27.777290000000001,"lon":-65.570351000000002},"country":"AR","_id":3851985,"name":"La Cocha"},{"coord":{"lat":48.716670999999998,"lon":0.14999999999999999},"country":"FR","_id":6456277,"name":"La Cochère"},{"coord":{"lat":48.722549000000001,"lon":0.14011999999999999},"country":"FR","_id":3009995,"name":"La Cochère"},{"coord":{"lat":39.208778000000002,"lon":-7.1733000000000002},"country":"ES","_id":2516065,"name":"La Codosera"},{"coord":{"lat":45.017651000000001,"lon":5.8030600000000003},"country":"FR","_id":3009985,"name":"La Coirelle"},{"coord":{"lat":40.647530000000003,"lon":-4.7659500000000001},"country":"ES","_id":3119853,"name":"La Colilla"},{"coord":{"lat":44.980381000000001,"lon":3.9853399999999999},"country":"FR","_id":3009982,"name":"La Collang"},{"coord":{"lat":43.6875,"lon":7.1026800000000003},"country":"FR","_id":3009978,"name":"La Colle-sur-Loup"},{"coord":{"lat":-25.883329,"lon":-56.816668999999997},"country":"PY","_id":3437868,"name":"La Colmena"},{"coord":{"lat":18.770281000000001,"lon":-70.017212000000001},"country":"DO","_id":3503011,"name":"La Colorada"},{"coord":{"lat":8.0166699999999995,"lon":-80.983329999999995},"country":"PA","_id":3707921,"name":"La Colorada"},{"coord":{"lat":46.379742,"lon":7.0832600000000001},"country":"CH","_id":2660073,"name":"La Comballaz"},{"coord":{"lat":8.5166699999999995,"lon":-82.616669000000002},"country":"PA","_id":3707899,"name":"La Concepcion"},{"coord":{"lat":14.699999999999999,"lon":-86.233329999999995},"country":"HN","_id":3608142,"name":"La Concepcion"},{"coord":{"lat":19.681940000000001,"lon":-99.856941000000006},"country":"MX","_id":3525956,"name":"La Concepcion"},{"coord":{"lat":11.937110000000001,"lon":-86.189757999999998},"country":"NI","_id":3618648,"name":"La Concepcion"},{"coord":{"lat":10.61919,"lon":-71.838142000000005},"country":"VE","_id":3638371,"name":"La Concepcion"},{"coord":{"lat":16.08333,"lon":-92.633330999999998},"country":"MX","_id":3525950,"name":"La Concordia"},{"coord":{"lat":0,"lon":-79.383330999999998},"country":"EC","_id":3655272,"name":"La Concordia"},{"coord":{"lat":13.19528,"lon":-86.166740000000004},"country":"NI","_id":3618637,"name":"La Concordia"},{"coord":{"lat":43.734402000000003,"lon":7.4202399999999997},"country":"MC","_id":3009937,"name":"La Condamine"},{"coord":{"lat":44.83173,"lon":0.51849999999999996},"country":"FR","_id":3009936,"name":"La Conne-de-Bergerac"},{"coord":{"lat":-37.226219,"lon":-58.760052000000002},"country":"AR","_id":3432790,"name":"La Constancia"},{"coord":{"lat":-33.735790000000001,"lon":-69.121819000000002},"country":"AR","_id":3851913,"name":"La Consulta"},{"coord":{"lat":45.542019000000003,"lon":0.97675000000000001},"country":"FR","_id":3009922,"name":"La Coquille"},{"coord":{"lat":48.719428999999998,"lon":0.23885999999999999},"country":"FR","_id":3009920,"name":"La Corbette"},{"coord":{"lat":54.450169000000002,"lon":-110.76847100000001},"country":"CA","_id":6035779,"name":"La Corey"},{"coord":{"lat":48.350181999999997,"lon":-77.999519000000006},"country":"CA","_id":6035849,"name":"La Corne"},{"coord":{"lat":38.920459999999999,"lon":-5.6697800000000003},"country":"ES","_id":2516049,"name":"La Coronada"},{"coord":{"lat":43.383330999999998,"lon":-5.8166700000000002},"country":"ES","_id":3119844,"name":"La Corredoría"},{"coord":{"lat":29.310789,"lon":-98.810028000000003},"country":"US","_id":4703925,"name":"La Coste"},{"coord":{"lat":45.393569999999997,"lon":5.2605500000000003},"country":"FR","_id":3009879,"name":"La Cote-Saint-Andre"},{"coord":{"lat":46.194110999999999,"lon":-1.4252199999999999},"country":"FR","_id":3009873,"name":"La Couarde-sur-Mer"},{"coord":{"lat":48.647049000000003,"lon":-0.45652999999999999},"country":"FR","_id":6456278,"name":"La Coulonche"},{"coord":{"lat":48.647049000000003,"lon":-0.45652999999999999},"country":"FR","_id":3009853,"name":"La Coulonche"},{"coord":{"lat":-22.233329999999999,"lon":166.566666},"country":"NC","_id":2140471,"name":"La Coulée"},{"coord":{"lat":50.433331000000003,"lon":3.8500000000000001},"country":"BE","_id":6957813,"name":"La Courbette"},{"coord":{"lat":48.931198000000002,"lon":2.3965999999999998},"country":"FR","_id":6457183,"name":"La Courneuve"},{"coord":{"lat":48.928051000000004,"lon":2.3962699999999999},"country":"FR","_id":3009824,"name":"La Courneuve"},{"coord":{"lat":45.611279000000003,"lon":0.099479999999999999},"country":"FR","_id":3009822,"name":"La Couronne"},{"coord":{"lat":45.830539999999999,"lon":2.8988},"country":"FR","_id":3009817,"name":"La Courteix"},{"coord":{"lat":45.700001,"lon":2.26667},"country":"FR","_id":3009815,"name":"La Courtine"},{"coord":{"lat":46.275860000000002,"lon":3.04617},"country":"FR","_id":3009811,"name":"La Cout"},{"coord":{"lat":50.582118999999999,"lon":2.7071000000000001},"country":"FR","_id":3009805,"name":"La Couture"},{"coord":{"lat":48.895809,"lon":1.4049100000000001},"country":"FR","_id":3009804,"name":"La Couture-Boussey"},{"coord":{"lat":44.899448,"lon":0.57372999999999996},"country":"FR","_id":3009793,"name":"La Crabouille"},{"coord":{"lat":43.150002000000001,"lon":6.0666700000000002},"country":"FR","_id":6457117,"name":"La Crau"},{"coord":{"lat":43.149811,"lon":6.0742500000000001},"country":"FR","_id":3009791,"name":"La Crau"},{"coord":{"lat":46.366669000000002,"lon":-0.29999999999999999},"country":"FR","_id":3030377,"name":"La Creche"},{"coord":{"lat":43.828018,"lon":-91.304030999999995},"country":"US","_id":5033580,"name":"La Crescent"},{"coord":{"lat":34.232159000000003,"lon":-118.235291},"country":"US","_id":7261553,"name":"La Crescenta-Montrose"},{"coord":{"lat":33.522799999999997,"lon":-117.346153},"country":"US","_id":5363892,"name":"La Cresta Highlands"},{"coord":{"lat":46.166671999999998,"lon":7.4333299999999998},"country":"CH","_id":2660069,"name":"La Crettaz"},{"coord":{"lat":13.453609999999999,"lon":-87.413330000000002},"country":"HN","_id":3608112,"name":"La Criba"},{"coord":{"lat":-31.269038999999999,"lon":-58.105578999999999},"country":"AR","_id":3432768,"name":"La Criolla"},{"coord":{"lat":40.645901000000002,"lon":-80.597847000000002},"country":"US","_id":5159995,"name":"La Croft"},{"coord":{"lat":46.383597999999999,"lon":2.4115099999999998},"country":"FR","_id":3009763,"name":"La Croix"},{"coord":{"lat":46.517899,"lon":6.7035999999999998},"country":"CH","_id":7670238,"name":"La Croix"},{"coord":{"lat":46.084201999999998,"lon":-70.267302999999998},"country":"US","_id":4969033,"name":"La Croix Depot"},{"coord":{"lat":47.269641999999997,"lon":-0.06694},"country":"FR","_id":3009708,"name":"La Croix Verte"},{"coord":{"lat":47.340308999999998,"lon":0.99024000000000001},"country":"FR","_id":3009732,"name":"La Croix-en-Touraine"},{"coord":{"lat":43.207951000000001,"lon":6.5669599999999999},"country":"FR","_id":3009710,"name":"La Croix-Valmer"},{"coord":{"lat":43.801361,"lon":-91.239577999999995},"country":"US","_id":5258957,"name":"La Crosse"},{"coord":{"lat":38.531399,"lon":-99.308723000000001},"country":"US","_id":4274067,"name":"La Crosse"},{"coord":{"lat":43.750518999999997,"lon":-91.100127999999998},"country":"US","_id":5258961,"name":"La Crosse County"},{"coord":{"lat":46.183331000000003,"lon":2.75},"country":"FR","_id":6456330,"name":"La Crouzille"},{"coord":{"lat":46.180931000000001,"lon":2.7457500000000001},"country":"FR","_id":3009697,"name":"La Crouzille"},{"coord":{"lat":-29.174430999999998,"lon":-56.643261000000003},"country":"AR","_id":3432760,"name":"La Cruz"},{"coord":{"lat":23.91667,"lon":-106.900002},"country":"MX","_id":4002745,"name":"La Cruz"},{"coord":{"lat":1.60301,"lon":-76.969009},"country":"CO","_id":3679379,"name":"La Cruz"},{"coord":{"lat":11.07377,"lon":-85.632721000000004},"country":"CR","_id":3623258,"name":"La Cruz"},{"coord":{"lat":9.9284700000000008,"lon":-65.170958999999996},"country":"VE","_id":3638269,"name":"La Cruz de Belén"},{"coord":{"lat":18.483329999999999,"lon":-69.866669000000002},"country":"DO","_id":3502935,"name":"La Cruz de Mendoza"},{"coord":{"lat":13.1129,"lon":-84.185883000000004},"country":"NI","_id":3618618,"name":"La Cruz de Rio Grande"},{"coord":{"lat":11.06396,"lon":-69.713097000000005},"country":"VE","_id":3638264,"name":"La Cruz de Taratara"},{"coord":{"lat":35.078381,"lon":-106.506973},"country":"US","_id":5474813,"name":"La Cuesta"},{"coord":{"lat":28.467979,"lon":-16.286221000000001},"country":"ES","_id":2516034,"name":"La Cuesta"},{"coord":{"lat":28.820239999999998,"lon":-17.780339999999999},"country":"ES","_id":2516033,"name":"La Cuesta"},{"coord":{"lat":41.082802000000001,"lon":-3.9601700000000002},"country":"ES","_id":3119822,"name":"La Cuesta"},{"coord":{"lat":40.433169999999997,"lon":-1.92892},"country":"ES","_id":3119813,"name":"La Cueva"},{"coord":{"lat":-20.92399,"lon":-64.880607999999995},"country":"BO","_id":6621229,"name":"La Cueva"},{"coord":{"lat":-20.933330999999999,"lon":-64.900002000000001},"country":"BO","_id":3912300,"name":"La Cueva"},{"coord":{"lat":7.375,"lon":-61.876671000000002},"country":"VE","_id":3807816,"name":"La Culebra"},{"coord":{"lat":-30.982009999999999,"lon":-64.491386000000006},"country":"AR","_id":3851798,"name":"La Cumbre"},{"coord":{"lat":3.7225000000000001,"lon":-76.020827999999995},"country":"CO","_id":3778835,"name":"La Cumbre"},{"coord":{"lat":39.404598,"lon":-5.9763599999999997},"country":"ES","_id":2516024,"name":"La Cumbre"},{"coord":{"lat":12.40484,"lon":121.045914},"country":"PH","_id":1708191,"name":"La Curva"},{"coord":{"lat":38.350020999999998,"lon":-94.761353},"country":"US","_id":4274070,"name":"La Cygne"},{"coord":{"lat":46.863078999999999,"lon":6.4875499999999997},"country":"CH","_id":7286245,"name":"La Côte-aux-Fées"},{"coord":{"lat":46.867438999999997,"lon":6.4904299999999999},"country":"CH","_id":2660071,"name":"La Côte-aux-Fées"},{"coord":{"lat":-20.244440000000001,"lon":57.554169000000002},"country":"MU","_id":934400,"name":"La Dagotiere"},{"coord":{"lat":47.419338000000003,"lon":-0.43128},"country":"FR","_id":3009683,"name":"La Dagueniere"},{"coord":{"lat":14.230829999999999,"lon":-90.947220000000002},"country":"GT","_id":3594753,"name":"La Democracia"},{"coord":{"lat":6.4166670000000003,"lon":-61.400002000000001},"country":"VE","_id":3638144,"name":"La Denta"},{"coord":{"lat":18.570530000000002,"lon":-71.729668000000004},"country":"DO","_id":3502786,"name":"La Descubierta"},{"coord":{"lat":43.375050000000002,"lon":5.6055999999999999},"country":"FR","_id":3009663,"name":"La Destrousse"},{"coord":{"lat":7.6760000000000002,"lon":123.002296},"country":"PH","_id":1958281,"name":"La Dicha"},{"coord":{"lat":50.422351999999997,"lon":4.4062900000000003},"country":"BE","_id":2793660,"name":"La Docherie"},{"coord":{"lat":18.375499999999999,"lon":-65.855721000000003},"country":"PR","_id":4565755,"name":"La Dolores"},{"coord":{"lat":10.488300000000001,"lon":-66.786079000000001},"country":"VE","_id":3803651,"name":"La Dolorita"},{"coord":{"lat":47.762290999999998,"lon":-1.6881900000000001},"country":"FR","_id":3009639,"name":"La Dominelais"},{"coord":{"lat":-27.427191000000001,"lon":-64.971290999999994},"country":"AR","_id":3851734,"name":"La Donosa"},{"coord":{"lat":5.4478299999999997,"lon":-74.663109000000006},"country":"CO","_id":3679277,"name":"La Dorada"},{"coord":{"lat":45.066668999999997,"lon":0.86667000000000005},"country":"FR","_id":6455699,"name":"La Douze"},{"coord":{"lat":45.06221,"lon":0.86465000000000003},"country":"FR","_id":3009622,"name":"La Douze"},{"coord":{"lat":46.837359999999997,"lon":-70.850739000000004},"country":"CA","_id":6325495,"name":"La Durantaye"},{"coord":{"lat":4.8499999999999996,"lon":-52.333328000000002},"country":"GF","_id":3381270,"name":"La Désirée"},{"coord":{"lat":-26.855450000000001,"lon":-59.068420000000003},"country":"AR","_id":3432707,"name":"La Eduvigis"},{"coord":{"lat":-33.348269999999999,"lon":-60.316459999999999},"country":"AR","_id":3851619,"name":"La Emilia"},{"coord":{"lat":14.66667,"lon":-89.083327999999995},"country":"HN","_id":3607992,"name":"La Encarnacion"},{"coord":{"lat":10.20365,"lon":-67.472358999999997},"country":"VE","_id":3638108,"name":"La Encrucijada"},{"coord":{"lat":15.050000000000001,"lon":-88.733329999999995},"country":"HN","_id":3607986,"name":"La Entrada"},{"coord":{"lat":19.553671000000001,"lon":-69.907623000000001},"country":"DO","_id":3502745,"name":"La Entrada"},{"coord":{"lat":28.302420000000001,"lon":-16.411359999999998},"country":"ES","_id":2515999,"name":"La Era de la Casa"},{"coord":{"lat":42.813479999999998,"lon":-5.2183999999999999},"country":"ES","_id":3119781,"name":"La Ercina"},{"coord":{"lat":-33.366669000000002,"lon":-70.400002000000001},"country":"CL","_id":3886043,"name":"La Ermita"},{"coord":{"lat":19.477039000000001,"lon":-70.608802999999995},"country":"DO","_id":3502736,"name":"La Ermita"},{"coord":{"lat":10.290979999999999,"lon":-68.750716999999995},"country":"VE","_id":3638084,"name":"La Ermita"},{"coord":{"lat":14.466670000000001,"lon":-87.066672999999994},"country":"HN","_id":3607983,"name":"La Ermita"},{"coord":{"lat":20.413891,"lon":-101.993607},"country":"MX","_id":4024861,"name":"La Ermita"},{"coord":{"lat":-27.107240999999998,"lon":-59.447842000000001},"country":"AR","_id":3432653,"name":"La Escondida"},{"coord":{"lat":3.5556399999999999,"lon":-76.376891999999998},"country":"CO","_id":3778842,"name":"La Esmeralda"},{"coord":{"lat":3.1666699999999999,"lon":-65.550003000000004},"country":"VE","_id":3638075,"name":"La Esmeralda"},{"coord":{"lat":14.866669999999999,"lon":-91.566672999999994},"country":"GT","_id":3594703,"name":"La Esperanza"},{"coord":{"lat":28.450728999999999,"lon":-16.369221},"country":"ES","_id":2515989,"name":"La Esperanza"},{"coord":{"lat":14.300000000000001,"lon":-88.183327000000006},"country":"HN","_id":3607966,"name":"La Esperanza"},{"coord":{"lat":8.2104300000000006,"lon":-72.463988999999998},"country":"CO","_id":3679130,"name":"La Esperanza"},{"coord":{"lat":15.633330000000001,"lon":-85.766670000000005},"country":"HN","_id":3607948,"name":"La Esperanza"},{"coord":{"lat":8.4000000000000004,"lon":-82.800003000000004},"country":"PA","_id":3707758,"name":"La Esperanza"},{"coord":{"lat":14.800000000000001,"lon":-92.199996999999996},"country":"MX","_id":3525846,"name":"La Esperañza"},{"coord":{"lat":7.8833299999999999,"lon":-80.383330999999998},"country":"PA","_id":3707752,"name":"La Espigadilla"},{"coord":{"lat":40.450001,"lon":-3.7999999999999998},"country":"ES","_id":3119765,"name":"La Estación"},{"coord":{"lat":38,"lon":-3.9166699999999999},"country":"ES","_id":2515979,"name":"La Estación"},{"coord":{"lat":42.633330999999998,"lon":-6.2000000000000002},"country":"ES","_id":3119753,"name":"La Estación"},{"coord":{"lat":-38.162360999999997,"lon":-57.640072000000004},"country":"AR","_id":3432598,"name":"La Estafeta"},{"coord":{"lat":20.41667,"lon":-100.06667299999999},"country":"MX","_id":4002462,"name":"La Estancia"},{"coord":{"lat":15.283329999999999,"lon":-87.550003000000004},"country":"HN","_id":3607930,"name":"La Estancia"},{"coord":{"lat":15.050000000000001,"lon":-86.349997999999999},"country":"HN","_id":3607931,"name":"La Estancia"},{"coord":{"lat":-34.033329000000002,"lon":-70.666672000000005},"country":"CL","_id":3885982,"name":"La Estancilla"},{"coord":{"lat":-34.200001,"lon":-71.666672000000005},"country":"CL","_id":3885974,"name":"La Estrella"},{"coord":{"lat":6.1576899999999997,"lon":-75.643173000000004},"country":"CO","_id":3679065,"name":"La Estrella"},{"coord":{"lat":19.181089,"lon":-70.092751000000007},"country":"DO","_id":3502675,"name":"La Excavación"},{"coord":{"lat":49.249439000000002,"lon":-2.1688900000000002},"country":"JE","_id":3237474,"name":"La Falaise"},{"coord":{"lat":-31.088408999999999,"lon":-64.489868000000001},"country":"AR","_id":3851331,"name":"La Falda"},{"coord":{"lat":25.716669,"lon":-100.466667},"country":"MX","_id":4002397,"name":"La Fama"},{"coord":{"lat":43.551040999999998,"lon":5.1943000000000001},"country":"FR","_id":3009575,"name":"La Fare-les-Oliviers"},{"coord":{"lat":43.167701999999998,"lon":6.0426599999999997},"country":"FR","_id":3009566,"name":"La Farlede"},{"coord":{"lat":41.159678999999997,"lon":0.48755999999999999},"country":"ES","_id":6361299,"name":"la Fatarella"},{"coord":{"lat":41.166671999999998,"lon":0.48332999999999998},"country":"ES","_id":3122600,"name":"la Fatarella"},{"coord":{"lat":45.01614,"lon":4.5862499999999997},"country":"FR","_id":3009556,"name":"La Faurie"},{"coord":{"lat":48.366669000000002,"lon":0.69999999999999996},"country":"FR","_id":3009552,"name":"La Fauvellière"},{"coord":{"lat":47.355468999999999,"lon":-1.5747599999999999},"country":"FR","_id":3009548,"name":"La Favrière"},{"coord":{"lat":43.307499,"lon":-5.6909200000000002},"country":"ES","_id":3119739,"name":"La Felguera"},{"coord":{"lat":49.662860999999999,"lon":3.3663099999999999},"country":"FR","_id":3009526,"name":"La Fere"},{"coord":{"lat":-33.483330000000002,"lon":-70.683327000000006},"country":"CL","_id":3885958,"name":"La Feria"},{"coord":{"lat":26.15896,"lon":-97.823891000000003},"country":"US","_id":4703938,"name":"La Feria"},{"coord":{"lat":18.175509999999999,"lon":-65.853499999999997},"country":"PR","_id":4565760,"name":"La Fermina"},{"coord":{"lat":46.714531000000001,"lon":-1.3141700000000001},"country":"FR","_id":3009516,"name":"La Ferriere"},{"coord":{"lat":48.662269999999999,"lon":-0.51954999999999996},"country":"FR","_id":3009508,"name":"La Ferriere-aux-Etangs"},{"coord":{"lat":44.813060999999998,"lon":0.35460000000000003},"country":"FR","_id":3009518,"name":"La Ferrière"},{"coord":{"lat":47.143360000000001,"lon":6.9002699999999999},"country":"CH","_id":7286247,"name":"La Ferrière"},{"coord":{"lat":47.143028000000001,"lon":6.8921999999999999},"country":"CH","_id":2660062,"name":"La Ferrière"},{"coord":{"lat":48.662269999999999,"lon":-0.51954999999999996},"country":"FR","_id":6456280,"name":"La Ferrière-aux-Étangs"},{"coord":{"lat":48.416671999999998,"lon":-0.033329999999999999},"country":"FR","_id":6613209,"name":"La Ferrière-Bochard"},{"coord":{"lat":48.412621000000001,"lon":-0.034279999999999998},"country":"FR","_id":3009506,"name":"La Ferrière-Bochard"},{"coord":{"lat":48.483058999999997,"lon":2.34802},"country":"FR","_id":3009496,"name":"La Ferte-Alais"},{"coord":{"lat":48.186329000000001,"lon":0.65356999999999998},"country":"FR","_id":3009494,"name":"La Ferte-Bernard"},{"coord":{"lat":48.783099999999997,"lon":3.3067799999999998},"country":"FR","_id":3009490,"name":"La Ferte-Gaucher"},{"coord":{"lat":47.38467,"lon":1.9534400000000001},"country":"FR","_id":3009488,"name":"La Ferte-Imbault"},{"coord":{"lat":48.589989000000003,"lon":-0.35799999999999998},"country":"FR","_id":3009486,"name":"La Ferte-Mace"},{"coord":{"lat":49.174540999999998,"lon":3.1288499999999999},"country":"FR","_id":3009485,"name":"La Ferte-Milon"},{"coord":{"lat":47.716949,"lon":1.9390400000000001},"country":"FR","_id":3009484,"name":"La Ferte-Saint-Aubin"},{"coord":{"lat":48.951400999999997,"lon":3.12724},"country":"FR","_id":3009481,"name":"La Ferte-sous-Jouarre"},{"coord":{"lat":50.466670999999998,"lon":4.4166699999999999},"country":"BE","_id":2793643,"name":"La Ferté"},{"coord":{"lat":48.483330000000002,"lon":2.3500000000000001},"country":"FR","_id":6456625,"name":"La Ferté-Alais"},{"coord":{"lat":48.183331000000003,"lon":0.66666999999999998},"country":"FR","_id":6456400,"name":"La Ferté-Bernard"},{"coord":{"lat":48.783329000000002,"lon":3.2999999999999998},"country":"FR","_id":6456476,"name":"La Ferté-Gaucher"},{"coord":{"lat":48.589989000000003,"lon":-0.35799999999999998},"country":"FR","_id":6456283,"name":"La Ferté-Macé"},{"coord":{"lat":47.716670999999998,"lon":1.93333},"country":"FR","_id":6456036,"name":"La Ferté-Saint-Aubin"},{"coord":{"lat":48.950001,"lon":3.1333299999999999},"country":"FR","_id":6456477,"name":"La Ferté-sous-Jouarre"},{"coord":{"lat":34.138900999999997,"lon":-117.88144699999999},"country":"US","_id":5363907,"name":"La Fetra"},{"coord":{"lat":49.183331000000003,"lon":-1.48333},"country":"FR","_id":6456109,"name":"La Feuillie"},{"coord":{"lat":49.176659000000001,"lon":-1.47845},"country":"FR","_id":3009468,"name":"La Feuillie"},{"coord":{"lat":49.464148999999999,"lon":1.5146299999999999},"country":"FR","_id":3009467,"name":"La Feuillie"},{"coord":{"lat":47.333328000000002,"lon":5.0166700000000004},"country":"FR","_id":3009453,"name":"La Fillotte"},{"coord":{"lat":10.73333,"lon":-61.516669999999998},"country":"TT","_id":3574345,"name":"La Finette"},{"coord":{"lat":50.001750999999999,"lon":3.9208099999999999},"country":"FR","_id":3009445,"name":"La Flamengrie"},{"coord":{"lat":15.283329999999999,"lon":-88.483329999999995},"country":"HN","_id":3607919,"name":"La Flecha"},{"coord":{"lat":47.698151000000003,"lon":-0.07553},"country":"FR","_id":3009443,"name":"La Fleche"},{"coord":{"lat":46.83202,"lon":-0.86214999999999997},"country":"FR","_id":3009438,"name":"La Flocelliere"},{"coord":{"lat":-20.41028,"lon":57.553612000000001},"country":"MU","_id":1106721,"name":"La Flora"},{"coord":{"lat":8.0833300000000001,"lon":-80.949996999999996},"country":"PA","_id":3707715,"name":"La Florecita"},{"coord":{"lat":-34.755718000000002,"lon":-55.681412000000002},"country":"UY","_id":3442138,"name":"La Floresta"},{"coord":{"lat":10.50334,"lon":-66.878410000000002},"country":"VE","_id":6941738,"name":"La Florida"},{"coord":{"lat":-32.876967999999998,"lon":-60.690899000000002},"country":"AR","_id":3851241,"name":"La Florida"},{"coord":{"lat":-27.226838999999998,"lon":-65.554496999999998},"country":"AR","_id":3851244,"name":"La Florida"},{"coord":{"lat":1.2985100000000001,"lon":-77.406143},"country":"CO","_id":3679007,"name":"La Florida"},{"coord":{"lat":46.187697999999997,"lon":-1.3281499999999999},"country":"FR","_id":3009436,"name":"La Flotte"},{"coord":{"lat":47.698180999999998,"lon":-0.075870000000000007},"country":"FR","_id":6456404,"name":"La Flèche"},{"coord":{"lat":-21.710791,"lon":165.82763700000001},"country":"NC","_id":2140466,"name":"La Foa"},{"coord":{"lat":38.799999,"lon":-0.88332999999999995},"country":"ES","_id":2517523,"name":"La Font de la Figuera"},{"coord":{"lat":44.869019000000002,"lon":0.37541000000000002},"country":"FR","_id":3009395,"name":"La Force"},{"coord":{"lat":46.350658000000003,"lon":7.0689299999999999},"country":"CH","_id":2660060,"name":"La Forclaz"},{"coord":{"lat":46.087237999999999,"lon":7.5211699999999997},"country":"CH","_id":7669688,"name":"La Forclaz"},{"coord":{"lat":48.425891999999997,"lon":-4.3157800000000002},"country":"FR","_id":3009390,"name":"La Forest-Landerneau"},{"coord":{"lat":47.910099000000002,"lon":-3.97858},"country":"FR","_id":3009352,"name":"La Foret-Fouesnant"},{"coord":{"lat":46.769050999999997,"lon":-0.64964},"country":"FR","_id":3009348,"name":"La Foret-sur-Sevre"},{"coord":{"lat":45.599997999999999,"lon":3.76667},"country":"FR","_id":6456331,"name":"La Forie"},{"coord":{"lat":45.590271000000001,"lon":3.7617799999999999},"country":"FR","_id":3009334,"name":"La Forie"},{"coord":{"lat":8.2797199999999993,"lon":125.001389},"country":"PH","_id":1708176,"name":"La Fortuna"},{"coord":{"lat":45.826720999999999,"lon":2.68607},"country":"FR","_id":3009381,"name":"La Forêt"},{"coord":{"lat":48.816668999999997,"lon":-0.33333000000000002},"country":"FR","_id":6456284,"name":"La Forêt-Auvray"},{"coord":{"lat":48.811619,"lon":-0.34193000000000001},"country":"FR","_id":3009359,"name":"La Forêt-Auvray"},{"coord":{"lat":44.230721000000003,"lon":2.0398900000000002},"country":"FR","_id":3009315,"name":"La Fouillade"},{"coord":{"lat":45.501998999999998,"lon":4.3121299999999998},"country":"FR","_id":3009313,"name":"La Fouillouse"},{"coord":{"lat":48.751868999999999,"lon":0.54091},"country":"FR","_id":3009310,"name":"La Foulnerie"},{"coord":{"lat":48.404259000000003,"lon":0.70172999999999996},"country":"FR","_id":3009303,"name":"La Fourneillerie"},{"coord":{"lat":45.549858,"lon":0.68525999999999998},"country":"FR","_id":3009288,"name":"La Francherie"},{"coord":{"lat":49.729228999999997,"lon":4.7127299999999996},"country":"FR","_id":3009287,"name":"La Francheville"},{"coord":{"lat":-31.406749999999999,"lon":-62.633960999999999},"country":"AR","_id":3851181,"name":"La Francia"},{"coord":{"lat":48.833328000000002,"lon":0.23333000000000001},"country":"FR","_id":6456285,"name":"La Fresnaie-Fayel"},{"coord":{"lat":48.834110000000003,"lon":0.22933999999999999},"country":"FR","_id":3009267,"name":"La Fresnaie-Fayel"},{"coord":{"lat":48.59478,"lon":-1.8418600000000001},"country":"FR","_id":3009266,"name":"La Fresnais"},{"coord":{"lat":48.733330000000002,"lon":-0.25},"country":"FR","_id":6456286,"name":"La Fresnaye-au-Sauvage"},{"coord":{"lat":48.737597999999998,"lon":-0.26007999999999998},"country":"FR","_id":3009265,"name":"La Fresnaye-au-Sauvage"},{"coord":{"lat":48.980572000000002,"lon":2.1786599999999998},"country":"FR","_id":3009256,"name":"La Frette-sur-Seine"},{"coord":{"lat":8.2202699999999993,"lon":-72.243896000000007},"country":"VE","_id":3795152,"name":"La Fria"},{"coord":{"lat":40.409450999999997,"lon":-2.2106699999999999},"country":"ES","_id":6357435,"name":"La Frontera"},{"coord":{"lat":40.401611000000003,"lon":-2.21699},"country":"ES","_id":3119711,"name":"La Frontera"},{"coord":{"lat":37.414729999999999,"lon":-105.898628},"country":"US","_id":5427691,"name":"La Fruto"},{"coord":{"lat":40.801608999999999,"lon":-6.2585199999999999},"country":"ES","_id":3119705,"name":"La Fuente de San Esteban"},{"coord":{"lat":18.475349000000001,"lon":-71.428673000000003},"country":"DO","_id":3502616,"name":"La Fuentecita"},{"coord":{"lat":41.720450999999997,"lon":0.99821000000000004},"country":"ES","_id":6358844,"name":"la Fuliola"},{"coord":{"lat":41.713580999999998,"lon":1.01746},"country":"ES","_id":3119704,"name":"La Fuliola"},{"coord":{"lat":47.765621000000003,"lon":-2.1322000000000001},"country":"FR","_id":3009239,"name":"La Gacilly"},{"coord":{"lat":17.983329999999999,"lon":-92.916672000000005},"country":"MX","_id":3525757,"name":"La Galera"},{"coord":{"lat":40.696629000000001,"lon":0.44895000000000002},"country":"ES","_id":6361306,"name":"la Galera"},{"coord":{"lat":38.249279000000001,"lon":-1.1839900000000001},"country":"ES","_id":2515935,"name":"La Garapacha"},{"coord":{"lat":43.124400999999999,"lon":6.0110000000000001},"country":"FR","_id":6617825,"name":"La Garde"},{"coord":{"lat":43.122768000000001,"lon":6.0074500000000004},"country":"FR","_id":3009223,"name":"La Garde"},{"coord":{"lat":44.938110000000002,"lon":0.94157000000000002},"country":"FR","_id":3009214,"name":"La Garde"},{"coord":{"lat":46.348759000000001,"lon":2.9661900000000001},"country":"FR","_id":3009199,"name":"La Garde"},{"coord":{"lat":44.395530999999998,"lon":4.7577600000000002},"country":"FR","_id":3009196,"name":"La Garde-Adhemar"},{"coord":{"lat":43.317089000000003,"lon":6.4688100000000004},"country":"FR","_id":3009193,"name":"La Garde-Freinet"},{"coord":{"lat":43.316940000000002,"lon":6.4691700000000001},"country":"FR","_id":6457120,"name":"La Garde-Freinet"},{"coord":{"lat":48.900002000000001,"lon":2.25},"country":"FR","_id":6457181,"name":"La Garenne-Colombes"},{"coord":{"lat":48.904719999999998,"lon":2.2469000000000001},"country":"FR","_id":3009169,"name":"La Garenne-Colombes"},{"coord":{"lat":19.75,"lon":-103.116669},"country":"MX","_id":4002285,"name":"La Garita"},{"coord":{"lat":46.891762,"lon":-1.8316300000000001},"country":"FR","_id":3009168,"name":"La Garnache"},{"coord":{"lat":41.683331000000003,"lon":2.2833299999999999},"country":"ES","_id":3119694,"name":"la Garriga"},{"coord":{"lat":38.919609000000001,"lon":-6.4774700000000003},"country":"ES","_id":2515929,"name":"La Garrovilla"},{"coord":{"lat":7.3527779999999998,"lon":-61.834999000000003},"country":"VE","_id":3808040,"name":"La Gasolina"},{"coord":{"lat":46.941440999999998,"lon":-1.0621499999999999},"country":"FR","_id":3009153,"name":"La Gaubretiere"},{"coord":{"lat":43.722351000000003,"lon":7.15083},"country":"FR","_id":3009150,"name":"La Gaude"},{"coord":{"lat":12.631320000000001,"lon":-87.155479},"country":"NI","_id":3618546,"name":"La Gaveta"},{"coord":{"lat":45.210129000000002,"lon":2.83222},"country":"FR","_id":3009140,"name":"La Gazelle"},{"coord":{"lat":46.733330000000002,"lon":-1.51667},"country":"FR","_id":3009125,"name":"La Genetouze"},{"coord":{"lat":48.683331000000003,"lon":0.31667000000000001},"country":"FR","_id":6615028,"name":"La Genevraie"},{"coord":{"lat":48.683331000000003,"lon":0.31667000000000001},"country":"FR","_id":3009124,"name":"La Genevraie"},{"coord":{"lat":45.083672,"lon":0.58425000000000005},"country":"FR","_id":3009118,"name":"La Gennerie"},{"coord":{"lat":40.856731000000003,"lon":-0.19389000000000001},"country":"ES","_id":6361529,"name":"La Ginebrosa"},{"coord":{"lat":40.869919000000003,"lon":-0.13525000000000001},"country":"ES","_id":3119683,"name":"La Ginebrosa"},{"coord":{"lat":39.114521000000003,"lon":-1.99603},"country":"ES","_id":2515922,"name":"La Gineta"},{"coord":{"lat":41.983330000000002,"lon":12.4},"country":"IT","_id":3175264,"name":"La Giustiniana"},{"coord":{"lat":49.610698999999997,"lon":-1.6012},"country":"FR","_id":6456111,"name":"La Glacerie"},{"coord":{"lat":49.605170999999999,"lon":-1.58185},"country":"FR","_id":3009086,"name":"La Glacerie"},{"coord":{"lat":8.6186799999999995,"lon":-73.80265},"country":"CO","_id":3678907,"name":"La Gloria"},{"coord":{"lat":14.08333,"lon":-91.050003000000004},"country":"GT","_id":3594575,"name":"La Gomera"},{"coord":{"lat":8.5075000000000003,"lon":-71.324721999999994},"country":"VE","_id":3637754,"name":"La González"},{"coord":{"lat":18.331619,"lon":-66.997398000000004},"country":"PR","_id":4565764,"name":"La González"},{"coord":{"lat":50.637900999999999,"lon":2.71502},"country":"FR","_id":3009050,"name":"La Gorgue"},{"coord":{"lat":48.604671000000003,"lon":-1.8939999999999999},"country":"FR","_id":3009038,"name":"La Gouesniere"},{"coord":{"lat":36.818061999999998,"lon":10.305},"country":"TN","_id":2470656,"name":"La Goulette"},{"coord":{"lat":48.570399999999999,"lon":0.26078000000000001},"country":"FR","_id":3009031,"name":"La Goupilière"},{"coord":{"lat":45.841498999999999,"lon":2.7593000000000001},"country":"FR","_id":6617320,"name":"La Goutelle"},{"coord":{"lat":45.842998999999999,"lon":2.7605900000000001},"country":"FR","_id":3009025,"name":"La Goutelle"},{"coord":{"lat":39.117579999999997,"lon":-1.93336},"country":"ES","_id":2515917,"name":"La Grajuela"},{"coord":{"lat":41.378158999999997,"lon":1.71902},"country":"ES","_id":3119655,"name":"La Granada"},{"coord":{"lat":41.349288999999999,"lon":0.66146000000000005},"country":"ES","_id":6358849,"name":"la Granadella"},{"coord":{"lat":41.349997999999999,"lon":0.66666999999999998},"country":"ES","_id":3121216,"name":"la Granadella"},{"coord":{"lat":45.5,"lon":4.5499999999999998},"country":"FR","_id":3009015,"name":"La Grand-Croix"},{"coord":{"lat":45.324581000000002,"lon":-118.087723},"country":"US","_id":5735537,"name":"La Grande"},{"coord":{"lat":53.756019999999999,"lon":-73.679810000000003},"country":"CA","_id":6949250,"name":"La Grande IV"},{"coord":{"lat":43.566668999999997,"lon":4.0833300000000001},"country":"FR","_id":3008981,"name":"La Grande-Motte"},{"coord":{"lat":48.386822000000002,"lon":2.90157},"country":"FR","_id":3008977,"name":"La Grande-Paroisse"},{"coord":{"lat":16.133329,"lon":-61.566668999999997},"country":"GP","_id":3579035,"name":"La Grange"},{"coord":{"lat":33.039290999999999,"lon":-85.031326000000007},"country":"US","_id":4204230,"name":"La Grange"},{"coord":{"lat":41.640250999999999,"lon":-104.16384100000001},"country":"US","_id":5829832,"name":"La Grange"},{"coord":{"lat":41.805031,"lon":-87.869231999999997},"country":"US","_id":4898846,"name":"La Grange"},{"coord":{"lat":38.40757,"lon":-85.378853000000007},"country":"US","_id":4297238,"name":"La Grange"},{"coord":{"lat":35.306831000000003,"lon":-77.788032999999999},"country":"US","_id":4474627,"name":"La Grange"},{"coord":{"lat":29.9055,"lon":-96.876648000000003},"country":"US","_id":4703958,"name":"La Grange"},{"coord":{"lat":41.834750999999997,"lon":-87.861732000000003},"country":"US","_id":4898850,"name":"La Grange Park"},{"coord":{"lat":-31.00919,"lon":-64.268692000000001},"country":"AR","_id":3851072,"name":"La Granja"},{"coord":{"lat":10.4,"lon":122.98333},"country":"PH","_id":1708073,"name":"La Granja"},{"coord":{"lat":41.40934,"lon":0.38403999999999999},"country":"ES","_id":6358850,"name":"la Granja d'Escarp"},{"coord":{"lat":41.416671999999998,"lon":0.36667},"country":"ES","_id":3121150,"name":"la Granja dEscarp"},{"coord":{"lat":45.658420999999997,"lon":2.8041499999999999},"country":"FR","_id":3008922,"name":"La Gratade"},{"coord":{"lat":48.900002000000001,"lon":-0.88332999999999995},"country":"FR","_id":6455562,"name":"La Graverie"},{"coord":{"lat":48.894050999999997,"lon":-0.88131000000000004},"country":"FR","_id":3008907,"name":"La Graverie"},{"coord":{"lat":46.066668999999997,"lon":4.2833300000000003},"country":"FR","_id":6456009,"name":"La Gresle"},{"coord":{"lat":46.075161000000001,"lon":4.2809799999999996},"country":"FR","_id":3008893,"name":"La Gresle"},{"coord":{"lat":47.527240999999997,"lon":-1.66781},"country":"FR","_id":3008884,"name":"La Grigonnais"},{"coord":{"lat":8.1321899999999996,"lon":-71.983367999999999},"country":"VE","_id":3795170,"name":"La Grita"},{"coord":{"lat":26.26951,"lon":-98.647246999999993},"country":"US","_id":4703965,"name":"La Grulla"},{"coord":{"lat":15.25,"lon":-87.800003000000004},"country":"HN","_id":3607847,"name":"La Guacamaya"},{"coord":{"lat":18.133329,"lon":-95.150002000000001},"country":"MX","_id":3825087,"name":"La Guadalupe"},{"coord":{"lat":45.950068999999999,"lon":-70.93235},"country":"CA","_id":6048131,"name":"La Guadeloupe"},{"coord":{"lat":10.59901,"lon":-66.934601000000001},"country":"VE","_id":3637721,"name":"La Guaira"},{"coord":{"lat":23.16667,"lon":-97.949996999999996},"country":"MX","_id":3525698,"name":"La Guajolota"},{"coord":{"lat":14.883330000000001,"lon":-87.933327000000006},"country":"HN","_id":3607838,"name":"La Guama"},{"coord":{"lat":18.920339999999999,"lon":-70.684601000000001},"country":"DO","_id":3502497,"name":"La Guamita"},{"coord":{"lat":28.378889000000001,"lon":-16.660350999999999},"country":"ES","_id":6360628,"name":"La Guancha"},{"coord":{"lat":28.37294,"lon":-16.660789000000001},"country":"ES","_id":2515911,"name":"La Guancha"},{"coord":{"lat":37.743031000000002,"lon":-3.69312},"country":"ES","_id":2515908,"name":"La Guardia de Jaen"},{"coord":{"lat":15.08333,"lon":-86.383330999999998},"country":"HN","_id":3607830,"name":"La Guata"},{"coord":{"lat":19.149999999999999,"lon":-104.533333},"country":"MX","_id":4002179,"name":"La Guayabilla"},{"coord":{"lat":47.941119999999998,"lon":-1.2286900000000001},"country":"FR","_id":3008857,"name":"La Guerche-de-Bretagne"},{"coord":{"lat":46.966670999999998,"lon":-2.23333},"country":"FR","_id":3008854,"name":"La Gueriniere"},{"coord":{"lat":45.375092000000002,"lon":0.39388000000000001},"country":"FR","_id":3008840,"name":"La Guide"},{"coord":{"lat":45.983330000000002,"lon":3.6499999999999999},"country":"FR","_id":6455453,"name":"La Guillermie"},{"coord":{"lat":45.982410000000002,"lon":3.6394899999999999},"country":"FR","_id":3008834,"name":"La Guillermie"},{"coord":{"lat":42.434157999999996,"lon":1.94391},"country":"FR","_id":3030983,"name":"la Guingueta dIx"},{"coord":{"lat":46.964759999999998,"lon":-1.2505999999999999},"country":"FR","_id":3008820,"name":"La Guyonniere"},{"coord":{"lat":38.919280999999998,"lon":-5.8003400000000003},"country":"ES","_id":2515900,"name":"La Haba"},{"coord":{"lat":7.0939100000000002,"lon":-70.760009999999994},"country":"VE","_id":3739034,"name":"La Habana"},{"coord":{"lat":33.931961000000001,"lon":-117.946167},"country":"US","_id":5363922,"name":"La Habra"},{"coord":{"lat":33.960850000000001,"lon":-117.95062299999999},"country":"US","_id":5363925,"name":"La Habra Heights"},{"coord":{"lat":9.8815000000000008,"lon":124.392303},"country":"PH","_id":1708008,"name":"La Hacienda"},{"coord":{"lat":47.154919,"lon":-1.39794},"country":"FR","_id":3008809,"name":"La Haie-Fouassiere"},{"coord":{"lat":40.583370000000002,"lon":-90.969307000000001},"country":"US","_id":4898856,"name":"La Harpe"},{"coord":{"lat":49.183331000000003,"lon":-2.1833300000000002},"country":"JE","_id":3042134,"name":"La Haule"},{"coord":{"lat":49.289729999999999,"lon":-1.5432399999999999},"country":"FR","_id":3008758,"name":"La Haye-du-Puits"},{"coord":{"lat":49.225529000000002,"lon":1.0677399999999999},"country":"FR","_id":3008754,"name":"La Haye-Malherbe"},{"coord":{"lat":48.799999,"lon":-1.3999999999999999},"country":"FR","_id":6456118,"name":"La Haye-Pesnel"},{"coord":{"lat":48.795608999999999,"lon":-1.39655},"country":"FR","_id":3008753,"name":"La Haye-Pesnel"},{"coord":{"lat":36.734909000000002,"lon":-3.7376},"country":"ES","_id":2515896,"name":"La Herradura"},{"coord":{"lat":-29.983329999999999,"lon":-71.366669000000002},"country":"CL","_id":3885704,"name":"La Herradura"},{"coord":{"lat":8.8522200000000009,"lon":-79.807220000000001},"country":"PA","_id":3707568,"name":"La Herradura"},{"coord":{"lat":48.636218999999997,"lon":0.75578000000000001},"country":"FR","_id":3008736,"name":"La Heunière"},{"coord":{"lat":47.189751000000001,"lon":7.2180200000000001},"country":"CH","_id":7286249,"name":"La Heutte"},{"coord":{"lat":47.190700999999997,"lon":7.2260900000000001},"country":"CH","_id":2660054,"name":"La Heutte"},{"coord":{"lat":48.883330999999998,"lon":-0.16667000000000001},"country":"FR","_id":6455563,"name":"La Hoguette"},{"coord":{"lat":48.876240000000003,"lon":-0.16248000000000001},"country":"FR","_id":3008720,"name":"La Hoguette"},{"coord":{"lat":26.250070999999998,"lon":-98.363631999999996},"country":"US","_id":4703972,"name":"La Homa"},{"coord":{"lat":8.5655560000000008,"lon":-71.602776000000006},"country":"VE","_id":3799184,"name":"La Honda"},{"coord":{"lat":50.700001,"lon":3.25},"country":"BE","_id":2793552,"name":"La Horne"},{"coord":{"lat":7.8713899999999999,"lon":-67.493331999999995},"country":"VE","_id":3765365,"name":"La Horqueta"},{"coord":{"lat":10.580556,"lon":-66.997780000000006},"country":"VE","_id":3481258,"name":"La Horquilla"},{"coord":{"lat":48.753810999999999,"lon":2.8655200000000001},"country":"FR","_id":3008705,"name":"La Houssaye-en-Brie"},{"coord":{"lat":28.081261000000001,"lon":-16.616099999999999},"country":"ES","_id":2515876,"name":"La Hoya"},{"coord":{"lat":8.5402780000000007,"lon":-71.241943000000006},"country":"VE","_id":3753632,"name":"La Hoyada"},{"coord":{"lat":9.3502200000000002,"lon":-70.587806999999998},"country":"VE","_id":3637558,"name":"La Hoyada"},{"coord":{"lat":-4.91167,"lon":-80.959998999999996},"country":"PE","_id":3695829,"name":"La Huaca"},{"coord":{"lat":18.966669,"lon":-101.81667299999999},"country":"MX","_id":4001956,"name":"La Huacana"},{"coord":{"lat":37.114868000000001,"lon":-2.0126400000000002},"country":"ES","_id":2515869,"name":"La Huelga"},{"coord":{"lat":19.466669,"lon":-104.650002},"country":"MX","_id":4001947,"name":"La Huerta"},{"coord":{"lat":32.442901999999997,"lon":-104.221062},"country":"US","_id":5474843,"name":"La Huerta"},{"coord":{"lat":15.58333,"lon":-87.883330999999998},"country":"HN","_id":3607731,"name":"La Huesa"},{"coord":{"lat":50.731780999999998,"lon":4.4819100000000001},"country":"BE","_id":2793549,"name":"La Hulpe"},{"coord":{"lat":50.730910999999999,"lon":4.4857699999999996},"country":"BE","_id":2793548,"name":"La Hulpe"},{"coord":{"lat":43.385238999999999,"lon":-4.0164200000000001},"country":"ES","_id":3119586,"name":"La Iglesia"},{"coord":{"lat":40.484130999999998,"lon":-0.31233},"country":"ES","_id":6361537,"name":"La Iglesuela del Cid"},{"coord":{"lat":40.48312,"lon":-0.31938},"country":"ES","_id":3119584,"name":"La Iglesuela del Cid"},{"coord":{"lat":39.599997999999999,"lon":2.6833300000000002},"country":"ES","_id":2516450,"name":"La Indioteria"},{"coord":{"lat":14.76667,"lon":-88.783332999999999},"country":"HN","_id":3607723,"name":"La Inea"},{"coord":{"lat":-34.270339999999997,"lon":-60.387081000000002},"country":"AR","_id":3850702,"name":"La Invencible"},{"coord":{"lat":37.919860999999997,"lon":-2.9965899999999999},"country":"ES","_id":2515864,"name":"La Iruela"},{"coord":{"lat":4.2666700000000004,"lon":-75.933327000000006},"country":"CO","_id":3678702,"name":"La Isla"},{"coord":{"lat":18.600000000000001,"lon":-96.150002000000001},"country":"MX","_id":3525596,"name":"La Isla"},{"coord":{"lat":8.9166699999999999,"lon":-79.716667000000001},"country":"PA","_id":3707492,"name":"La Isleta"},{"coord":{"lat":47.999549999999999,"lon":3.0837699999999999},"country":"FR","_id":3008622,"name":"La Jacqueminière"},{"coord":{"lat":9.5622799999999994,"lon":-73.334052999999997},"country":"CO","_id":3678674,"name":"La Jagua de Ibirico"},{"coord":{"lat":46.127730999999997,"lon":-1.0725899999999999},"country":"FR","_id":3008611,"name":"La Jarne"},{"coord":{"lat":21.91667,"lon":-105.033333},"country":"MX","_id":4001882,"name":"La Jarretadera"},{"coord":{"lat":46.128791999999997,"lon":-1.0089600000000001},"country":"FR","_id":3008607,"name":"La Jarrie"},{"coord":{"lat":45.166671999999998,"lon":0.25},"country":"FR","_id":6455702,"name":"La Jemaye"},{"coord":{"lat":45.166671999999998,"lon":0.25},"country":"FR","_id":3008591,"name":"La Jemaye"},{"coord":{"lat":12.726760000000001,"lon":-86.380577000000002},"country":"NI","_id":3619695,"name":"La Jicaral"},{"coord":{"lat":32.847270999999999,"lon":-117.27419999999999},"country":"US","_id":5363943,"name":"La Jolla"},{"coord":{"lat":33.282809999999998,"lon":-116.86335800000001},"country":"US","_id":5363944,"name":"La Jolla Amago"},{"coord":{"lat":42.416359,"lon":2.8746399999999999},"country":"ES","_id":6534071,"name":"la Jonquera"},{"coord":{"lat":42.417278000000003,"lon":2.8736299999999999},"country":"ES","_id":3119559,"name":"la Jonquera"},{"coord":{"lat":31.08333,"lon":-115.73333},"country":"MX","_id":4001830,"name":"La Joya"},{"coord":{"lat":18.66667,"lon":-99.466667000000001},"country":"MX","_id":3525570,"name":"La Joya"},{"coord":{"lat":21,"lon":-102.616669},"country":"MX","_id":4001850,"name":"La Joya"},{"coord":{"lat":32.516669999999998,"lon":-116.616669},"country":"MX","_id":4001829,"name":"La Joya"},{"coord":{"lat":26.247021,"lon":-98.481407000000004},"country":"US","_id":4703997,"name":"La Joya"},{"coord":{"lat":47.172020000000003,"lon":-0.89215},"country":"FR","_id":3008576,"name":"La Jubaudiere"},{"coord":{"lat":32.483330000000002,"lon":-117.06667299999999},"country":"MX","_id":4001811,"name":"La Julia"},{"coord":{"lat":47.279758000000001,"lon":-0.72951999999999995},"country":"FR","_id":3008571,"name":"La Jumelliere"},{"coord":{"lat":-43.960281000000002,"lon":-72.440276999999995},"country":"CL","_id":3969755,"name":"La Junta"},{"coord":{"lat":37.985008000000001,"lon":-103.543831},"country":"US","_id":5427705,"name":"La Junta"},{"coord":{"lat":15.633330000000001,"lon":-88},"country":"HN","_id":3607647,"name":"La Jutosa"},{"coord":{"lat":14.48333,"lon":-89},"country":"HN","_id":3607644,"name":"La Labor"},{"coord":{"lat":49.433608999999997,"lon":-2.6597200000000001},"country":"GG","_id":6420116,"name":"La Lague"},{"coord":{"lat":28.485299999999999,"lon":-16.320141},"country":"ES","_id":2511401,"name":"La Laguna"},{"coord":{"lat":19.30228,"lon":-70.184997999999993},"country":"DO","_id":3502015,"name":"La Laguneta"},{"coord":{"lat":8.5363889999999998,"lon":-71.593056000000004},"country":"VE","_id":3637448,"name":"La Lagunita"},{"coord":{"lat":5.1500000000000004,"lon":-61.166668000000001},"country":"VE","_id":3637428,"name":"La Laja"},{"coord":{"lat":-37.266669999999998,"lon":-72.699996999999996},"country":"CL","_id":3885509,"name":"La Laja"},{"coord":{"lat":44.980358000000003,"lon":-0.38047999999999998},"country":"FR","_id":3008539,"name":"La Lande-de-Fronsac"},{"coord":{"lat":48.76202,"lon":-0.59875999999999996},"country":"FR","_id":3008532,"name":"La Lande-Patry"},{"coord":{"lat":49.066668999999997,"lon":-0.86667000000000005},"country":"FR","_id":6455565,"name":"La Lande-sur-Drôme"},{"coord":{"lat":49.069538000000001,"lon":-0.86817999999999995},"country":"FR","_id":3008529,"name":"La Lande-sur-Drôme"},{"coord":{"lat":37.353499999999997,"lon":-5.2247700000000004},"country":"ES","_id":2515814,"name":"La Lantejuela"},{"coord":{"lat":45.158839999999998,"lon":0.86314999999999997},"country":"FR","_id":3008515,"name":"La Lardie"},{"coord":{"lat":40.968170000000001,"lon":-4.1046800000000001},"country":"ES","_id":3119541,"name":"La Lastrilla"},{"coord":{"lat":44.041770999999997,"lon":5.2643599999999999},"country":"FR","_id":3008510,"name":"La Lauze"},{"coord":{"lat":-36.950001,"lon":-72.916672000000005},"country":"CL","_id":3885471,"name":"La Leonera"},{"coord":{"lat":-27.037860999999999,"lon":-58.703468000000001},"country":"AR","_id":3432355,"name":"La Leonesa"},{"coord":{"lat":45.621589999999998,"lon":3.5315599999999998},"country":"FR","_id":3008482,"name":"La Leyras"},{"coord":{"lat":29.913129999999999,"lon":-112.691788},"country":"MX","_id":4001610,"name":"La Libertad"},{"coord":{"lat":-2.23333,"lon":-80.900002000000001},"country":"EC","_id":3655131,"name":"La Libertad"},{"coord":{"lat":14.9,"lon":-92.050003000000004},"country":"GT","_id":3594425,"name":"La Libertad"},{"coord":{"lat":13.488329999999999,"lon":-89.322220000000002},"country":"SV","_id":3585157,"name":"La Libertad"},{"coord":{"lat":16.783331,"lon":-90.116669000000002},"country":"GT","_id":3594422,"name":"La Libertad"},{"coord":{"lat":15.5,"lon":-91.833327999999995},"country":"GT","_id":3594423,"name":"La Libertad"},{"coord":{"lat":14.800000000000001,"lon":-88.583327999999995},"country":"HN","_id":3607538,"name":"La Libertad"},{"coord":{"lat":14.75,"lon":-87.616669000000002},"country":"HN","_id":3607540,"name":"La Libertad"},{"coord":{"lat":14.59111,"lon":-92.193611000000004},"country":"MX","_id":3525491,"name":"La Libertad"},{"coord":{"lat":12.21635,"lon":-85.165947000000003},"country":"NI","_id":3618482,"name":"La Libertad"},{"coord":{"lat":10.0266,"lon":123.233498},"country":"PH","_id":1707889,"name":"La Libertad"},{"coord":{"lat":7.4802799999999996,"lon":125.647217},"country":"PH","_id":1707892,"name":"La Libertad"},{"coord":{"lat":35.422272,"lon":-105.05056},"country":"US","_id":5474889,"name":"La Liendre"},{"coord":{"lat":-32.452418999999999,"lon":-71.231055999999995},"country":"CL","_id":3885456,"name":"La Ligua"},{"coord":{"lat":15.43333,"lon":-87.916672000000005},"country":"HN","_id":3607511,"name":"La Lima"},{"coord":{"lat":46.992741000000002,"lon":-1.5972200000000001},"country":"FR","_id":3008470,"name":"La Limouziniere"},{"coord":{"lat":-35.076678999999999,"lon":-60.591019000000003},"country":"AR","_id":3850355,"name":"La Limpia"},{"coord":{"lat":36.168090999999997,"lon":-5.3477699999999997},"country":"ES","_id":2515812,"name":"La Linea de la Concepcion"},{"coord":{"lat":20.466669,"lon":-100.150002},"country":"MX","_id":4001597,"name":"La Lira"},{"coord":{"lat":41.514350999999998,"lon":2.1929699999999999},"country":"ES","_id":3119531,"name":"La Llagosta"},{"coord":{"lat":1.48997,"lon":-77.583472999999998},"country":"CO","_id":3678575,"name":"La Llanada"},{"coord":{"lat":20.466669,"lon":-99.997223000000005},"country":"MX","_id":3825948,"name":"La Llave"},{"coord":{"lat":21.033331,"lon":-102.533333},"country":"MX","_id":4001593,"name":"La Llave"},{"coord":{"lat":56.483508999999998,"lon":-109.434883},"country":"CA","_id":6048854,"name":"La Loche"},{"coord":{"lat":44.957740999999999,"lon":7.6673200000000001},"country":"IT","_id":3175228,"name":"La Loggia"},{"coord":{"lat":8.1666699999999999,"lon":-80.633330999999998},"country":"PA","_id":3707311,"name":"La Loma"},{"coord":{"lat":43.137138,"lon":6.2349899999999998},"country":"FR","_id":3008432,"name":"La Londe-les-Maures"},{"coord":{"lat":50.289391000000002,"lon":3.8567200000000001},"country":"FR","_id":3008426,"name":"La Longueville"},{"coord":{"lat":50.567267999999999,"lon":5.6787299999999998},"country":"BE","_id":2793512,"name":"La Lonhienne"},{"coord":{"lat":44.371428999999999,"lon":2.66825},"country":"FR","_id":3008421,"name":"La Loubiere"},{"coord":{"lat":48.473202000000001,"lon":1.0158400000000001},"country":"FR","_id":3008418,"name":"La Loupe"},{"coord":{"lat":50.486567999999998,"lon":4.1878500000000001},"country":"BE","_id":2793508,"name":"La Louviere"},{"coord":{"lat":50.473480000000002,"lon":4.15632},"country":"BE","_id":2793509,"name":"La Louvière"},{"coord":{"lat":22.983329999999999,"lon":-82.416672000000005},"country":"CU","_id":3552838,"name":"La Luisa"},{"coord":{"lat":18.448839,"lon":-66.509888000000004},"country":"PR","_id":4565780,"name":"La Luisa"},{"coord":{"lat":37.526020000000003,"lon":-5.2488299999999999},"country":"ES","_id":2515801,"name":"La Luisiana"},{"coord":{"lat":28.366671,"lon":-16.533331},"country":"ES","_id":2515800,"name":"La Luz"},{"coord":{"lat":32.977871,"lon":-105.94193300000001},"country":"US","_id":5474895,"name":"La Luz"},{"coord":{"lat":8.39419,"lon":-69.823577999999998},"country":"VE","_id":3637311,"name":"La Luz"},{"coord":{"lat":44.208950000000002,"lon":-0.21201},"country":"FR","_id":3008497,"name":"La Légue"},{"coord":{"lat":2.1836700000000002,"lon":-73.784851000000003},"country":"CO","_id":3827693,"name":"La Macarena"},{"coord":{"lat":46.892262000000002,"lon":3.4642599999999999},"country":"FR","_id":3008391,"name":"La Machine"},{"coord":{"lat":41.214241000000001,"lon":9.4083299999999994},"country":"IT","_id":3175217,"name":"La Maddalena"},{"coord":{"lat":50.650002000000001,"lon":3.0666699999999998},"country":"FR","_id":6614176,"name":"La Madeleine"},{"coord":{"lat":50.646030000000003,"lon":3.07585},"country":"FR","_id":3008379,"name":"La Madeleine"},{"coord":{"lat":48.466670999999998,"lon":0.90000000000000002},"country":"FR","_id":6456297,"name":"La Madeleine-Bouvet"},{"coord":{"lat":48.471611000000003,"lon":0.90232000000000001},"country":"FR","_id":3008378,"name":"La Madeleine-Bouvet"},{"coord":{"lat":48.772979999999997,"lon":1.20252},"country":"FR","_id":3008377,"name":"La Madeleine-de-Nonancourt"},{"coord":{"lat":37.648978999999997,"lon":-1.07728},"country":"ES","_id":2515798,"name":"La Magdalena"},{"coord":{"lat":45.809958999999999,"lon":7.6187100000000001},"country":"IT","_id":3175210,"name":"La Magdeleine"},{"coord":{"lat":49.483082000000003,"lon":0.77029999999999998},"country":"FR","_id":3008353,"name":"La Mailleraye-sur-Seine"},{"coord":{"lat":50.332698999999998,"lon":4.2793299999999999},"country":"BE","_id":2793497,"name":"La Maladrie"},{"coord":{"lat":47.657532000000003,"lon":-70.155936999999994},"country":"CA","_id":6945986,"name":"La Malbaie"},{"coord":{"lat":48.852508999999998,"lon":2.5116499999999999},"country":"FR","_id":3008319,"name":"La Maltournée"},{"coord":{"lat":-0.93332999999999999,"lon":-79.216667000000001},"country":"EC","_id":3655117,"name":"La Mana"},{"coord":{"lat":4.8833299999999999,"lon":-74.016670000000005},"country":"CO","_id":3678502,"name":"La Mana"},{"coord":{"lat":49.066668999999997,"lon":-1.06667},"country":"FR","_id":6456127,"name":"La Mancellière-sur-Vire"},{"coord":{"lat":49.06897,"lon":-1.07057},"country":"FR","_id":3008316,"name":"La Mancellière-sur-Vire"},{"coord":{"lat":29.08333,"lon":-111.033333},"country":"MX","_id":4001478,"name":"La Manga"},{"coord":{"lat":37.641289,"lon":-0.71650999999999998},"country":"ES","_id":6355177,"name":"La Manga del Mar Menor"},{"coord":{"lat":18.799999,"lon":-103.849998},"country":"MX","_id":4001464,"name":"La Manzanilla"},{"coord":{"lat":49.633330999999998,"lon":-1.56667},"country":"FR","_id":3231153,"name":"La Mare de Tourlaville"},{"coord":{"lat":38.146172,"lon":-0.64595999999999998},"country":"ES","_id":2515783,"name":"La Marina"},{"coord":{"lat":29.368569999999998,"lon":-94.971312999999995},"country":"US","_id":4704027,"name":"La Marque"},{"coord":{"lat":-35.673599000000003,"lon":-64.939971999999997},"country":"AR","_id":3849980,"name":"La Maruja"},{"coord":{"lat":45.308731000000002,"lon":-0.78095999999999999},"country":"FR","_id":3008293,"name":"La Maréchale"},{"coord":{"lat":15.616669999999999,"lon":-87.116669000000002},"country":"HN","_id":3607419,"name":"La Masica"},{"coord":{"lat":42.544991000000003,"lon":1.5148299999999999},"country":"AD","_id":3040132,"name":"la Massana"},{"coord":{"lat":45.549999,"lon":3.75},"country":"FR","_id":3008253,"name":"La Masse"},{"coord":{"lat":8.0833300000000001,"lon":-80.883330999999998},"country":"PA","_id":3707249,"name":"La Mata"},{"coord":{"lat":43.244830999999998,"lon":-3.26457},"country":"ES","_id":3119441,"name":"La Matanza"},{"coord":{"lat":28.445119999999999,"lon":-16.449739000000001},"country":"ES","_id":6360632,"name":"La Matanza de Acentejo"},{"coord":{"lat":28.452418999999999,"lon":-16.447201},"country":"ES","_id":2515772,"name":"La Matanza de Acentejo"},{"coord":{"lat":49.183331000000003,"lon":-1.1166700000000001},"country":"FR","_id":6456128,"name":"La Meauffe"},{"coord":{"lat":49.176430000000003,"lon":-1.1111899999999999},"country":"FR","_id":3008193,"name":"La Meauffe"},{"coord":{"lat":48.499329000000003,"lon":-2.8384999999999998},"country":"FR","_id":3008192,"name":"La Meaugon"},{"coord":{"lat":47.516998000000001,"lon":-0.66861000000000004},"country":"FR","_id":3008189,"name":"La Meignanne"},{"coord":{"lat":46.740589,"lon":-0.84499999999999997},"country":"FR","_id":3008186,"name":"La Meilleraie-Tillay"},{"coord":{"lat":47.55941,"lon":-1.4019999999999999},"country":"FR","_id":3008185,"name":"La Meilleraye-de-Bretagne"},{"coord":{"lat":40.033329000000002,"lon":-2.0833300000000001},"country":"ES","_id":3119429,"name":"La Melgosa"},{"coord":{"lat":47.437190999999999,"lon":0.63163000000000002},"country":"FR","_id":3008177,"name":"La Membrolle-sur-Choisille"},{"coord":{"lat":47.559910000000002,"lon":-0.67235999999999996},"country":"FR","_id":3008176,"name":"La Membrolle-sur-Longuenee"},{"coord":{"lat":-24.311871,"lon":-64.963768000000002},"country":"AR","_id":3849924,"name":"La Mendieta"},{"coord":{"lat":47.400002000000001,"lon":-0.26667000000000002},"country":"FR","_id":3008166,"name":"La Menitre"},{"coord":{"lat":5.4019399999999997,"lon":-75.884720000000002},"country":"CO","_id":3678415,"name":"La Merced"},{"coord":{"lat":4.6212999999999997,"lon":-74.069220999999999},"country":"CO","_id":3678413,"name":"La Merced"},{"coord":{"lat":-29.639178999999999,"lon":31.131060000000002},"country":"ZA","_id":984896,"name":"La Mercy"},{"coord":{"lat":5.2666700000000004,"lon":-73.916672000000005},"country":"CO","_id":3678405,"name":"La Mesa"},{"coord":{"lat":32.767829999999996,"lon":-117.023079},"country":"US","_id":5363990,"name":"La Mesa"},{"coord":{"lat":9.1833299999999998,"lon":-79.266670000000005},"country":"PA","_id":3707220,"name":"La Mesa"},{"coord":{"lat":8.1500000000000004,"lon":-81.183327000000006},"country":"PA","_id":3707227,"name":"La Mesa"},{"coord":{"lat":35.948360000000001,"lon":-106.07058000000001},"country":"US","_id":5474935,"name":"La Mesilla"},{"coord":{"lat":48.523499000000001,"lon":0.43369999999999997},"country":"FR","_id":6617254,"name":"La Mesnière"},{"coord":{"lat":48.533329000000002,"lon":0.43332999999999999},"country":"FR","_id":3008168,"name":"La Mesnière"},{"coord":{"lat":48.849997999999999,"lon":-1.3999999999999999},"country":"FR","_id":6456151,"name":"La Meurdraquière"},{"coord":{"lat":48.849170999999998,"lon":-1.40892},"country":"FR","_id":3008144,"name":"La Meurdraquière"},{"coord":{"lat":45.198120000000003,"lon":1.0073399999999999},"country":"FR","_id":3008142,"name":"La Meysselie"},{"coord":{"lat":48.218280999999998,"lon":-1.7551399999999999},"country":"FR","_id":3008140,"name":"La Meziere"},{"coord":{"lat":42.013142000000002,"lon":-7.0467500000000003},"country":"ES","_id":3119424,"name":"La Mezquita"},{"coord":{"lat":42.181331999999998,"lon":2.6289799999999999},"country":"ES","_id":3119423,"name":"La Miana"},{"coord":{"lat":48.366669000000002,"lon":0.45000000000000001},"country":"FR","_id":3008138,"name":"La Michotière"},{"coord":{"lat":10.11881,"lon":-70.166297999999998},"country":"VE","_id":3767884,"name":"La Miel"},{"coord":{"lat":48.063141000000002,"lon":0.13428000000000001},"country":"FR","_id":3008133,"name":"La Milesse"},{"coord":{"lat":15.31667,"lon":-87.833327999999995},"country":"HN","_id":3607381,"name":"La Mina"},{"coord":{"lat":18.683330999999999,"lon":-102.283333},"country":"MX","_id":4001325,"name":"La Mira Tumbiscatio"},{"coord":{"lat":33.91724,"lon":-118.01200900000001},"country":"US","_id":5364007,"name":"La Mirada"},{"coord":{"lat":8.8422199999999993,"lon":-79.786666999999994},"country":"PA","_id":3707150,"name":"La Mitra"},{"coord":{"lat":36.674461000000001,"lon":10.156330000000001},"country":"TN","_id":2473499,"name":"La Mohammedia"},{"coord":{"lat":37.292332000000002,"lon":-2.4373},"country":"ES","_id":2515755,"name":"La Mojonera"},{"coord":{"lat":9.6548599999999993,"lon":-84.619522000000003},"country":"CR","_id":3623183,"name":"La Mona"},{"coord":{"lat":-6.7863899999999999,"lon":-79.822220000000002},"country":"PE","_id":3695731,"name":"La Mona"},{"coord":{"lat":20.266670000000001,"lon":-100.800003},"country":"MX","_id":4001301,"name":"La Moncada"},{"coord":{"lat":45.866669000000002,"lon":3.6000000000000001},"country":"FR","_id":3008107,"name":"La Monnerie-le-Montel"},{"coord":{"lat":47.186520000000002,"lon":-1.68272},"country":"FR","_id":3008096,"name":"La Montagne"},{"coord":{"lat":1.4765999999999999,"lon":-75.439796000000001},"country":"CO","_id":3678363,"name":"La Montanita"},{"coord":{"lat":28.633329,"lon":-17.75},"country":"ES","_id":2515750,"name":"La Montaña"},{"coord":{"lat":38.774180999999999,"lon":-93.425208999999995},"country":"US","_id":4393983,"name":"La Monte"},{"coord":{"lat":41.129489999999997,"lon":1.3456999999999999},"country":"ES","_id":7290706,"name":"La Mora"},{"coord":{"lat":48.616889999999998,"lon":-77.63279},"country":"CA","_id":6049078,"name":"La Morandière"},{"coord":{"lat":41.264000000000003,"lon":0.83942000000000005},"country":"ES","_id":6361338,"name":"la Morera de Montsant"},{"coord":{"lat":41.265289000000003,"lon":0.84157000000000004},"country":"ES","_id":3119397,"name":"la Morera de Montsant"},{"coord":{"lat":44.638438999999998,"lon":7.9325400000000004},"country":"IT","_id":3175184,"name":"La Morra"},{"coord":{"lat":46.820160000000001,"lon":6.5671099999999996},"country":"CH","_id":7670242,"name":"La Mothe"},{"coord":{"lat":46.615859999999998,"lon":-1.6593800000000001},"country":"FR","_id":3008052,"name":"La Mothe-Achard"},{"coord":{"lat":46.359341000000001,"lon":-0.11236},"country":"FR","_id":3008040,"name":"La Mothe-Saint-Heray"},{"coord":{"lat":48.333480999999999,"lon":-78.116241000000002},"country":"CA","_id":6049087,"name":"La Motte"},{"coord":{"lat":43.491421000000003,"lon":6.5368899999999996},"country":"FR","_id":3008037,"name":"La Motte"},{"coord":{"lat":46.495941000000002,"lon":3.9639600000000002},"country":"FR","_id":3008000,"name":"La Motte-Saint-Jean"},{"coord":{"lat":44.951309000000002,"lon":5.71814},"country":"FR","_id":3007999,"name":"La Motte-Saint-Martin"},{"coord":{"lat":45.599997999999999,"lon":5.8833299999999999},"country":"FR","_id":6456414,"name":"La Motte-Servolex"},{"coord":{"lat":45.594158,"lon":5.87575},"country":"FR","_id":3007998,"name":"La Motte-Servolex"},{"coord":{"lat":45.966670999999998,"lon":3.1499999999999999},"country":"FR","_id":6456334,"name":"La Moutade"},{"coord":{"lat":45.966309000000003,"lon":3.1604100000000002},"country":"FR","_id":3007980,"name":"La Moutade"},{"coord":{"lat":49.499721999999998,"lon":-2.51389},"country":"GG","_id":6420452,"name":"La Moye"},{"coord":{"lat":41.580139000000003,"lon":-1.1171899999999999},"country":"ES","_id":3119384,"name":"La Muela"},{"coord":{"lat":8.7828199999999992,"lon":-75.378883000000002},"country":"CO","_id":3678345,"name":"La Muerte"},{"coord":{"lat":8.5708400000000005,"lon":-70.375236999999998},"country":"VE","_id":3486930,"name":"La Mula"},{"coord":{"lat":45.725898999999998,"lon":4.8071200000000003},"country":"FR","_id":3007963,"name":"La Mulatiere"},{"coord":{"lat":38.177441000000002,"lon":-0.96975999999999996},"country":"ES","_id":2515729,"name":"La Murada"},{"coord":{"lat":44.902560999999999,"lon":5.7865900000000003},"country":"FR","_id":3007957,"name":"La Mure"},{"coord":{"lat":45.380980999999998,"lon":5.5402800000000001},"country":"FR","_id":3007950,"name":"La Murette"},{"coord":{"lat":37.827739999999999,"lon":-1.2107300000000001},"country":"ES","_id":2515727,"name":"La Murta"},{"coord":{"lat":40.630890000000001,"lon":-3.8786900000000002},"country":"ES","_id":6615320,"name":"La Nava"},{"coord":{"lat":39.063277999999997,"lon":-6.5052500000000002},"country":"ES","_id":2515717,"name":"La Nava de Santiago"},{"coord":{"lat":47.075297999999997,"lon":7.1016399999999997},"country":"CH","_id":7286256,"name":"La Neuveville"},{"coord":{"lat":47.068401000000001,"lon":7.0995499999999998},"country":"CH","_id":2660038,"name":"La Neuveville"},{"coord":{"lat":-35.407150000000001,"lon":-61.206958999999998},"country":"AR","_id":3849736,"name":"La Niña"},{"coord":{"lat":48.582431999999997,"lon":2.2618},"country":"FR","_id":3007582,"name":"La Norville"},{"coord":{"lat":42.166671999999998,"lon":1.8833299999999999},"country":"ES","_id":3119319,"name":"la Nou de Berguedà"},{"coord":{"lat":38.613522000000003,"lon":-0.12772},"country":"ES","_id":6355469,"name":"La Nucia"},{"coord":{"lat":38.613720000000001,"lon":-0.12690000000000001},"country":"ES","_id":2515701,"name":"la Nucia"},{"coord":{"lat":43.460678000000001,"lon":-1.5449299999999999},"country":"FR","_id":3007799,"name":"La Négresse"},{"coord":{"lat":-33.266669999999998,"lon":-66.383330999999998},"country":"AR","_id":3849769,"name":"La Nélida"},{"coord":{"lat":28.610519,"lon":-13.929119999999999},"country":"ES","_id":2515698,"name":"La Oliva"},{"coord":{"lat":17.983329999999999,"lon":-102.23333},"country":"MX","_id":4001056,"name":"La Orilla"},{"coord":{"lat":28.39076,"lon":-16.52309},"country":"ES","_id":2515692,"name":"La Orotava"},{"coord":{"lat":-11.518929999999999,"lon":-75.899353000000005},"country":"PE","_id":3936952,"name":"La Oroya"},{"coord":{"lat":8.4933329999999998,"lon":-71.548889000000003},"country":"VE","_id":3797347,"name":"La Otra Banda"},{"coord":{"lat":46.175441999999997,"lon":3.8719600000000001},"country":"FR","_id":3007471,"name":"La Pacaudiere"},{"coord":{"lat":46.467998999999999,"lon":2.7009500000000002},"country":"FR","_id":3007460,"name":"La Palisse"},{"coord":{"lat":-12.116669999999999,"lon":-77.016670000000005},"country":"PE","_id":3936947,"name":"La Palma"},{"coord":{"lat":8.4027799999999999,"lon":-78.145279000000002},"country":"PA","_id":3707058,"name":"La Palma"},{"coord":{"lat":19.283331,"lon":-103.58332799999999},"country":"MX","_id":4001037,"name":"La Palma"},{"coord":{"lat":33.846401,"lon":-118.04673},"country":"US","_id":5364022,"name":"La Palma"},{"coord":{"lat":7.7166699999999997,"lon":-80.383330999999998},"country":"PA","_id":3707063,"name":"La Palma"},{"coord":{"lat":37.386051000000002,"lon":-6.5523100000000003},"country":"ES","_id":2515679,"name":"La Palma del Condado"},{"coord":{"lat":-34.883330999999998,"lon":-71.316672999999994},"country":"CL","_id":3885137,"name":"La Palmilla"},{"coord":{"lat":-13.755559999999999,"lon":-76.224997999999999},"country":"PE","_id":3964722,"name":"La Palmilla"},{"coord":{"lat":-34.666671999999998,"lon":-54.166671999999998},"country":"UY","_id":3442105,"name":"La Paloma"},{"coord":{"lat":-32.716670999999998,"lon":-55.599997999999999},"country":"UY","_id":3442106,"name":"La Paloma"},{"coord":{"lat":26.045909999999999,"lon":-97.667488000000006},"country":"US","_id":4704067,"name":"La Paloma"},{"coord":{"lat":-30.894158999999998,"lon":-63.001067999999997},"country":"AR","_id":3849557,"name":"La Para"},{"coord":{"lat":37.418441999999999,"lon":-1.99726},"country":"ES","_id":2515676,"name":"La Parata"},{"coord":{"lat":42.416671999999998,"lon":0.18332999999999999},"country":"ES","_id":3119274,"name":"La Pardina"},{"coord":{"lat":17.974969999999999,"lon":-67.046570000000003},"country":"PR","_id":4565796,"name":"La Parguera"},