[{"coord":{"lat":51.449429000000002,"lon":5.5192600000000001},"country":"NL","_id":2746354,"name":"t Hofke"},{"coord":{"lat":5.2842000000000002,"lon":153.64799500000001},"country":"FM","_id":7645381,"name":"Ta"},{"coord":{"lat":11.48333,"lon":104.949997},"country":"KH","_id":1821935,"name":"Ta Khmau"},{"coord":{"lat":5.2842000000000002,"lon":153.6465},"country":"FM","_id":7626984,"name":"Ta Municipality"},{"coord":{"lat":14.003080000000001,"lon":102.805412},"country":"TH","_id":1605742,"name":"Ta Phraya"},{"coord":{"lat":35.899169999999998,"lon":14.494440000000001},"country":"MT","_id":2562320,"name":"Ta Xbiex"},{"coord":{"lat":47.261668999999998,"lon":124.023888},"country":"CN","_id":2045548,"name":"Ta-pa-hu-t’un"},{"coord":{"lat":-8.5183999999999997,"lon":118.841103},"country":"ID","_id":7378284,"name":"Taa"},{"coord":{"lat":-26.58333,"lon":151.83332799999999},"country":"AU","_id":2147692,"name":"Taabinga"},{"coord":{"lat":53.150002000000001,"lon":9.1999999999999993},"country":"DE","_id":2824442,"name":"Taaken"},{"coord":{"lat":13.9,"lon":120.93332700000001},"country":"PH","_id":1685148,"name":"Taal"},{"coord":{"lat":13.87992,"lon":120.92311100000001},"country":"PH","_id":1685146,"name":"Taal"},{"coord":{"lat":54.566699999999997,"lon":9.6833299999999998},"country":"DE","_id":6552002,"name":"Taarstedt"},{"coord":{"lat":54.566668999999997,"lon":9.6833299999999998},"country":"DE","_id":2824441,"name":"Taarstedt"},{"coord":{"lat":55.651730000000001,"lon":12.292160000000001},"country":"DK","_id":2611828,"name":"Taastrup"},{"coord":{"lat":46.731349999999999,"lon":18.032008999999999},"country":"HU","_id":3044221,"name":"Tab"},{"coord":{"lat":16.299999,"lon":120.51667},"country":"PH","_id":1685125,"name":"Tabaan"},{"coord":{"lat":13.33333,"lon":123.716667},"country":"PH","_id":1685118,"name":"Tabaco"},{"coord":{"lat":13.358610000000001,"lon":123.73361199999999},"country":"PH","_id":1685117,"name":"Tabaco"},{"coord":{"lat":15.641400000000001,"lon":120.934898},"country":"PH","_id":1689433,"name":"Tabaco"},{"coord":{"lat":0.050000000000000003,"lon":-78.199996999999996},"country":"EC","_id":3650896,"name":"Tabacundo"},{"coord":{"lat":11.41667,"lon":-9.1999999999999993},"country":"GN","_id":2415161,"name":"Tabako"},{"coord":{"lat":16.219439999999999,"lon":-0.01917},"country":"ML","_id":2450534,"name":"Tabakor"},{"coord":{"lat":19.950001,"lon":42.400002000000001},"country":"SA","_id":101633,"name":"Tabalah"},{"coord":{"lat":9.6215700000000002,"lon":123.812309},"country":"PH","_id":1685102,"name":"Tabalong"},{"coord":{"lat":-6.3499999999999996,"lon":-76.683327000000006},"country":"PE","_id":3691638,"name":"Tabalosos"},{"coord":{"lat":44.716670999999998,"lon":-0.41666999999999998},"country":"FR","_id":6432479,"name":"Tabanac"},{"coord":{"lat":44.720588999999997,"lon":-0.40512999999999999},"country":"FR","_id":2973597,"name":"Tabanac"},{"coord":{"lat":-8.5412999999999997,"lon":115.125221},"country":"ID","_id":1625708,"name":"Tabanan"},{"coord":{"lat":42.008301000000003,"lon":-4.1049600000000002},"country":"ES","_id":6360117,"name":"Tabanera de Cerrato"},{"coord":{"lat":42.024689000000002,"lon":-4.1236100000000002},"country":"ES","_id":3108464,"name":"Tabanera de Cerrato"},{"coord":{"lat":42.654998999999997,"lon":-4.7053200000000004},"country":"ES","_id":6360118,"name":"Tabanera de Valdavia"},{"coord":{"lat":42.647281999999997,"lon":-4.69414},"country":"ES","_id":3108462,"name":"Tabanera de Valdavia"},{"coord":{"lat":40.938468999999998,"lon":-4.0658099999999999},"country":"ES","_id":3108463,"name":"Tabanera del Monte"},{"coord":{"lat":41.095570000000002,"lon":-4.24505},"country":"ES","_id":6360920,"name":"Tabanera la Luenga"},{"coord":{"lat":41.096469999999997,"lon":-4.2393700000000001},"country":"ES","_id":3108461,"name":"Tabanera la Luenga"},{"coord":{"lat":11.307700000000001,"lon":124.373001},"country":"PH","_id":1685071,"name":"Tabango"},{"coord":{"lat":38.755637999999998,"lon":41.689919000000003},"country":"TR","_id":299982,"name":"Tabanlı"},{"coord":{"lat":44.813609999999997,"lon":19.641390000000001},"country":"RS","_id":3189229,"name":"Tabanovic"},{"coord":{"lat":31.652550000000002,"lon":-6.4104900000000002},"country":"MA","_id":2532270,"name":"Tabant"},{"coord":{"lat":-20.964169999999999,"lon":-49.031669999999998},"country":"BR","_id":3447205,"name":"Tabapuã"},{"coord":{"lat":10.383330000000001,"lon":-61.299999},"country":"TT","_id":3573650,"name":"Tabaquite"},{"coord":{"lat":41.824581000000002,"lon":-5.9641999999999999},"country":"ES","_id":3108458,"name":"Tabara"},{"coord":{"lat":18.57,"lon":-70.879784000000001},"country":"DO","_id":3492557,"name":"Tabara Arriba"},{"coord":{"lat":36.954417999999997,"lon":8.7580100000000005},"country":"TN","_id":2464871,"name":"Tabarka"},{"coord":{"lat":50.883330999999998,"lon":10.51667},"country":"DE","_id":2824437,"name":"Tabarz"},{"coord":{"lat":33.595860000000002,"lon":56.924370000000003},"country":"IR","_id":113659,"name":"Tabas"},{"coord":{"lat":59.430278999999999,"lon":24.533059999999999},"country":"EE","_id":588454,"name":"Tabasalu"},{"coord":{"lat":21.866671,"lon":-102.91667200000001},"country":"MX","_id":3982729,"name":"Tabasco"},{"coord":{"lat":-4.2525000000000004,"lon":-69.938057000000001},"country":"BR","_id":3662075,"name":"Tabatinga"},{"coord":{"lat":-21.716669,"lon":-48.6875},"country":"BR","_id":3447200,"name":"Tabatinga"},{"coord":{"lat":8.6311,"lon":-71.078429999999997},"country":"VE","_id":3626595,"name":"Tabay"},{"coord":{"lat":29.116671,"lon":-13.466670000000001},"country":"ES","_id":2510747,"name":"Tabayesco"},{"coord":{"lat":-29.200001,"lon":153.26666299999999},"country":"AU","_id":2147688,"name":"Tabbimoble"},{"coord":{"lat":-34.099997999999999,"lon":145.85000600000001},"country":"AU","_id":2147687,"name":"Tabbita"},{"coord":{"lat":48.599997999999999,"lon":12.93333},"country":"DE","_id":2824435,"name":"Tabeckendorf"},{"coord":{"lat":42.659359000000002,"lon":-8.4593799999999995},"country":"ES","_id":3108452,"name":"Tabeirós"},{"coord":{"lat":49.549999,"lon":6.5833300000000001},"country":"DE","_id":6554796,"name":"Taben-Rodt"},{"coord":{"lat":49.549999,"lon":6.5833300000000001},"country":"DE","_id":2824431,"name":"Taben-Rodt"},{"coord":{"lat":49.816738000000001,"lon":-112.15181},"country":"CA","_id":6160919,"name":"Taber"},{"coord":{"lat":40.928150000000002,"lon":-6.0199400000000001},"country":"ES","_id":6360551,"name":"Tabera de Abajo"},{"coord":{"lat":40.910209999999999,"lon":-6.0022700000000002},"country":"ES","_id":3108450,"name":"Tabera de Abajo"},{"coord":{"lat":57.683331000000003,"lon":14.08333},"country":"SE","_id":2669788,"name":"Taberg"},{"coord":{"lat":37.048222000000003,"lon":-2.3626499999999999},"country":"ES","_id":6355600,"name":"Tabernas"},{"coord":{"lat":37.049919000000003,"lon":-2.3908399999999999},"country":"ES","_id":2510746,"name":"Tabernas"},{"coord":{"lat":37.480690000000003,"lon":-2.0550600000000001},"country":"ES","_id":6355601,"name":"Taberno"},{"coord":{"lat":37.468800000000002,"lon":-2.0773600000000001},"country":"ES","_id":6941410,"name":"Taberno"},{"coord":{"lat":48.733330000000002,"lon":12.883330000000001},"country":"DE","_id":2824428,"name":"Tabertshauserschwaig"},{"coord":{"lat":32.030090000000001,"lon":-6.7998500000000002},"country":"MA","_id":2532214,"name":"Tabia"},{"coord":{"lat":30.03462,"lon":-8.8768799999999999},"country":"MA","_id":2532230,"name":"Tabia"},{"coord":{"lat":6.02806,"lon":121.893547},"country":"PH","_id":1685006,"name":"Tabiauan"},{"coord":{"lat":8.1088900000000006,"lon":123.783058},"country":"PH","_id":1685003,"name":"Tabid"},{"coord":{"lat":-36.849997999999999,"lon":145.16667200000001},"country":"AU","_id":2147682,"name":"Tabilk"},{"coord":{"lat":7.4668999999999999,"lon":123.408096},"country":"PH","_id":1684990,"name":"Tabina"},{"coord":{"lat":13.4871,"lon":120.956596},"country":"PH","_id":1684989,"name":"Tabinay"},{"coord":{"lat":-0.87202999999999997,"lon":100.342789},"country":"ID","_id":1625693,"name":"Tabing"},{"coord":{"lat":11.4,"lon":124.349998},"country":"PH","_id":1684986,"name":"Tabing"},{"coord":{"lat":4.9172599999999997,"lon":-74.093643},"country":"CO","_id":3667629,"name":"Tabio"},{"coord":{"lat":16.850000000000001,"lon":120.800003},"country":"PH","_id":1684977,"name":"Tabio"},{"coord":{"lat":-7.5908300000000004,"lon":-37.539439999999999},"country":"BR","_id":3387082,"name":"Tabira"},{"coord":{"lat":58.554169000000002,"lon":26.595559999999999},"country":"EE","_id":793956,"name":"Tabivere"},{"coord":{"lat":58.582118999999999,"lon":26.622919},"country":"EE","_id":7522309,"name":"Tabivere vald"},{"coord":{"lat":17.216669,"lon":120.48333},"country":"PH","_id":1684967,"name":"Tablac"},{"coord":{"lat":43.118870000000001,"lon":-3.9066800000000002},"country":"ES","_id":3108433,"name":"Tablado"},{"coord":{"lat":6.6291700000000002,"lon":122.17472100000001},"country":"PH","_id":1957367,"name":"Tablas"},{"coord":{"lat":-35.966670999999998,"lon":147},"country":"AU","_id":2147657,"name":"Table Top"},{"coord":{"lat":-33.819130000000001,"lon":18.488099999999999},"country":"ZA","_id":3360687,"name":"Table View"},{"coord":{"lat":10.26667,"lon":-61.266669999999998},"country":"TT","_id":3573645,"name":"Tableland"},{"coord":{"lat":-17.310410000000001,"lon":144.00715600000001},"country":"AU","_id":7839395,"name":"Tablelands"},{"coord":{"lat":6.5833300000000001,"lon":1.5},"country":"TG","_id":2364041,"name":"Tabligbo"},{"coord":{"lat":42.709910999999998,"lon":-7.7481},"country":"ES","_id":6359218,"name":"Taboada"},{"coord":{"lat":42.683331000000003,"lon":-8.2166700000000006},"country":"ES","_id":3108426,"name":"Taboada"},{"coord":{"lat":42.699001000000003,"lon":-7.8229800000000003},"country":"ES","_id":3108425,"name":"Taboada"},{"coord":{"lat":42.247971,"lon":-7.8276899999999996},"country":"ES","_id":6359895,"name":"Taboadela"},{"coord":{"lat":42.242339999999999,"lon":-7.8271899999999999},"country":"ES","_id":3108422,"name":"Taboadela"},{"coord":{"lat":-23.626110000000001,"lon":-46.791671999999998},"country":"BR","_id":3447186,"name":"Taboao da Serra"},{"coord":{"lat":8.8783300000000001,"lon":124.797501},"country":"PH","_id":1684938,"name":"Taboc"},{"coord":{"lat":10.9412,"lon":124.028198},"country":"PH","_id":1684914,"name":"Tabogon"},{"coord":{"lat":15.2746,"lon":120.91280399999999},"country":"PH","_id":1684892,"name":"Tabon"},{"coord":{"lat":10.3019,"lon":123.325996},"country":"PH","_id":1684899,"name":"Tabon"},{"coord":{"lat":9.8041999999999998,"lon":123.456299},"country":"PH","_id":1684901,"name":"Tabon"},{"coord":{"lat":9.2387700000000006,"lon":117.994598},"country":"PH","_id":1684902,"name":"Tabon"},{"coord":{"lat":10.35,"lon":124.800003},"country":"PH","_id":1684877,"name":"Tabonoc"},{"coord":{"lat":10.8512,"lon":123.87660200000001},"country":"PH","_id":1684765,"name":"Tabonok"},{"coord":{"lat":11.04083,"lon":124.961113},"country":"PH","_id":1684871,"name":"Tabontabon"},{"coord":{"lat":3.09612,"lon":172.82311999999999},"country":"KI","_id":2110099,"name":"Tabonuea Village"},{"coord":{"lat":-28.133329,"lon":152.949997},"country":"AU","_id":2147642,"name":"Tabooba"},{"coord":{"lat":49.414409999999997,"lon":14.6578},"country":"CZ","_id":3064379,"name":"Tabor"},{"coord":{"lat":-37.833328000000002,"lon":142.199997},"country":"AU","_id":2147640,"name":"Tabor"},{"coord":{"lat":46.236111000000001,"lon":15.018330000000001},"country":"SI","_id":3189227,"name":"Tabor"},{"coord":{"lat":40.898330999999999,"lon":-95.671386999999996},"country":"US","_id":4878195,"name":"Tabor"},{"coord":{"lat":34.148781,"lon":-78.876694000000001},"country":"US","_id":4494408,"name":"Tabor City"},{"coord":{"lat":-5.0166700000000004,"lon":32.799999},"country":"TZ","_id":149658,"name":"Tabora"},{"coord":{"lat":-5.5,"lon":32.833328000000002},"country":"TZ","_id":149653,"name":"Tabora Region"},{"coord":{"lat":47.099418999999997,"lon":19.478370999999999},"country":"HU","_id":3044211,"name":"Taborfalva"},{"coord":{"lat":58.519821,"lon":64.549469000000002},"country":"RU","_id":1490364,"name":"Tabory"},{"coord":{"lat":40.568641999999997,"lon":69.641272999999998},"country":"TJ","_id":1514829,"name":"Taboshar"},{"coord":{"lat":-31.801349999999999,"lon":-59.934769000000003},"country":"AR","_id":3427885,"name":"Tabossi"},{"coord":{"lat":4.4229500000000002,"lon":-7.3528000000000002},"country":"CI","_id":2281120,"name":"Tabou"},{"coord":{"lat":34.719231000000001,"lon":-5.1402999999999999},"country":"MA","_id":2532195,"name":"Tabouda"},{"coord":{"lat":16.027100000000001,"lon":120.63690200000001},"country":"PH","_id":1681655,"name":"Taboy Norte"},{"coord":{"lat":-7.3609999999999998,"lon":108.1371},"country":"ID","_id":8023961,"name":"Tabrik"},{"coord":{"lat":38.080002,"lon":46.291901000000003},"country":"IR","_id":113646,"name":"Tabriz"},{"coord":{"lat":38.133330999999998,"lon":46.233330000000002},"country":"IR","_id":35056,"name":"Tabrīz Jānī"},{"coord":{"lat":9.8923000000000005,"lon":122.709801},"country":"PH","_id":1684857,"name":"Tabu"},{"coord":{"lat":9.5155600000000007,"lon":122.85056299999999},"country":"PH","_id":1684853,"name":"Tabuan"},{"coord":{"lat":15.389099999999999,"lon":120.938599},"country":"PH","_id":1684842,"name":"Tabuating"},{"coord":{"lat":41.629910000000002,"lon":-8.1837},"country":"PT","_id":8011294,"name":"Tabuaças"},{"coord":{"lat":41.095551,"lon":-7.5673500000000002},"country":"PT","_id":8010668,"name":"Tabuaço"},{"coord":{"lat":11.48333,"lon":122.81667299999999},"country":"PH","_id":1684828,"name":"Tabuc Pontevedra"},{"coord":{"lat":10.8209,"lon":123.86889600000001},"country":"PH","_id":1684821,"name":"Tabuelan"},{"coord":{"lat":41.682819000000002,"lon":-1.5223199999999999},"country":"ES","_id":6362935,"name":"Tabuenca"},{"coord":{"lat":41.695,"lon":-1.54335},"country":"ES","_id":3108417,"name":"Tabuenca"},{"coord":{"lat":18.034300000000002,"lon":120.54879800000001},"country":"PH","_id":1684818,"name":"Tabug"},{"coord":{"lat":28.383329,"lon":36.583328000000002},"country":"SA","_id":101628,"name":"Tabuk"},{"coord":{"lat":17.418900000000001,"lon":121.444298},"country":"PH","_id":1684803,"name":"Tabuk"},{"coord":{"lat":-28.899999999999999,"lon":152.566666},"country":"AU","_id":2147637,"name":"Tabulam"},{"coord":{"lat":-5.2466699999999999,"lon":-38.130561999999998},"country":"BR","_id":3386984,"name":"Tabuleiro do Norte"},{"coord":{"lat":10.77861,"lon":124.01222199999999},"country":"PH","_id":1684876,"name":"Tabunok"},{"coord":{"lat":52.777301999999999,"lon":78.789597000000001},"country":"RU","_id":1490356,"name":"Tabuny"},{"coord":{"lat":49.049999,"lon":33.25},"country":"UA","_id":691959,"name":"Taburishche"},{"coord":{"lat":36.456921000000001,"lon":9.2475100000000001},"country":"TN","_id":2464855,"name":"Tabursuq"},{"coord":{"lat":33.950001,"lon":132.066666},"country":"JP","_id":1851323,"name":"Tabuse"},{"coord":{"lat":2.0164300000000002,"lon":-157.48773199999999},"country":"KI","_id":7521902,"name":"Tabwakea Village"},{"coord":{"lat":59.443900999999997,"lon":18.068719999999999},"country":"SE","_id":2669772,"name":"Taby"},{"coord":{"lat":16.726400000000002,"lon":120.640503},"country":"PH","_id":1684746,"name":"Tacadang"},{"coord":{"lat":-8.3161100000000001,"lon":-36.293331000000002},"country":"BR","_id":3386971,"name":"Tacaimbó"},{"coord":{"lat":19.233329999999999,"lon":-101.466667},"country":"MX","_id":3982693,"name":"Tacambaro de Codallos"},{"coord":{"lat":15.449999999999999,"lon":-87.916672000000005},"country":"HN","_id":3601080,"name":"Tacamiche"},{"coord":{"lat":15.23333,"lon":-92.083327999999995},"country":"GT","_id":3588612,"name":"Tacana"},{"coord":{"lat":-27.137519999999999,"lon":-64.809287999999995},"country":"AR","_id":3834867,"name":"Tacanas"},{"coord":{"lat":-9.1052800000000005,"lon":-38.149169999999998},"country":"BR","_id":3386966,"name":"Tacaratu"},{"coord":{"lat":10.02998,"lon":-84.290099999999995},"country":"CR","_id":3621375,"name":"Tacares"},{"coord":{"lat":10.086209999999999,"lon":-67.919822999999994},"country":"VE","_id":3646062,"name":"Tacarigua"},{"coord":{"lat":-4.5065999999999997,"lon":120.184196},"country":"ID","_id":1625659,"name":"Taccipi"},{"coord":{"lat":46.02449,"lon":9.3639399999999995},"country":"IT","_id":3165996,"name":"Taceno"},{"coord":{"lat":28.506729,"lon":116.093727},"country":"CN","_id":1925231,"name":"Tacheng"},{"coord":{"lat":48.083302000000003,"lon":12.566700000000001},"country":"DE","_id":6556417,"name":"Tacherting"},{"coord":{"lat":48.083328000000002,"lon":12.56667},"country":"DE","_id":2824420,"name":"Tacherting"},{"coord":{"lat":33.400002000000001,"lon":130.616669},"country":"JP","_id":1851319,"name":"Tachiarai"},{"coord":{"lat":35.692779999999999,"lon":139.41806},"country":"JP","_id":1851307,"name":"Tachikawa"},{"coord":{"lat":47.966670999999998,"lon":12.73333},"country":"DE","_id":2824419,"name":"Taching am See"},{"coord":{"lat":49.795279999999998,"lon":12.633649999999999},"country":"CZ","_id":3064373,"name":"Tachov"},{"coord":{"lat":-22.389721000000002,"lon":-51.284720999999998},"country":"BR","_id":3447094,"name":"Taciba"},{"coord":{"lat":-6.4883300000000004,"lon":-35.637217999999997},"country":"BR","_id":3386961,"name":"Tacima"},{"coord":{"lat":40.525557999999997,"lon":29.739719000000001},"country":"TR","_id":739161,"name":"Tacir"},{"coord":{"lat":54.183300000000003,"lon":9.4833300000000005},"country":"DE","_id":6551925,"name":"Tackesdorf"},{"coord":{"lat":54.183331000000003,"lon":9.4833300000000005},"country":"DE","_id":2824412,"name":"Tackesdorf"},{"coord":{"lat":13.397500000000001,"lon":121.06259900000001},"country":"PH","_id":1684717,"name":"Tacligan"},{"coord":{"lat":11.25,"lon":125},"country":"PH","_id":1684711,"name":"Tacloban City"},{"coord":{"lat":12.30744,"lon":122.58601400000001},"country":"PH","_id":1684706,"name":"Taclobo"},{"coord":{"lat":-18.005559999999999,"lon":-70.248328999999998},"country":"PE","_id":3928128,"name":"Tacna"},{"coord":{"lat":-25.616671,"lon":-63.283329000000002},"country":"AR","_id":3834843,"name":"Taco Pozo"},{"coord":{"lat":48.836188999999997,"lon":1.6750100000000001},"country":"FR","_id":2973582,"name":"Tacoignieres"},{"coord":{"lat":48.833328000000002,"lon":1.68333},"country":"FR","_id":6424400,"name":"Tacoignières"},{"coord":{"lat":47.252879999999998,"lon":-122.44429},"country":"US","_id":5812944,"name":"Tacoma"},{"coord":{"lat":28.493839000000001,"lon":-16.41292},"country":"ES","_id":6360643,"name":"Tacoronte"},{"coord":{"lat":28.476879,"lon":-16.410160000000001},"country":"ES","_id":2510725,"name":"Tacoronte"},{"coord":{"lat":17.600000000000001,"lon":-92.816672999999994},"country":"MX","_id":3516439,"name":"Tacotalpa"},{"coord":{"lat":15.33333,"lon":-90.300003000000004},"country":"GT","_id":3588603,"name":"Tactic"},{"coord":{"lat":22.816669000000001,"lon":-102.41667200000001},"country":"MX","_id":3982668,"name":"Tacualeche"},{"coord":{"lat":-31.733329999999999,"lon":-55.983330000000002},"country":"UY","_id":3440034,"name":"Tacuarembo"},{"coord":{"lat":-28.417788999999999,"lon":-59.302120000000002},"country":"AR","_id":3427877,"name":"Tacuarendí"},{"coord":{"lat":-34.211491000000002,"lon":-60.308559000000002},"country":"AR","_id":3834826,"name":"Tacuarí"},{"coord":{"lat":-23.450001,"lon":-56.583328000000002},"country":"PY","_id":3436880,"name":"Tacuati"},{"coord":{"lat":11.70922,"lon":-69.835480000000004},"country":"VE","_id":3626547,"name":"Tacuato"},{"coord":{"lat":8.1875,"lon":124.108063},"country":"PH","_id":1684190,"name":"Tacub"},{"coord":{"lat":13.901109999999999,"lon":-89.929717999999994},"country":"SV","_id":3583065,"name":"Tacuba"},{"coord":{"lat":-30.846319000000001,"lon":-61.591918999999997},"country":"AR","_id":3834822,"name":"Tacural"},{"coord":{"lat":6.6833299999999998,"lon":124.68332700000001},"country":"PH","_id":1684682,"name":"Tacurong"},{"coord":{"lat":6.6924999999999999,"lon":124.67639200000001},"country":"PH","_id":1684681,"name":"Tacurong"},{"coord":{"lat":-23.6325,"lon":-55.015830999999999},"country":"BR","_id":3447088,"name":"Tacuru"},{"coord":{"lat":46.916671999999998,"lon":27.683330999999999},"country":"RO","_id":665636,"name":"Tacuta"},{"coord":{"lat":-8.6846999999999994,"lon":122.216202},"country":"ID","_id":7429821,"name":"Tadabliro"},{"coord":{"lat":37.349997999999999,"lon":139.316666},"country":"JP","_id":1851292,"name":"Tadami"},{"coord":{"lat":40.109951000000002,"lon":8.8835300000000004},"country":"IT","_id":3165995,"name":"Tadasuni"},{"coord":{"lat":53.883220999999999,"lon":-1.2634399999999999},"country":"GB","_id":2636335,"name":"Tadcaster"},{"coord":{"lat":48.483330000000002,"lon":-2.01667},"country":"FR","_id":6429164,"name":"Taden"},{"coord":{"lat":48.475299999999997,"lon":-2.01946},"country":"FR","_id":2973579,"name":"Taden"},{"coord":{"lat":16.483329999999999,"lon":80.599997999999999},"country":"IN","_id":1255265,"name":"Tadepalle"},{"coord":{"lat":16.83333,"lon":81.5},"country":"IN","_id":1255264,"name":"Tadepallegudem"},{"coord":{"lat":16.9956,"lon":120.820297},"country":"PH","_id":1684672,"name":"Tadian"},{"coord":{"lat":24.248328999999998,"lon":102.159172},"country":"CN","_id":1793738,"name":"Tadianjie"},{"coord":{"lat":36.348140999999998,"lon":37.530898999999998},"country":"SY","_id":163811,"name":"Tadif"},{"coord":{"lat":-21.549999,"lon":167.883331},"country":"NC","_id":2138285,"name":"Tadine"},{"coord":{"lat":36.121288,"lon":5.9866999999999999},"country":"DZ","_id":2478876,"name":"Tadjenanet"},{"coord":{"lat":11.78528,"lon":42.884441000000002},"country":"DJ","_id":220782,"name":"Tadjoura"},{"coord":{"lat":49.911388000000002,"lon":5.9955600000000002},"country":"LU","_id":2960046,"name":"Tadler"},{"coord":{"lat":51.350448999999998,"lon":-1.1285000000000001},"country":"GB","_id":2636333,"name":"Tadley"},{"coord":{"lat":36.744129000000001,"lon":3.9004500000000002},"country":"DZ","_id":2478831,"name":"Tadmait"},{"coord":{"lat":51.833278999999997,"lon":-102.484253},"country":"CA","_id":6161048,"name":"Tadmore"},{"coord":{"lat":34.560768000000003,"lon":38.280548000000003},"country":"SY","_id":163808,"name":"Tadmur"},{"coord":{"lat":5.2659799999999999,"lon":-76.564873000000006},"country":"CO","_id":3667579,"name":"Tado"},{"coord":{"lat":-8.7015999999999991,"lon":120.595596},"country":"ID","_id":7414991,"name":"Tado"},{"coord":{"lat":34.275002000000001,"lon":133.75},"country":"JP","_id":1851282,"name":"Tadotsu"},{"coord":{"lat":26.371570999999999,"lon":118.229721},"country":"CN","_id":1793737,"name":"Tadou"},{"coord":{"lat":48.150002000000001,"lon":-69.716667000000001},"country":"CA","_id":6639665,"name":"Tadoussac"},{"coord":{"lat":14.91667,"lon":78.016670000000005},"country":"IN","_id":1255254,"name":"Tadpatri"},{"coord":{"lat":30.774771000000001,"lon":-9.4595099999999999},"country":"MA","_id":2531994,"name":"Tadrart"},{"coord":{"lat":47.750771,"lon":17.001208999999999},"country":"AT","_id":7871593,"name":"Tadten"},{"coord":{"lat":47.766669999999998,"lon":16.983329999999999},"country":"AT","_id":2763960,"name":"Tadten"},{"coord":{"lat":51.291119000000002,"lon":-0.23585999999999999},"country":"GB","_id":2636331,"name":"Tadworth"},{"coord":{"lat":37.175899999999999,"lon":128.98890700000001},"country":"KR","_id":1835515,"name":"Taebaek"},{"coord":{"lat":35.799999,"lon":128.550003},"country":"KR","_id":1835327,"name":"Taegu-gwangyŏksi"},{"coord":{"lat":36.333328000000002,"lon":127.41667200000001},"country":"KR","_id":1835224,"name":"Taejŏn-gwangyŏksi"},{"coord":{"lat":36.971401,"lon":126.454201},"country":"KR","_id":1835096,"name":"Taesal-li"},{"coord":{"lat":42.524749999999997,"lon":-1.7055800000000001},"country":"ES","_id":6359774,"name":"Tafalla"},{"coord":{"lat":42.526859000000002,"lon":-1.6744600000000001},"country":"ES","_id":3108412,"name":"Tafalla"},{"coord":{"lat":29.780639999999998,"lon":117.66422300000001},"country":"CN","_id":1793729,"name":"Tafang"},{"coord":{"lat":32.735641000000001,"lon":36.066940000000002},"country":"SY","_id":163806,"name":"Tafas"},{"coord":{"lat":-19.5,"lon":169.5},"country":"VU","_id":2134739,"name":"Tafea Province"},{"coord":{"lat":25.354071000000001,"lon":112.18987300000001},"country":"CN","_id":1804463,"name":"Tafeng"},{"coord":{"lat":48.849719999999998,"lon":9.8382400000000008},"country":"DE","_id":2824393,"name":"Taferrot"},{"coord":{"lat":46.814830999999998,"lon":7.2185199999999998},"country":"CH","_id":2658433,"name":"Tafers"},{"coord":{"lat":31.538549,"lon":35.049660000000003},"country":"PS","_id":281690,"name":"Taffuh"},{"coord":{"lat":-26.852751000000001,"lon":-65.709830999999994},"country":"AR","_id":3834814,"name":"Tafi del Valle"},{"coord":{"lat":-26.732009999999999,"lon":-65.259208999999998},"country":"AR","_id":3834813,"name":"Tafi Viejo"},{"coord":{"lat":28.071149999999999,"lon":-15.44952},"country":"ES","_id":2510723,"name":"Tafira Baja"},{"coord":{"lat":6.7345300000000003,"lon":-1.6127499999999999},"country":"GH","_id":2294938,"name":"Tafo"},{"coord":{"lat":29.724488999999998,"lon":-8.9747000000000003},"country":"MA","_id":2531877,"name":"Tafraout"},{"coord":{"lat":34.692000999999998,"lon":50.012999999999998},"country":"IR","_id":113636,"name":"Tafresh"},{"coord":{"lat":31.747101000000001,"lon":54.208820000000003},"country":"IR","_id":113632,"name":"Taft"},{"coord":{"lat":11.901109999999999,"lon":125.418892},"country":"PH","_id":1684659,"name":"Taft"},{"coord":{"lat":28.429728999999998,"lon":-81.365066999999996},"country":"US","_id":4174700,"name":"Taft"},{"coord":{"lat":27.978909999999999,"lon":-97.398598000000007},"country":"US","_id":4735458,"name":"Taft"},{"coord":{"lat":35.142471,"lon":-119.456512},"country":"US","_id":5400877,"name":"Taft"},{"coord":{"lat":35.134689000000002,"lon":-119.472618},"country":"US","_id":5400890,"name":"Taft Heights"},{"coord":{"lat":37.913848999999999,"lon":-121.283157},"country":"US","_id":7262653,"name":"Taft Mosswood"},{"coord":{"lat":27.973908999999999,"lon":-97.403053},"country":"US","_id":4735467,"name":"Taft Southwest (historical)"},{"coord":{"lat":63.833328000000002,"lon":20.483329999999999},"country":"SE","_id":602426,"name":"Taftea"},{"coord":{"lat":-14.33583,"lon":-170.720001},"country":"AS","_id":5881192,"name":"Tafuna"},{"coord":{"lat":5.3670999999999998,"lon":162.985321},"country":"FM","_id":7648250,"name":"Tafunsak"},{"coord":{"lat":5.3499299999999996,"lon":162.96965},"country":"FM","_id":7626934,"name":"Tafunsak Municipality"},{"coord":{"lat":35.226340999999998,"lon":136.28625500000001},"country":"JP","_id":1851279,"name":"Taga"},{"coord":{"lat":46.950001,"lon":24.049999},"country":"RO","_id":665628,"name":"Taga"},{"coord":{"lat":34.855010999999998,"lon":69.649169999999998},"country":"AF","_id":1123424,"name":"Tagab"},{"coord":{"lat":7.1127799999999999,"lon":125.429169},"country":"PH","_id":1684629,"name":"Tagakpan"},{"coord":{"lat":41.740101000000003,"lon":2.2664900000000001},"country":"ES","_id":6356295,"name":"Tagamanent"},{"coord":{"lat":41.737468999999997,"lon":2.2671999999999999},"country":"ES","_id":3108411,"name":"Tagamanent"},{"coord":{"lat":9.6972199999999997,"lon":125.58556400000001},"country":"PH","_id":1684610,"name":"Tagana-an"},{"coord":{"lat":6.0833300000000001,"lon":118.300003},"country":"PH","_id":1684606,"name":"Taganak"},{"coord":{"lat":47.236172000000003,"lon":38.896881},"country":"RU","_id":484907,"name":"Taganrog"},{"coord":{"lat":55.733333999999999,"lon":37.666668000000001},"country":"RU","_id":484912,"name":"Taganskiy"},{"coord":{"lat":55.685927999999997,"lon":37.070332000000001},"country":"RU","_id":484910,"name":"Tagan’kovo"},{"coord":{"lat":12.050000000000001,"lon":124.150002},"country":"PH","_id":1684583,"name":"Tagapul-an"},{"coord":{"lat":13.16667,"lon":123.716667},"country":"PH","_id":1684577,"name":"Tagas"},{"coord":{"lat":7.3025000000000002,"lon":122.25861399999999},"country":"PH","_id":1684348,"name":"Tagasilay"},{"coord":{"lat":35.699409000000003,"lon":66.061638000000002},"country":"AF","_id":1123343,"name":"Tagaw-Bay"},{"coord":{"lat":33.633330999999998,"lon":130.800003},"country":"JP","_id":1851273,"name":"Tagawa"},{"coord":{"lat":14.10594,"lon":120.933723},"country":"PH","_id":1684552,"name":"Tagaytay City"},{"coord":{"lat":13.63222,"lon":122.36389200000001},"country":"PH","_id":1684538,"name":"Tagbacan Ibaba"},{"coord":{"lat":13.841659999999999,"lon":120.088722},"country":"PH","_id":1684542,"name":"Tagbak"},{"coord":{"lat":9.6475000000000009,"lon":123.85556},"country":"PH","_id":1684497,"name":"Tagbilaran City"},{"coord":{"lat":9.6500000000000004,"lon":123.849998},"country":"PH","_id":1684495,"name":"Tagbilaran City"},{"coord":{"lat":8.4519400000000005,"lon":126.171387},"country":"PH","_id":1684491,"name":"Tagbina"},{"coord":{"lat":8.6753199999999993,"lon":117.33989699999999},"country":"PH","_id":1684759,"name":"Tagbita"},{"coord":{"lat":11.1257,"lon":124.40280199999999},"country":"PH","_id":1684466,"name":"Tagbubungang Diot"},{"coord":{"lat":9.8286099999999994,"lon":118.73194100000001},"country":"PH","_id":1684463,"name":"Tagburos"},{"coord":{"lat":9.0022199999999994,"lon":125.25694300000001},"country":"PH","_id":1684462,"name":"Tagcatong"},{"coord":{"lat":7.2042999999999999,"lon":125.884102},"country":"PH","_id":1684454,"name":"Tagdanua"},{"coord":{"lat":47.430698,"lon":8.6728400000000008},"country":"CH","_id":6293970,"name":"Tagelswangen"},{"coord":{"lat":47.655940999999999,"lon":9.1316699999999997},"country":"CH","_id":2658432,"name":"Tagerwilen"},{"coord":{"lat":51.233330000000002,"lon":11.949999999999999},"country":"DE","_id":2824383,"name":"Tagewerben"},{"coord":{"lat":-37.333328000000002,"lon":145.71667500000001},"country":"AU","_id":2147629,"name":"Taggerty"},{"coord":{"lat":43.848517999999999,"lon":7.8545400000000001},"country":"IT","_id":3165993,"name":"Taggia"},{"coord":{"lat":30.542589,"lon":-9.7111499999999999},"country":"MA","_id":2568012,"name":"Taghazout"},{"coord":{"lat":52.321671000000002,"lon":-6.6475},"country":"IE","_id":2961292,"name":"Taghmon"},{"coord":{"lat":28.370000999999998,"lon":84.381827999999999},"country":"NP","_id":7800877,"name":"Taghring"},{"coord":{"lat":60.313308999999997,"lon":-134.27172899999999},"country":"CA","_id":6161091,"name":"Tagish"},{"coord":{"lat":32.881672000000002,"lon":13.35056},"country":"LY","_id":2210394,"name":"Tagiura"},{"coord":{"lat":13.991110000000001,"lon":122.528893},"country":"PH","_id":1684422,"name":"Tagkawayan Sabang"},{"coord":{"lat":38.450001,"lon":44.983330000000002},"country":"IR","_id":3245,"name":"Taglag"},{"coord":{"lat":43.423450000000003,"lon":-4.0784599999999998},"country":"ES","_id":3108408,"name":"Tagle"},{"coord":{"lat":42.069327999999999,"lon":13.25469},"country":"IT","_id":3165991,"name":"Tagliacozzo"},{"coord":{"lat":46.206619000000003,"lon":9.0602400000000003},"country":"CH","_id":2658431,"name":"Tagliada"},{"coord":{"lat":45.022221000000002,"lon":12.21083},"country":"IT","_id":3165986,"name":"Taglio"},{"coord":{"lat":45.004719000000001,"lon":12.20417},"country":"IT","_id":3165981,"name":"Taglio di Po"},{"coord":{"lat":44.638351,"lon":8.6658500000000007},"country":"IT","_id":6535060,"name":"Tagliolo Monferrato"},{"coord":{"lat":45.642550999999997,"lon":9.9086400000000001},"country":"IT","_id":8199694,"name":"Tagliuno"},{"coord":{"lat":48.816699999999997,"lon":10.966699999999999},"country":"DE","_id":6557298,"name":"Tagmersheim"},{"coord":{"lat":48.816668999999997,"lon":10.966670000000001},"country":"DE","_id":2824379,"name":"Tagmersheim"},{"coord":{"lat":7.2836100000000004,"lon":125.84221599999999},"country":"PH","_id":1958747,"name":"Tagnanan"},{"coord":{"lat":9.0211100000000002,"lon":126.231667},"country":"PH","_id":1684395,"name":"Tago"},{"coord":{"lat":52.242778999999999,"lon":-6.38028},"country":"IE","_id":2961288,"name":"Tagoat"},{"coord":{"lat":38.838267999999999,"lon":68.898467999999994},"country":"TJ","_id":1220401,"name":"Tagob"},{"coord":{"lat":-7.1205999999999996,"lon":107.993103},"country":"ID","_id":7921852,"name":"Tagog"},{"coord":{"lat":-7.1210000000000004,"lon":108.139702},"country":"ID","_id":8028866,"name":"Tagog"},{"coord":{"lat":8.5166699999999995,"lon":124.783333},"country":"PH","_id":1684382,"name":"Tagoloan"},{"coord":{"lat":8.5388900000000003,"lon":124.75694300000001},"country":"PH","_id":1684379,"name":"Tagoloan"},{"coord":{"lat":-1.4393,"lon":120.77310199999999},"country":"ID","_id":1625609,"name":"Tagolu"},{"coord":{"lat":44.654269999999997,"lon":-0.98977999999999999},"country":"FR","_id":2973569,"name":"Tagon"},{"coord":{"lat":37.453999000000003,"lon":25.329000000000001},"country":"GR","_id":6951046,"name":"Tagoo"},{"coord":{"lat":47.166671999999998,"lon":18.950001},"country":"HU","_id":3044195,"name":"Tagosztály"},{"coord":{"lat":13.415800000000001,"lon":123.67800099999999},"country":"PH","_id":1684364,"name":"Tagoytoy"},{"coord":{"lat":41.650410000000001,"lon":59.916401},"country":"TM","_id":601475,"name":"Tagta"},{"coord":{"lat":-12.385680000000001,"lon":-46.571097999999999},"country":"BR","_id":6319623,"name":"Taguatinga"},{"coord":{"lat":-12.403890000000001,"lon":-46.436110999999997},"country":"BR","_id":3447075,"name":"Taguatinga"},{"coord":{"lat":16.933330999999999,"lon":120.466667},"country":"PH","_id":1684322,"name":"Tagudin"},{"coord":{"lat":16.935499,"lon":120.444199},"country":"PH","_id":1684320,"name":"Tagudin"},{"coord":{"lat":16.080601000000001,"lon":119.953903},"country":"PH","_id":1684321,"name":"Tagudin"},{"coord":{"lat":14.533329999999999,"lon":121.06667299999999},"country":"PH","_id":1684309,"name":"Taguig"},{"coord":{"lat":14.5243,"lon":121.079201},"country":"PH","_id":1684308,"name":"Taguig"},{"coord":{"lat":17.944690999999999,"lon":121.75885},"country":"PH","_id":1684300,"name":"Taguing"},{"coord":{"lat":6.6983300000000003,"lon":124.035828},"country":"PH","_id":1684292,"name":"Taguisa"},{"coord":{"lat":7.9386999999999999,"lon":123.631203},"country":"PH","_id":1958505,"name":"Taguitic"},{"coord":{"lat":7.4477799999999998,"lon":125.807777},"country":"PH","_id":1684269,"name":"Tagum"},{"coord":{"lat":10.074540000000001,"lon":124.389252},"country":"PH","_id":1684268,"name":"Tagum Norte"},{"coord":{"lat":9.19238,"lon":117.81410200000001},"country":"PH","_id":1684245,"name":"Tagusao"},{"coord":{"lat":34.479197999999997,"lon":63.271191000000002},"country":"AF","_id":1123410,"name":"Tagāb-e Mā’īch"},{"coord":{"lat":15.4071,"lon":36.364798999999998},"country":"SD","_id":7024903,"name":"Tagūg"},{"coord":{"lat":37.212299000000002,"lon":-2.2978100000000001},"country":"ES","_id":6355602,"name":"Tahal"},{"coord":{"lat":37.227969999999999,"lon":-2.2847},"country":"ES","_id":2510716,"name":"Tahal"},{"coord":{"lat":34.048450000000003,"lon":-4.4279500000000001},"country":"MA","_id":2531480,"name":"Tahala"},{"coord":{"lat":-37.733330000000002,"lon":141.699997},"country":"AU","_id":2147622,"name":"Tahara"},{"coord":{"lat":34.666671999999998,"lon":137.26666299999999},"country":"JP","_id":1851259,"name":"Tahara"},{"coord":{"lat":20.200001,"lon":-88.949996999999996},"country":"MX","_id":3516427,"name":"Tahdziú"},{"coord":{"lat":52.333328000000002,"lon":124.73333},"country":"CN","_id":2034615,"name":"Tahe"},{"coord":{"lat":36.763038999999999,"lon":5.8978799999999998},"country":"DZ","_id":2478554,"name":"Taher"},{"coord":{"lat":29.019119,"lon":-13.544510000000001},"country":"ES","_id":2510715,"name":"Tahiche"},{"coord":{"lat":45.346600000000002,"lon":96.645698999999993},"country":"MN","_id":1515247,"name":"Tahilt"},{"coord":{"lat":47.75,"lon":19.100000000000001},"country":"HU","_id":3044191,"name":"Tahitotfalu"},{"coord":{"lat":35.915371,"lon":-94.969963000000007},"country":"US","_id":4552707,"name":"Tahlequah"},{"coord":{"lat":58.016361000000003,"lon":-131.00387599999999},"country":"CA","_id":6161128,"name":"Tahltan"},{"coord":{"lat":20.883329,"lon":-89.266670000000005},"country":"MX","_id":3516425,"name":"Tahmek"},{"coord":{"lat":-34.216670999999998,"lon":150.58332799999999},"country":"AU","_id":2147618,"name":"Tahmoor"},{"coord":{"lat":39.239910000000002,"lon":-120.051018},"country":"US","_id":5400943,"name":"Tahoe Vista"},{"coord":{"lat":33.166758999999999,"lon":-101.79376999999999},"country":"US","_id":5532037,"name":"Tahoka"},{"coord":{"lat":39.067410000000002,"lon":-120.128242},"country":"US","_id":5400946,"name":"Tahoma"},{"coord":{"lat":16,"lon":5.5},"country":"NE","_id":2439374,"name":"Tahoua"},{"coord":{"lat":14.8888,"lon":5.2691999999999997},"country":"NE","_id":2439376,"name":"Tahoua"},{"coord":{"lat":25.058332,"lon":61.75},"country":"PK","_id":1336421,"name":"Tahsil"},{"coord":{"lat":25.118891000000001,"lon":62.327221000000002},"country":"PK","_id":1337313,"name":"Tahsil"},{"coord":{"lat":49.916289999999996,"lon":-126.669701},"country":"CA","_id":6161139,"name":"Tahsis"},{"coord":{"lat":34.009720000000002,"lon":71.982498000000007},"country":"PK","_id":1333002,"name":"Tahsīl"},{"coord":{"lat":26.769300000000001,"lon":31.502140000000001},"country":"EG","_id":347634,"name":"Tahta"},{"coord":{"lat":-6.8849999999999998,"lon":111.55300099999999},"country":"ID","_id":8074071,"name":"Tahunan"},{"coord":{"lat":13.441700000000001,"lon":144.791245},"country":"GU","_id":7871084,"name":"Tai"},{"coord":{"lat":36.756390000000003,"lon":126.297783},"country":"KR","_id":1835518,"name":"Taian"},{"coord":{"lat":36.185279999999999,"lon":117.120003},"country":"CN","_id":1793724,"name":"Taian"},{"coord":{"lat":-21.144439999999999,"lon":-48.512501},"country":"BR","_id":3447072,"name":"Taiaçu"},{"coord":{"lat":29.087271000000001,"lon":117.689369},"country":"CN","_id":1793718,"name":"Taibai"},{"coord":{"lat":34.057910999999997,"lon":106.162323},"country":"CN","_id":1899328,"name":"Taibai"},{"coord":{"lat":34.360568999999998,"lon":107.96333300000001},"country":"CN","_id":7367789,"name":"Taibai"},{"coord":{"lat":24.696569,"lon":112.17871100000001},"country":"CN","_id":1793707,"name":"Taibao"},{"coord":{"lat":23.459440000000001,"lon":120.332222},"country":"TW","_id":1668347,"name":"Taibao"},{"coord":{"lat":46.298889000000003,"lon":12.00333},"country":"IT","_id":3165978,"name":"Taibon"},{"coord":{"lat":46.301121000000002,"lon":12.0097},"country":"IT","_id":6542191,"name":"Taibon Agordino"},{"coord":{"lat":33.769260000000003,"lon":113.921898},"country":"CN","_id":1910172,"name":"Taichen"},{"coord":{"lat":38.731022000000003,"lon":113.227997},"country":"CN","_id":1790959,"name":"Taicheng"},{"coord":{"lat":24.146899999999999,"lon":120.683899},"country":"TW","_id":1668399,"name":"Taichung"},{"coord":{"lat":41.555691000000003,"lon":-8.2351200000000002},"country":"PT","_id":2733706,"name":"Taide"},{"coord":{"lat":48.803299000000003,"lon":12.662520000000001},"country":"DE","_id":2824373,"name":"Taiding"},{"coord":{"lat":21.270281000000001,"lon":40.415829000000002},"country":"SA","_id":107968,"name":"Taif"},{"coord":{"lat":29.28912,"lon":111.585617},"country":"CN","_id":1928134,"name":"Taifu"},{"coord":{"lat":-27.342649000000002,"lon":153.044434},"country":"AU","_id":6943556,"name":"Taigum"},{"coord":{"lat":30.871229,"lon":105.38453699999999},"country":"CN","_id":1793684,"name":"Taihe"},{"coord":{"lat":27.052719,"lon":116.611053},"country":"CN","_id":1793687,"name":"Taihe"},{"coord":{"lat":23.732089999999999,"lon":113.011269},"country":"CN","_id":6647609,"name":"Taihe"},{"coord":{"lat":33.165520000000001,"lon":115.64885700000001},"country":"CN","_id":1793683,"name":"Taihe Chengguanzhen"},{"coord":{"lat":34.563332000000003,"lon":105.548889},"country":"CN","_id":1899315,"name":"Taijing"},{"coord":{"lat":41.057369000000001,"lon":120.87204},"country":"CN","_id":2034602,"name":"Taijitun"},{"coord":{"lat":46.833328000000002,"lon":124.41667200000001},"country":"CN","_id":2034600,"name":"Taikang"},{"coord":{"lat":42.490558999999998,"lon":143.274719},"country":"JP","_id":2127931,"name":"Taiki"},{"coord":{"lat":46.383330999999998,"lon":123.400002},"country":"CN","_id":2034599,"name":"Tailai"},{"coord":{"lat":-35.266669999999998,"lon":139.449997},"country":"AU","_id":2060703,"name":"Tailem Bend"},{"coord":{"lat":48.25,"lon":9.0166699999999995},"country":"DE","_id":2824370,"name":"Tailfingen"},{"coord":{"lat":27.068649000000001,"lon":114.111237},"country":"CN","_id":7658299,"name":"Tailing"},{"coord":{"lat":43.833328000000002,"lon":5.0999999999999996},"country":"FR","_id":6454804,"name":"Taillades"},{"coord":{"lat":43.835917999999999,"lon":5.0921599999999998},"country":"FR","_id":2973564,"name":"Taillades"},{"coord":{"lat":48.799999,"lon":-0.43332999999999999},"country":"FR","_id":6439318,"name":"Taillebois"},{"coord":{"lat":48.801979000000003,"lon":-0.42776999999999998},"country":"FR","_id":2973556,"name":"Taillebois"},{"coord":{"lat":47.5,"lon":6.8499999999999996},"country":"FR","_id":6430004,"name":"Taillecourt"},{"coord":{"lat":47.495209000000003,"lon":6.8544200000000002},"country":"FR","_id":2973551,"name":"Taillecourt"},{"coord":{"lat":49.305790000000002,"lon":-0.40959000000000001},"country":"FR","_id":2973541,"name":"Tailleville"},{"coord":{"lat":23.322579999999999,"lon":114.47344200000001},"country":"CN","_id":1793650,"name":"Taimei"},{"coord":{"lat":48.916671999999998,"lon":12.31667},"country":"DE","_id":2824366,"name":"Taimering"},{"coord":{"lat":57.809029000000002,"lon":-4.0599100000000004},"country":"GB","_id":2636321,"name":"Tain"},{"coord":{"lat":23.000019000000002,"lon":120.188759},"country":"TW","_id":1668352,"name":"Tainan"},{"coord":{"lat":22.990829000000002,"lon":120.21333300000001},"country":"TW","_id":1668355,"name":"Tainan"},{"coord":{"lat":32.762051,"lon":120.26944},"country":"CN","_id":1548565,"name":"Tainan"},{"coord":{"lat":45.762489000000002,"lon":8.6165400000000005},"country":"IT","_id":3165975,"name":"Taino"},{"coord":{"lat":44.587558999999999,"lon":-70.365341000000001},"country":"US","_id":4980356,"name":"Tainter Corner"},{"coord":{"lat":44.989128000000001,"lon":-91.847678999999999},"country":"US","_id":5275391,"name":"Tainter Lake"},{"coord":{"lat":48.25,"lon":6.9000000000000004},"country":"FR","_id":6445760,"name":"Taintrux"},{"coord":{"lat":48.249439000000002,"lon":6.8996300000000002},"country":"FR","_id":2973530,"name":"Taintrux"},{"coord":{"lat":46.322510000000001,"lon":11.07207},"country":"IT","_id":6540235,"name":"Taio"},{"coord":{"lat":-15.807779999999999,"lon":-42.233058999999997},"country":"BR","_id":3447059,"name":"Taiobeiras"},{"coord":{"lat":40.598281999999998,"lon":-8.5332600000000003},"country":"PT","_id":2733705,"name":"Taipa"},{"coord":{"lat":-34.983330000000002,"lon":173.46667500000001},"country":"NZ","_id":2182017,"name":"Taipa"},{"coord":{"lat":61.25,"lon":28.08333},"country":"FI","_id":635151,"name":"Taipalsaari"},{"coord":{"lat":61.150002000000001,"lon":28.049999},"country":"FI","_id":635150,"name":"Taipalsaari"},{"coord":{"lat":46.248531,"lon":13.34093},"country":"IT","_id":6538395,"name":"Taipana"},{"coord":{"lat":46.247501,"lon":13.342219999999999},"country":"IT","_id":3165974,"name":"Taipana"},{"coord":{"lat":25.04776,"lon":121.531853},"country":"TW","_id":1668341,"name":"Taipei"},{"coord":{"lat":25.025880999999998,"lon":121.651611},"country":"TW","_id":7280290,"name":"Taipei"},{"coord":{"lat":24.947019999999998,"lon":121.581749},"country":"TW","_id":1665148,"name":"Taipei"},{"coord":{"lat":4.8499999999999996,"lon":100.73333},"country":"MY","_id":1734586,"name":"Taiping"},{"coord":{"lat":22.411670999999998,"lon":107.35916899999999},"country":"CN","_id":1793642,"name":"Taiping"},{"coord":{"lat":29.831939999999999,"lon":109.922783},"country":"CN","_id":1793565,"name":"Taiping"},{"coord":{"lat":28.140829,"lon":106.037712},"country":"CN","_id":1793591,"name":"Taiping"},{"coord":{"lat":23.441219,"lon":113.483513},"country":"CN","_id":1793601,"name":"Taiping"},{"coord":{"lat":26.445668999999999,"lon":118.418694},"country":"CN","_id":1793624,"name":"Taiping"},{"coord":{"lat":24.947229,"lon":114.06152299999999},"country":"CN","_id":1793627,"name":"Taiping"},{"coord":{"lat":24.255289000000001,"lon":112.55783099999999},"country":"CN","_id":1793630,"name":"Taiping"},{"coord":{"lat":23.900600000000001,"lon":117.015106},"country":"CN","_id":1793631,"name":"Taiping"},{"coord":{"lat":23.67136,"lon":112.87863900000001},"country":"CN","_id":1793632,"name":"Taiping"},{"coord":{"lat":31.434719000000001,"lon":120.698334},"country":"CN","_id":1898310,"name":"Taiping"},{"coord":{"lat":34.505828999999999,"lon":108.736107},"country":"CN","_id":1999689,"name":"Taiping"},{"coord":{"lat":25.661110000000001,"lon":112.123062},"country":"CN","_id":6422080,"name":"Taiping"},{"coord":{"lat":24.952499,"lon":102.588341},"country":"CN","_id":6824435,"name":"Taiping"},{"coord":{"lat":28.804760000000002,"lon":115.71367600000001},"country":"CN","_id":7328868,"name":"Taiping"},{"coord":{"lat":32.954090000000001,"lon":105.69676200000001},"country":"CN","_id":7374589,"name":"Taiping"},{"coord":{"lat":31.455200000000001,"lon":113.920891},"country":"CN","_id":7653970,"name":"Taiping"},{"coord":{"lat":29.975549999999998,"lon":111.079376},"country":"CN","_id":8016934,"name":"Taiping"},{"coord":{"lat":29.752420000000001,"lon":116.429672},"country":"CN","_id":1793590,"name":"Taipingguan"},{"coord":{"lat":24.830030000000001,"lon":102.791237},"country":"CN","_id":6825107,"name":"Taipingguan"},{"coord":{"lat":30.367270000000001,"lon":118.039742},"country":"CN","_id":7635419,"name":"Taipinghu"},{"coord":{"lat":29.061879999999999,"lon":111.337181},"country":"CN","_id":1793581,"name":"Taipingqiao"},{"coord":{"lat":25.474440000000001,"lon":112.328056},"country":"CN","_id":6421804,"name":"Taipingxu"},{"coord":{"lat":24.46172,"lon":118.09020200000001},"country":"CN","_id":1975112,"name":"Taipingyan"},{"coord":{"lat":45.616669000000002,"lon":126.199997},"country":"CN","_id":2034558,"name":"Taipingzhuang"},{"coord":{"lat":39.047939,"lon":112.136009},"country":"CN","_id":1793560,"name":"Taipingzhuang"},{"coord":{"lat":40.169139999999999,"lon":122.808151},"country":"CN","_id":2034562,"name":"Taipingzhuang"},{"coord":{"lat":-5.6216699999999999,"lon":-35.596668000000001},"country":"BR","_id":3386957,"name":"Taipu"},{"coord":{"lat":29.875350999999998,"lon":111.313362},"country":"CN","_id":8135630,"name":"Taiqing"},{"coord":{"lat":56.267200000000003,"lon":47.848540999999997},"country":"RU","_id":827689,"name":"Tair"},{"coord":{"lat":6.6402000000000001,"lon":121.8395},"country":"PH","_id":1707434,"name":"Tairan Camp"},{"coord":{"lat":-37.016669999999998,"lon":175.85000600000001},"country":"NZ","_id":2182010,"name":"Tairua"},{"coord":{"lat":36.349311999999998,"lon":126.597717},"country":"KR","_id":1835447,"name":"Taisen-ri"},{"coord":{"lat":22.251349999999999,"lon":112.7799},"country":"CN","_id":1793700,"name":"Taishan"},{"coord":{"lat":33.772967999999999,"lon":106.457611},"country":"CN","_id":7407750,"name":"Taishan"},{"coord":{"lat":27.4436,"lon":114.26960800000001},"country":"CN","_id":7658358,"name":"Taishan"},{"coord":{"lat":41.298679,"lon":125.842163},"country":"CN","_id":2034555,"name":"Taishang"},{"coord":{"lat":33.396369999999997,"lon":112.64312700000001},"country":"CN","_id":7055895,"name":"Taishanmiao"},{"coord":{"lat":32.869239999999998,"lon":113.208344},"country":"CN","_id":7069527,"name":"Taishanmiao"},{"coord":{"lat":33.616562000000002,"lon":105.45162999999999},"country":"CN","_id":7373126,"name":"Taishi"},{"coord":{"lat":33.705779999999997,"lon":105.18122099999999},"country":"CN","_id":7373270,"name":"Taishihe"},{"coord":{"lat":49.216670999999998,"lon":4.0999999999999996},"country":"FR","_id":6436040,"name":"Taissy"},{"coord":{"lat":49.215091999999999,"lon":4.0940599999999998},"country":"FR","_id":2973524,"name":"Taissy"},{"coord":{"lat":48.403449999999999,"lon":11.053280000000001},"country":"DE","_id":2824361,"name":"Taiting"},{"coord":{"lat":22.759910999999999,"lon":121.144569},"country":"TW","_id":1668295,"name":"Taitung"},{"coord":{"lat":22.758300999999999,"lon":121.144402},"country":"TW","_id":6949678,"name":"Taitung City"},{"coord":{"lat":65.5,"lon":28.25},"country":"FI","_id":635142,"name":"Taivalkoski"},{"coord":{"lat":65.566672999999994,"lon":28.25},"country":"FI","_id":635141,"name":"Taivalkoski"},{"coord":{"lat":60.583328000000002,"lon":21.58333},"country":"FI","_id":635133,"name":"Taivassalo"},{"coord":{"lat":60.560848,"lon":21.616389999999999},"country":"FI","_id":635130,"name":"Taivassalo"},{"coord":{"lat":24,"lon":121},"country":"TW","_id":1668284,"name":"Taiwan"},{"coord":{"lat":24.151140000000002,"lon":120.705406},"country":"TW","_id":7280291,"name":"Taiwan"},{"coord":{"lat":33.629730000000002,"lon":113.75769},"country":"CN","_id":1910150,"name":"Taiwei"},{"coord":{"lat":26.101918999999999,"lon":118.247299},"country":"CN","_id":1793536,"name":"Taixi"},{"coord":{"lat":32.166671999999998,"lon":120.013611},"country":"CN","_id":1793533,"name":"Taixing"},{"coord":{"lat":30.185261000000001,"lon":119.29611199999999},"country":"CN","_id":1793529,"name":"Taiyang"},{"coord":{"lat":28.197209999999998,"lon":115.26805899999999},"country":"CN","_id":1793530,"name":"Taiyang"},{"coord":{"lat":28.062099,"lon":116.47779800000001},"country":"CN","_id":1793531,"name":"Taiyang"},{"coord":{"lat":34.078819000000003,"lon":106.29489100000001},"country":"CN","_id":7407867,"name":"Taiyang"},{"coord":{"lat":33.036479999999997,"lon":106.00312},"country":"CN","_id":7372230,"name":"Taiyangling"},{"coord":{"lat":40.370460999999999,"lon":122.3601},"country":"CN","_id":2053203,"name":"Taiyangsheng"},{"coord":{"lat":34.026169000000003,"lon":109.00160200000001},"country":"CN","_id":1793517,"name":"Taiyigong"},{"coord":{"lat":53.847777999999998,"lon":69.763892999999996},"country":"KZ","_id":1522035,"name":"Taiynsha"},{"coord":{"lat":34.932720000000003,"lon":108.05980700000001},"country":"CN","_id":1793513,"name":"Taiyu"},{"coord":{"lat":33.788738000000002,"lon":104.531616},"country":"CN","_id":7330568,"name":"Taiyu"},{"coord":{"lat":37.869438000000002,"lon":112.56028000000001},"country":"CN","_id":1793511,"name":"Taiyuan"},{"coord":{"lat":30.710930000000001,"lon":118.400482},"country":"CN","_id":1552307,"name":"Taiyuan"},{"coord":{"lat":28.009170999999998,"lon":117.50778200000001},"country":"CN","_id":1924132,"name":"Taiyuan"},{"coord":{"lat":32.493327999999998,"lon":119.910629},"country":"CN","_id":1793505,"name":"Taizhou"},{"coord":{"lat":30.033331,"lon":115.18332700000001},"country":"CN","_id":1793498,"name":"Taizi"},{"coord":{"lat":49.516669999999998,"lon":4.2666700000000004},"country":"FR","_id":6426132,"name":"Taizy"},{"coord":{"lat":49.520350999999998,"lon":4.2599799999999997},"country":"FR","_id":2973518,"name":"Taizy"},{"coord":{"lat":13.57952,"lon":44.020907999999999},"country":"YE","_id":70225,"name":"Taizz"},{"coord":{"lat":-27.116389999999999,"lon":-49.998058},"country":"BR","_id":3447063,"name":"Taió"},{"coord":{"lat":-21.123889999999999,"lon":-48.451672000000002},"country":"BR","_id":3447047,"name":"Taiúva"},{"coord":{"lat":41.750210000000003,"lon":-2.15802},"country":"ES","_id":6361207,"name":"Tajahuerce"},{"coord":{"lat":41.739910000000002,"lon":-2.15069},"country":"ES","_id":3108402,"name":"Tajahuerce"},{"coord":{"lat":10.3148,"lon":123.583504},"country":"PH","_id":1684210,"name":"Tajao"},{"coord":{"lat":35.891739000000001,"lon":8.5527599999999993},"country":"TN","_id":2464809,"name":"Tajerouine"},{"coord":{"lat":32.950828999999999,"lon":119.159172},"country":"CN","_id":1793493,"name":"Taji"},{"coord":{"lat":34.466659999999997,"lon":-120.108482},"country":"US","_id":5400963,"name":"Tajiguas"},{"coord":{"lat":35.316668999999997,"lon":137.133331},"country":"JP","_id":1851193,"name":"Tajimi"},{"coord":{"lat":-8.0496999999999996,"lon":112.68240400000001},"country":"ID","_id":1625559,"name":"Tajinan"},{"coord":{"lat":-8.0496999999999996,"lon":112.68240400000001},"country":"ID","_id":7037081,"name":"Tajinan"},{"coord":{"lat":42.76878,"lon":-1.6081000000000001},"country":"ES","_id":3108398,"name":"Tajonar"},{"coord":{"lat":29.16667,"lon":78.483329999999995},"country":"IN","_id":1255224,"name":"Tajpur"},{"coord":{"lat":41.537170000000003,"lon":-2.8463699999999998},"country":"ES","_id":6361208,"name":"Tajueco"},{"coord":{"lat":41.536411000000001,"lon":-2.8484500000000001},"country":"ES","_id":3108396,"name":"Tajueco"},{"coord":{"lat":15.08333,"lon":-91.883330999999998},"country":"GT","_id":3588588,"name":"Tajumulco"},{"coord":{"lat":-6.5293999999999999,"lon":106.077698},"country":"ID","_id":7783025,"name":"Tajur"},{"coord":{"lat":-7.2045000000000003,"lon":108.007797},"country":"ID","_id":8018890,"name":"Tajurdesa"},{"coord":{"lat":50.124648999999998,"lon":22.011109999999999},"country":"PL","_id":757109,"name":"Tajęcina"},{"coord":{"lat":16.869679999999999,"lon":99.128983000000005},"country":"TH","_id":1150490,"name":"Tak"},{"coord":{"lat":6.2594700000000003,"lon":102.05461099999999},"country":"TH","_id":1605957,"name":"Tak Bai"},{"coord":{"lat":15.349170000000001,"lon":100.495216},"country":"TH","_id":1604606,"name":"Tak Fa"},{"coord":{"lat":-8.8406000000000002,"lon":121.113998},"country":"ID","_id":7569949,"name":"Taka"},{"coord":{"lat":36.400902000000002,"lon":47.113300000000002},"country":"IR","_id":113508,"name":"Takab"},{"coord":{"lat":36.716670999999998,"lon":140.71667500000001},"country":"JP","_id":2110901,"name":"Takado"},{"coord":{"lat":36.716670999999998,"lon":140.71667500000001},"country":"JP","_id":2110893,"name":"Takahagi"},{"coord":{"lat":34.916671999999998,"lon":136.98333700000001},"country":"JP","_id":1851155,"name":"Takahama"},{"coord":{"lat":31.91667,"lon":131.01666299999999},"country":"JP","_id":1851141,"name":"Takaharu"},{"coord":{"lat":34.783329000000002,"lon":133.616669},"country":"JP","_id":1851137,"name":"Takahashi"},{"coord":{"lat":38.002499,"lon":140.19111599999999},"country":"JP","_id":2110891,"name":"Takahata"},{"coord":{"lat":11.58333,"lon":9.1166699999999992},"country":"NG","_id":2322592,"name":"Takai"},{"coord":{"lat":34.516669999999998,"lon":135.433334},"country":"JP","_id":1851125,"name":"Takaishi"},{"coord":{"lat":34.966670999999998,"lon":138.383331},"country":"JP","_id":1851114,"name":"Takajōmachi"},{"coord":{"lat":-40.849997999999999,"lon":172.800003},"country":"NZ","_id":2181997,"name":"Takaka"},{"coord":{"lat":36.766669999999998,"lon":136.71667500000001},"country":"JP","_id":1851099,"name":"Takamatsu"},{"coord":{"lat":34.340279000000002,"lon":134.04333500000001},"country":"JP","_id":1851100,"name":"Takamatsu-shi"},{"coord":{"lat":32.816668999999997,"lon":131.116669},"country":"JP","_id":1851079,"name":"Takamori"},{"coord":{"lat":32.133330999999998,"lon":131.5},"country":"JP","_id":1851068,"name":"Takanabe"},{"coord":{"lat":-37.033329000000002,"lon":174.91667200000001},"country":"NZ","_id":2181991,"name":"Takanini"},{"coord":{"lat":-37.048198999999997,"lon":174.900192},"country":"NZ","_id":6231568,"name":"Takanini"},{"coord":{"lat":40.221938999999999,"lon":140.36944600000001},"country":"JP","_id":2127910,"name":"Takanosu"},{"coord":{"lat":36.75,"lon":137.01666299999999},"country":"JP","_id":1851032,"name":"Takaoka"},{"coord":{"lat":-40.033329000000002,"lon":176.35000600000001},"country":"NZ","_id":2181988,"name":"Takapau"},{"coord":{"lat":-36.791671999999998,"lon":174.77583300000001},"country":"NZ","_id":2207740,"name":"Takapuna"},{"coord":{"lat":34.799357999999998,"lon":135.356964},"country":"JP","_id":1851012,"name":"Takarazuka"},{"coord":{"lat":34.75,"lon":134.800003},"country":"JP","_id":1851009,"name":"Takasago"},{"coord":{"lat":36.333328000000002,"lon":139.01666299999999},"country":"JP","_id":1851002,"name":"Takasaki"},{"coord":{"lat":35.433331000000003,"lon":136.23333700000001},"country":"JP","_id":1850943,"name":"Takata"},{"coord":{"lat":35.338889999999999,"lon":139.42306500000001},"country":"JP","_id":1907243,"name":"Takata"},{"coord":{"lat":35.133330999999998,"lon":136.933334},"country":"JP","_id":1850940,"name":"Takatachō"},{"coord":{"lat":34.650002000000001,"lon":135.133331},"country":"JP","_id":1850924,"name":"Takatorichō"},{"coord":{"lat":34.683331000000003,"lon":131.78332499999999},"country":"JP","_id":1850916,"name":"Takatsu"},{"coord":{"lat":34.848331000000002,"lon":135.61677599999999},"country":"JP","_id":1850910,"name":"Takatsuki"},{"coord":{"lat":-3.6836700000000002,"lon":39.856620999999997},"country":"KE","_id":179634,"name":"Takaungu"},{"coord":{"lat":36.133330999999998,"lon":137.25},"country":"JP","_id":1850892,"name":"Takayama"},{"coord":{"lat":32.966670999999998,"lon":131.39999399999999},"country":"JP","_id":1850878,"name":"Takedamachi"},{"coord":{"lat":35.903931,"lon":136.16686999999999},"country":"JP","_id":1850872,"name":"Takefu"},{"coord":{"lat":34.338329000000002,"lon":132.91667200000001},"country":"JP","_id":1850860,"name":"Takehara"},{"coord":{"lat":51.870891999999998,"lon":0.26583000000000001},"country":"GB","_id":2636315,"name":"Takeley"},{"coord":{"lat":36.700001,"lon":137.300003},"country":"JP","_id":1850837,"name":"Takenouchi"},{"coord":{"lat":33.200001,"lon":130.01666299999999},"country":"JP","_id":1850834,"name":"Takeo"},{"coord":{"lat":-6.9406999999999996,"lon":112.411598},"country":"ID","_id":8140962,"name":"Takerharjo"},{"coord":{"lat":36.069598999999997,"lon":49.695900000000002},"country":"IR","_id":113491,"name":"Takestan"},{"coord":{"lat":24.330669,"lon":124.08506},"country":"JP","_id":1850822,"name":"Taketomi"},{"coord":{"lat":34.849997999999999,"lon":136.91667200000001},"country":"JP","_id":1850818,"name":"Taketoyo"},{"coord":{"lat":10.98333,"lon":104.783333},"country":"KH","_id":1821940,"name":"Takev"},{"coord":{"lat":25.33333,"lon":73},"country":"IN","_id":1255213,"name":"Takhatgarh"},{"coord":{"lat":22.149999999999999,"lon":81.866669000000002},"country":"IN","_id":1255212,"name":"Takhatpur"},{"coord":{"lat":15.26336,"lon":100.34378100000001},"country":"TH","_id":1605912,"name":"Takhli"},{"coord":{"lat":44.921500999999999,"lon":38.995831000000003},"country":"RU","_id":515921,"name":"Takhtamukay"},{"coord":{"lat":54.099997999999999,"lon":123.56667299999999},"country":"RU","_id":2015707,"name":"Takhtamygda"},{"coord":{"lat":22.586109,"lon":88.921386999999996},"country":"IN","_id":1255211,"name":"Taki"},{"coord":{"lat":43.552779999999998,"lon":141.906387},"country":"JP","_id":2127896,"name":"Takikawa"},{"coord":{"lat":24.433330999999999,"lon":88.616669000000002},"country":"BD","_id":1186675,"name":"Takipur"},{"coord":{"lat":40.336109,"lon":141.15167199999999},"country":"JP","_id":2127883,"name":"Takko"},{"coord":{"lat":55.483131,"lon":-125.970169},"country":"CA","_id":6161240,"name":"Takla Landing"},{"coord":{"lat":36.783329000000002,"lon":10.633330000000001},"country":"TN","_id":2464804,"name":"Taklisah"},{"coord":{"lat":35.733330000000002,"lon":140.46667500000001},"country":"JP","_id":2110850,"name":"Tako"},{"coord":{"lat":-7.0513000000000003,"lon":107.003601},"country":"ID","_id":1625532,"name":"Takokak"},{"coord":{"lat":38.977890000000002,"lon":-77.007476999999994},"country":"US","_id":4370890,"name":"Takoma Park"},{"coord":{"lat":4.8844700000000003,"lon":-1.75536},"country":"GH","_id":2294915,"name":"Takoradi"},{"coord":{"lat":56.344439999999999,"lon":114.87944},"country":"RU","_id":2015701,"name":"Taksimo"},{"coord":{"lat":56.316665999999998,"lon":36.166668000000001},"country":"RU","_id":484849,"name":"Taksino"},{"coord":{"lat":47.329681000000001,"lon":19.066939999999999},"country":"HU","_id":3044181,"name":"Taksony"},{"coord":{"lat":48.083328000000002,"lon":21.133329},"country":"HU","_id":715009,"name":"Taktaharkany"},{"coord":{"lat":55.874699,"lon":53.942901999999997},"country":"RU","_id":7594929,"name":"Taktalachuk"},{"coord":{"lat":48.116669000000002,"lon":21.183330999999999},"country":"HU","_id":715005,"name":"Taktaszada"},{"coord":{"lat":8.8704999999999998,"lon":98.343826000000007},"country":"TH","_id":1150452,"name":"Takua Pa"},{"coord":{"lat":8.3837299999999999,"lon":98.451233000000002},"country":"TH","_id":1150447,"name":"Takua Thung"},{"coord":{"lat":6.8563900000000002,"lon":125.422501},"country":"PH","_id":1684191,"name":"Takub"},{"coord":{"lat":7.2666700000000004,"lon":9.9833300000000005},"country":"NG","_id":2322552,"name":"Takum"},{"coord":{"lat":-25.33333,"lon":152.71667500000001},"country":"AU","_id":2147608,"name":"Takura"},{"coord":{"lat":12.064249999999999,"lon":8.5317900000000009},"country":"NG","_id":2592493,"name":"Takurza"},{"coord":{"lat":48.740558999999998,"lon":45.726391},"country":"RU","_id":798134,"name":"Takushin"},{"coord":{"lat":7.4415899999999997,"lon":-2.0851999999999999},"country":"GH","_id":2294893,"name":"Takwaim"},{"coord":{"lat":47.020279000000002,"lon":7.7798299999999996},"country":"CH","_id":7670426,"name":"Tal"},{"coord":{"lat":35.479080000000003,"lon":72.243851000000006},"country":"PK","_id":1164076,"name":"Tal"},{"coord":{"lat":23.716669,"lon":75.383330999999998},"country":"IN","_id":1255187,"name":"Tal"},{"coord":{"lat":15.2121,"lon":120.684898},"country":"PH","_id":1683931,"name":"Tal I Mun Doc"},{"coord":{"lat":20.66667,"lon":-103.699997},"country":"MX","_id":3982616,"name":"Tala"},{"coord":{"lat":30.680250000000001,"lon":30.942920999999998},"country":"EG","_id":347612,"name":"Tala"},{"coord":{"lat":-34.349997999999999,"lon":-55.766669999999998},"country":"UY","_id":3440021,"name":"Tala"},{"coord":{"lat":34.837502000000001,"lon":32.433331000000003},"country":"CY","_id":146045,"name":"Tala"},{"coord":{"lat":13.283329999999999,"lon":122.58332799999999},"country":"PH","_id":1684177,"name":"Tala"},{"coord":{"lat":-31.357389000000001,"lon":-64.969879000000006},"country":"AR","_id":3834780,"name":"Tala Cañada"},{"coord":{"lat":6.9411100000000001,"lon":122.172218},"country":"PH","_id":1957322,"name":"Talabaan"},{"coord":{"lat":10.1275,"lon":122.86972},"country":"PH","_id":1684154,"name":"Talaban"},{"coord":{"lat":54.409678999999997,"lon":29.69171},"country":"BY","_id":620833,"name":"Talachyn"},{"coord":{"lat":47.42445,"lon":8.5579000000000001},"country":"CH","_id":6291330,"name":"Talacker"},{"coord":{"lat":8.4166699999999999,"lon":125.800003},"country":"PH","_id":1684139,"name":"Talacogon"},{"coord":{"lat":8.4561100000000007,"lon":125.784172},"country":"PH","_id":1684137,"name":"Talacogon"},{"coord":{"lat":-21.133329,"lon":-175.10000600000001},"country":"TO","_id":4032323,"name":"Talafo‘ou"},{"coord":{"lat":-6.3209,"lon":105.999702},"country":"ID","_id":7780886,"name":"Talaga"},{"coord":{"lat":15.385059999999999,"lon":120.58573199999999},"country":"PH","_id":1684122,"name":"Talaga"},{"coord":{"lat":13.736459999999999,"lon":120.93617999999999},"country":"PH","_id":1684128,"name":"Talaga"},{"coord":{"lat":-6.2081,"lon":106.0093},"country":"ID","_id":7781691,"name":"Talagabakti"},{"coord":{"lat":-7.4157999999999999,"lon":107.872704},"country":"ID","_id":7911684,"name":"Talagajaya"},{"coord":{"lat":32.929729000000002,"lon":72.415833000000006},"country":"PK","_id":1164069,"name":"Talagang"},{"coord":{"lat":-33.666671999999998,"lon":-70.933327000000006},"country":"CL","_id":3870306,"name":"Talagante"},{"coord":{"lat":-6.4954000000000001,"lon":106.20030199999999},"country":"ID","_id":6767620,"name":"Talagasari"},{"coord":{"lat":-7.4204999999999997,"lon":107.923103},"country":"ID","_id":7914908,"name":"Talagasari"},{"coord":{"lat":6.2644399999999996,"lon":125.667778},"country":"PH","_id":1714416,"name":"Talagutong"},{"coord":{"lat":13.660830000000001,"lon":121.136391},"country":"PH","_id":1684100,"name":"Talahib Payap"},{"coord":{"lat":13.806940000000001,"lon":121.38806200000001},"country":"PH","_id":1684103,"name":"Talahiban Uno"},{"coord":{"lat":13.8378,"lon":121.13980100000001},"country":"PH","_id":1684095,"name":"Talaibon"},{"coord":{"lat":9.3120600000000007,"lon":-74.585442},"country":"CO","_id":3667547,"name":"Talaigua Viejo"},{"coord":{"lat":45.466670999999998,"lon":-1.05},"country":"FR","_id":6432481,"name":"Talais"},{"coord":{"lat":45.470348000000001,"lon":-1.0548500000000001},"country":"FR","_id":2973513,"name":"Talais"},{"coord":{"lat":21.350000000000001,"lon":72.050003000000004},"country":"IN","_id":1255175,"name":"Talaja"},{"coord":{"lat":8.2336100000000005,"lon":124.600281},"country":"PH","_id":1684086,"name":"Talakag"},{"coord":{"lat":50.316668999999997,"lon":130.366669},"country":"RU","_id":2015686,"name":"Talakan"},{"coord":{"lat":50.957828999999997,"lon":31.920850999999999},"country":"UA","_id":691942,"name":"Talalayivka"},{"coord":{"lat":11.529299999999999,"lon":124.836197},"country":"PH","_id":1684077,"name":"Talalora"},{"coord":{"lat":41.730141000000003,"lon":1.94051},"country":"ES","_id":6356296,"name":"Talamanca"},{"coord":{"lat":41.737400000000001,"lon":1.9779100000000001},"country":"ES","_id":3108390,"name":"Talamanca"},{"coord":{"lat":40.743499999999997,"lon":-3.4884599999999999},"country":"ES","_id":6359364,"name":"Talamanca de Jarama"},{"coord":{"lat":40.743251999999998,"lon":-3.5088900000000001},"country":"ES","_id":3108389,"name":"Talamanca de Jarama"},{"coord":{"lat":41.722251999999997,"lon":-1.67076},"country":"ES","_id":6362936,"name":"Talamantes"},{"coord":{"lat":41.730511,"lon":-1.6785600000000001},"country":"ES","_id":3108388,"name":"Talamantes"},{"coord":{"lat":30.527080999999999,"lon":72.240111999999996},"country":"PK","_id":1164064,"name":"Talamba"},{"coord":{"lat":43.905659,"lon":12.284840000000001},"country":"IT","_id":3165972,"name":"Talamello"},{"coord":{"lat":46.138489,"lon":9.61294},"country":"IT","_id":6535138,"name":"Talamona"},{"coord":{"lat":40.042060999999997,"lon":9.4965399999999995},"country":"IT","_id":3165969,"name":"Talana"},{"coord":{"lat":15.0228,"lon":120.837502},"country":"PH","_id":1684062,"name":"Talang"},{"coord":{"lat":-8.1407500000000006,"lon":112.686829},"country":"ID","_id":1965687,"name":"Talang Suko"},{"coord":{"lat":14.4,"lon":-87.083327999999995},"country":"HN","_id":3601072,"name":"Talanga"},{"coord":{"lat":-8.1254000000000008,"lon":112.554001},"country":"ID","_id":1965623,"name":"Talangagung"},{"coord":{"lat":-7.4452999999999996,"lon":108.70349899999999},"country":"ID","_id":8070153,"name":"Talangbanteng"},{"coord":{"lat":-2.8833299999999999,"lon":104.68332700000001},"country":"ID","_id":1625493,"name":"Talangbetutu"},{"coord":{"lat":49.236300999999997,"lon":6.1748000000000003},"country":"FR","_id":6437885,"name":"Talange"},{"coord":{"lat":49.236697999999997,"lon":6.1728199999999998},"country":"FR","_id":2973511,"name":"Talange"},{"coord":{"lat":-6.9573,"lon":111.858704},"country":"ID","_id":8076090,"name":"Talangkembar"},{"coord":{"lat":9.6340000000000003,"lon":123.334396},"country":"PH","_id":1684052,"name":"Talangnan"},{"coord":{"lat":-5.1662600000000003,"lon":105.09562699999999},"country":"ID","_id":7666931,"name":"Talangrebo"},{"coord":{"lat":47.336399,"lon":5.0057},"country":"FR","_id":6428901,"name":"Talant"},{"coord":{"lat":47.336941000000003,"lon":5.0088800000000004},"country":"FR","_id":2973510,"name":"Talant"},{"coord":{"lat":43.883330999999998,"lon":74.550003000000004},"country":"KZ","_id":1518598,"name":"Talapker"},{"coord":{"lat":-4.5772199999999996,"lon":-81.271941999999996},"country":"PE","_id":3691582,"name":"Talara"},{"coord":{"lat":42.185749000000001,"lon":0.90068000000000004},"country":"ES","_id":3108383,"name":"Talarn"},{"coord":{"lat":39.148800000000001,"lon":-5.2214299999999998},"country":"ES","_id":6355992,"name":"Talarrubias"},{"coord":{"lat":39.036968000000002,"lon":-5.2342199999999997},"country":"ES","_id":2510700,"name":"Talarrubias"},{"coord":{"lat":42.522221000000002,"lon":72.241943000000006},"country":"KG","_id":1527299,"name":"Talas"},{"coord":{"lat":42.354728999999999,"lon":72.656775999999994},"country":"KG","_id":7649203,"name":"Talas"},{"coord":{"lat":38.690800000000003,"lon":35.553798999999998},"country":"TR","_id":299900,"name":"Talas"},{"coord":{"lat":42.333328000000002,"lon":72},"country":"KG","_id":1527297,"name":"Talas Oblasty"},{"coord":{"lat":12.573169999999999,"lon":6.0597099999999999},"country":"NG","_id":2322529,"name":"Talata Mafara"},{"coord":{"lat":39.717151999999999,"lon":-6.28146},"country":"ES","_id":2510699,"name":"Talavan"},{"coord":{"lat":15.5883,"lon":120.919197},"country":"PH","_id":1684016,"name":"Talavera"},{"coord":{"lat":15.616669999999999,"lon":120.93332700000001},"country":"PH","_id":1684019,"name":"Talavera"},{"coord":{"lat":41.593079000000003,"lon":1.3543799999999999},"country":"ES","_id":6358944,"name":"Talavera"},{"coord":{"lat":-13.65306,"lon":-73.429169000000002},"country":"PE","_id":3928043,"name":"Talavera"},{"coord":{"lat":39.960540999999999,"lon":-4.8331900000000001},"country":"ES","_id":6361825,"name":"Talavera de la Reina"},{"coord":{"lat":39.963481999999999,"lon":-4.8307599999999997},"country":"ES","_id":2510693,"name":"Talavera de la Reina"},{"coord":{"lat":38.857219999999998,"lon":-6.72675},"country":"ES","_id":6355993,"name":"Talavera la Real"},{"coord":{"lat":38.877941,"lon":-6.7685599999999999},"country":"ES","_id":2510692,"name":"Talavera La Real"},{"coord":{"lat":39.682659000000001,"lon":-6.2704700000000004},"country":"ES","_id":6356873,"name":"Talaván"},{"coord":{"lat":6.9371,"lon":80.658096},"country":"LK","_id":1227300,"name":"Talawakele"},{"coord":{"lat":-0.59745000000000004,"lon":100.73979199999999},"country":"ID","_id":1625439,"name":"Talawi"},{"coord":{"lat":9.2896000000000001,"lon":123.26570100000001},"country":"PH","_id":1684010,"name":"Talay"},{"coord":{"lat":61.383330999999998,"lon":152.75},"country":"RU","_id":2120769,"name":"Talaya"},{"coord":{"lat":6.9805599999999997,"lon":124.38194300000001},"country":"PH","_id":1684007,"name":"Talayan"},{"coord":{"lat":39.987011000000003,"lon":-5.60982},"country":"ES","_id":2510689,"name":"Talayuela"},{"coord":{"lat":39.683331000000003,"lon":-2.23333},"country":"ES","_id":2510688,"name":"Talayuelas"},{"coord":{"lat":39.827969000000003,"lon":-1.2753699999999999},"country":"ES","_id":6357532,"name":"Talayuelas"},{"coord":{"lat":39.849997999999999,"lon":-1.2833300000000001},"country":"ES","_id":2510687,"name":"Talayuelas"},{"coord":{"lat":64.590401,"lon":40.701801000000003},"country":"RU","_id":8071846,"name":"Talazhskiy Aviagorodok"},{"coord":{"lat":25.049999,"lon":78.433327000000006},"country":"IN","_id":1255146,"name":"Talbahat"},{"coord":{"lat":-35.566668999999997,"lon":148.300003},"country":"AU","_id":2147592,"name":"Talbingo"},{"coord":{"lat":-37.166671999999998,"lon":143.699997},"country":"AU","_id":2147591,"name":"Talbot"},{"coord":{"lat":38.766781000000002,"lon":-76.082999999999998},"country":"US","_id":4370904,"name":"Talbot County"},{"coord":{"lat":32.677638999999999,"lon":-84.539367999999996},"country":"US","_id":4225613,"name":"Talbotton"},{"coord":{"lat":-35.433331000000003,"lon":-71.666672000000005},"country":"CL","_id":3870294,"name":"Talca"},{"coord":{"lat":-36.716670999999998,"lon":-73.116669000000002},"country":"CL","_id":3870282,"name":"Talcahuano"},{"coord":{"lat":20.950001,"lon":85.216667000000001},"country":"IN","_id":1255143,"name":"Talcher"},{"coord":{"lat":53.666671999999998,"lon":124.800003},"country":"RU","_id":2015646,"name":"Taldan"},{"coord":{"lat":56.733330000000002,"lon":37.533329000000002},"country":"RU","_id":484826,"name":"Taldom"},{"coord":{"lat":49.663891,"lon":73.008330999999998},"country":"KZ","_id":1484165,"name":"Taldykuduk"},{"coord":{"lat":45,"lon":77.916672000000005},"country":"KZ","_id":1518543,"name":"Taldyqorghan"},{"coord":{"lat":45.015560000000001,"lon":78.373894000000007},"country":"KZ","_id":1518542,"name":"Taldyqorghan"},{"coord":{"lat":45.216670999999998,"lon":25.549999},"country":"RO","_id":665611,"name":"Talea"},{"coord":{"lat":18.716669,"lon":73.683327000000006},"country":"IN","_id":1255134,"name":"Talegaon Dabhade"},{"coord":{"lat":45.893379000000003,"lon":9.5648499999999999},"country":"IT","_id":6534515,"name":"Taleggio"},{"coord":{"lat":-7.2996999999999996,"lon":107.51190200000001},"country":"ID","_id":7858489,"name":"Talegong Dua"},{"coord":{"lat":15.466670000000001,"lon":73.800003000000004},"country":"IN","_id":1255131,"name":"Taleigao"},{"coord":{"lat":23.566669000000001,"lon":76.716667000000001},"country":"IN","_id":1255130,"name":"Talen"},{"coord":{"lat":44.816668999999997,"lon":-0.59999999999999998},"country":"FR","_id":6432482,"name":"Talence"},{"coord":{"lat":44.804771000000002,"lon":-0.59543000000000001},"country":"FR","_id":2973495,"name":"Talence"},{"coord":{"lat":48.099997999999999,"lon":-1.93333},"country":"FR","_id":6432876,"name":"Talensac"},{"coord":{"lat":48.108471000000002,"lon":-1.9282900000000001},"country":"FR","_id":2973492,"name":"Talensac"},{"coord":{"lat":42.245682000000002,"lon":-122.788651},"country":"US","_id":5755890,"name":"Talent"},{"coord":{"lat":39.944439000000003,"lon":-0.29853000000000002},"country":"ES","_id":6357059,"name":"Tales"},{"coord":{"lat":39.933331000000003,"lon":-0.29999999999999999},"country":"ES","_id":2510686,"name":"Tales"},{"coord":{"lat":32.086638999999998,"lon":35.290939000000002},"country":"PS","_id":281675,"name":"Talfit"},{"coord":{"lat":-28.016670000000001,"lon":151.76666299999999},"country":"AU","_id":2147577,"name":"Talgai"},{"coord":{"lat":-36.083328000000002,"lon":147.16667200000001},"country":"AU","_id":2147575,"name":"Talgarno"},{"coord":{"lat":43.30444,"lon":77.232780000000005},"country":"KZ","_id":1518518,"name":"Talghar"},{"coord":{"lat":27.049999,"lon":79.650002000000001},"country":"IN","_id":1255127,"name":"Talgram"},{"coord":{"lat":40.665649000000002,"lon":-8.33169},"country":"PT","_id":8010839,"name":"Talhadas"},{"coord":{"lat":24.883329,"lon":68.816672999999994},"country":"PK","_id":1164045,"name":"Talhar"},{"coord":{"lat":47.816558999999998,"lon":8.6385199999999998},"country":"DE","_id":2824320,"name":"Talheim"},{"coord":{"lat":49.083302000000003,"lon":9.1930599999999991},"country":"DE","_id":6555533,"name":"Talheim"},{"coord":{"lat":49.083328000000002,"lon":9.1930599999999991},"country":"DE","_id":2824316,"name":"Talheim"},{"coord":{"lat":48.016700999999998,"lon":8.6666699999999999},"country":"DE","_id":6555852,"name":"Talheim"},{"coord":{"lat":48.016669999999998,"lon":8.6666699999999999},"country":"DE","_id":2824319,"name":"Talheim"},{"coord":{"lat":37.981251,"lon":41.412208999999997},"country":"TR","_id":320635,"name":"Taliban"},{"coord":{"lat":10.14917,"lon":124.324997},"country":"PH","_id":1683961,"name":"Talibon"},{"coord":{"lat":-8.5245999999999995,"lon":122.525497},"country":"ID","_id":7463809,"name":"Talibura"},{"coord":{"lat":29.273291,"lon":82.193932000000004},"country":"NP","_id":7955603,"name":"Talichaur"},{"coord":{"lat":38.52861,"lon":-7.0171299999999999},"country":"ES","_id":2510685,"name":"Taliga"},{"coord":{"lat":8.9044399999999992,"lon":125.65582999999999},"country":"PH","_id":1683949,"name":"Taligaman"},{"coord":{"lat":34.751491999999999,"lon":-95.048018999999996},"country":"US","_id":4552725,"name":"Talihina"},{"coord":{"lat":16.483329999999999,"lon":76.316672999999994},"country":"IN","_id":1255122,"name":"Talikota"},{"coord":{"lat":40.384281000000001,"lon":43.873871000000001},"country":"AM","_id":616187,"name":"Talin"},{"coord":{"lat":40.051749999999998,"lon":123.109459},"country":"CN","_id":2053290,"name":"Taling"},{"coord":{"lat":13.77698,"lon":100.456703},"country":"TH","_id":1605843,"name":"Taling Chan"},{"coord":{"lat":30.529169,"lon":-7.9126200000000004},"country":"MA","_id":2531014,"name":"Taliouine"},{"coord":{"lat":13.93333,"lon":121.68332700000001},"country":"PH","_id":1683911,"name":"Talipan"},{"coord":{"lat":5.9763900000000003,"lon":121.116112},"country":"PH","_id":1683900,"name":"Talipao"},{"coord":{"lat":12.050000000000001,"lon":75.349997999999999},"country":"IN","_id":1255121,"name":"Taliparamba"},{"coord":{"lat":5.9100000000000001,"lon":121.094437},"country":"PH","_id":1957660,"name":"Talipaw"},{"coord":{"lat":14.06667,"lon":121},"country":"PH","_id":1683890,"name":"Talisay"},{"coord":{"lat":14.092499999999999,"lon":121.021942},"country":"PH","_id":1683860,"name":"Talisay"},{"coord":{"lat":10.737220000000001,"lon":122.966393},"country":"PH","_id":1683877,"name":"Talisay"},{"coord":{"lat":10.300000000000001,"lon":123.81667299999999},"country":"PH","_id":1683892,"name":"Talisay"},{"coord":{"lat":10.244719999999999,"lon":123.849442},"country":"PH","_id":1683881,"name":"Talisay"},{"coord":{"lat":14.1343,"lon":122.9226},"country":"PH","_id":1683859,"name":"Talisay"},{"coord":{"lat":13.970829999999999,"lon":121.20639},"country":"PH","_id":1683861,"name":"Talisay"},{"coord":{"lat":13.91484,"lon":120.62326},"country":"PH","_id":1683862,"name":"Talisay"},{"coord":{"lat":13.18056,"lon":122.623611},"country":"PH","_id":1683865,"name":"Talisay"},{"coord":{"lat":11.243399999999999,"lon":124.061897},"country":"PH","_id":1683871,"name":"Talisay"},{"coord":{"lat":9.8188899999999997,"lon":125.615562},"country":"PH","_id":1683883,"name":"Talisay"},{"coord":{"lat":6.7197300000000002,"lon":126.09998299999999},"country":"PH","_id":1683886,"name":"Talisay"},{"coord":{"lat":10.949999999999999,"lon":124.699997},"country":"PH","_id":1683852,"name":"Talisayan"},{"coord":{"lat":9.0002999999999993,"lon":124.88091300000001},"country":"PH","_id":1683855,"name":"Talisayan"},{"coord":{"lat":6.9872199999999998,"lon":121.927223},"country":"PH","_id":1683856,"name":"Talisayan"},{"coord":{"lat":7.0333300000000003,"lon":124.699997},"country":"PH","_id":1683818,"name":"Talitay"},{"coord":{"lat":56.880401999999997,"lon":60.021301000000001},"country":"RU","_id":1490277,"name":"Talitsa"},{"coord":{"lat":57.010947999999999,"lon":63.73254},"country":"RU","_id":1490281,"name":"Talitsa"},{"coord":{"lat":56.528888999999999,"lon":42.334437999999999},"country":"RU","_id":484770,"name":"Talitsy"},{"coord":{"lat":56.116669000000002,"lon":37.966667000000001},"country":"RU","_id":484771,"name":"Talitsy"},{"coord":{"lat":57.066665999999998,"lon":41},"country":"RU","_id":484769,"name":"Talitsy"},{"coord":{"lat":-8.7448999999999995,"lon":116.85320299999999},"country":"ID","_id":1625420,"name":"Taliwang"},{"coord":{"lat":45.116669000000002,"lon":3.0499999999999998},"country":"FR","_id":6427663,"name":"Talizat"},{"coord":{"lat":45.114170000000001,"lon":3.04671},"country":"FR","_id":2973488,"name":"Talizat"},{"coord":{"lat":53.566699999999997,"lon":10.566700000000001},"country":"DE","_id":6551510,"name":"Talkau"},{"coord":{"lat":53.566668999999997,"lon":10.56667},"country":"DE","_id":2824303,"name":"Talkau"},{"coord":{"lat":31.053899999999999,"lon":31.377870999999999},"country":"EG","_id":347591,"name":"Talkha"},{"coord":{"lat":36.681567999999999,"lon":38.97681},"country":"SY","_id":163750,"name":"Tall Abyad"},{"coord":{"lat":29.557158999999999,"lon":35.001838999999997},"country":"JO","_id":7031355,"name":"Tall al Khalīfah"},{"coord":{"lat":36.138069000000002,"lon":42.240958999999997},"country":"IQ","_id":6786700,"name":"Tall Daghsh"},{"coord":{"lat":35.807609999999997,"lon":37.253501999999997},"country":"SY","_id":163747,"name":"Tall Daman"},{"coord":{"lat":34.921180999999997,"lon":36.488731000000001},"country":"SY","_id":163596,"name":"Tall Daww"},{"coord":{"lat":36.756210000000003,"lon":41.397967999999999},"country":"SY","_id":163568,"name":"Tall Hamis"},{"coord":{"lat":34.668419,"lon":36.259948999999999},"country":"SY","_id":163533,"name":"Tall Kalakh"},{"coord":{"lat":33.258330999999998,"lon":44.272221000000002},"country":"IQ","_id":448955,"name":"Tall Raml"},{"coord":{"lat":36.473621000000001,"lon":37.096722},"country":"SY","_id":163476,"name":"Tall Rifat"},{"coord":{"lat":35.258839000000002,"lon":36.384608999999998},"country":"SY","_id":163470,"name":"Tall Salhab"},{"coord":{"lat":36.655560000000001,"lon":40.370789000000002},"country":"SY","_id":163434,"name":"Tall Tamr"},{"coord":{"lat":31.593579999999999,"lon":44.552891000000002},"country":"IQ","_id":448961,"name":"Tall ‘Alāwī"},{"coord":{"lat":43.601849000000001,"lon":11.787140000000001},"country":"IT","_id":3165963,"name":"Talla"},{"coord":{"lat":17.994969999999999,"lon":-66.716292999999993},"country":"PR","_id":4568367,"name":"Tallaboa"},{"coord":{"lat":18.051068999999998,"lon":-66.700171999999995},"country":"PR","_id":4568368,"name":"Tallaboa Alta"},{"coord":{"lat":33.435940000000002,"lon":-86.105796999999995},"country":"US","_id":4092788,"name":"Talladega"},{"coord":{"lat":33.366779000000001,"lon":-86.183311000000003},"country":"US","_id":4092795,"name":"Talladega County"},{"coord":{"lat":53.285899999999998,"lon":-6.3734400000000004},"country":"IE","_id":2961284,"name":"Tallaght"},{"coord":{"lat":30.438258999999999,"lon":-84.280731000000003},"country":"US","_id":4174715,"name":"Tallahassee"},{"coord":{"lat":-36.450001,"lon":147.199997},"country":"AU","_id":2147569,"name":"Tallandoon"},{"coord":{"lat":-36.200001,"lon":147.25},"country":"AU","_id":2147567,"name":"Tallangatta"},{"coord":{"lat":53.922778999999998,"lon":-6.5463899999999997},"country":"IE","_id":2961283,"name":"Tallanstown"},{"coord":{"lat":33.744548999999999,"lon":-85.28801},"country":"US","_id":4225658,"name":"Tallapoosa"},{"coord":{"lat":44.466670999999998,"lon":6.0499999999999998},"country":"FR","_id":6425650,"name":"Tallard"},{"coord":{"lat":44.461281,"lon":6.05504},"country":"FR","_id":2973485,"name":"Tallard"},{"coord":{"lat":-37.099997999999999,"lon":145.10000600000001},"country":"AU","_id":2147564,"name":"Tallarook"},{"coord":{"lat":32.535969000000001,"lon":-85.893287999999998},"country":"US","_id":4092853,"name":"Tallassee"},{"coord":{"lat":-32.200001,"lon":149.449997},"country":"AU","_id":2147562,"name":"Tallawang"},{"coord":{"lat":34.840629999999997,"lon":36.730930000000001},"country":"SY","_id":163779,"name":"Tallbisah"},{"coord":{"lat":52.095539000000002,"lon":8.9084500000000002},"country":"DE","_id":2824301,"name":"Talle"},{"coord":{"lat":-28.149999999999999,"lon":153.433334},"country":"AU","_id":2147558,"name":"Tallebudgera"},{"coord":{"lat":45.666671999999998,"lon":3.1333299999999999},"country":"FR","_id":6454495,"name":"Tallende"},{"coord":{"lat":45.671261000000001,"lon":3.12799},"country":"FR","_id":2973483,"name":"Tallende"},{"coord":{"lat":-34,"lon":146.883331},"country":"AU","_id":2147554,"name":"Tallimba"},{"coord":{"lat":49.766700999999998,"lon":6.9500000000000002},"country":"DE","_id":6554376,"name":"Talling"},{"coord":{"lat":49.766669999999998,"lon":6.9500000000000002},"country":"DE","_id":2824297,"name":"Talling"},{"coord":{"lat":59.436957999999997,"lon":24.753530999999999},"country":"EE","_id":588409,"name":"Tallinn"},{"coord":{"lat":59.471691,"lon":24.738230000000001},"country":"EE","_id":862995,"name":"Tallinna linn"},{"coord":{"lat":41.101452000000002,"lon":-81.441779999999994},"country":"US","_id":5173623,"name":"Tallmadge"},{"coord":{"lat":45.849997999999999,"lon":6.2166699999999997},"country":"FR","_id":6443059,"name":"Talloires"},{"coord":{"lat":45.840358999999999,"lon":6.2141599999999997},"country":"FR","_id":2973480,"name":"Talloires"},{"coord":{"lat":-34.716670999999998,"lon":150.08332799999999},"country":"AU","_id":2147551,"name":"Tallong"},{"coord":{"lat":52.092781000000002,"lon":-8.0080600000000004},"country":"IE","_id":2961282,"name":"Tallow"},{"coord":{"lat":32.408481999999999,"lon":-91.186783000000005},"country":"US","_id":4343103,"name":"Tallulah"},{"coord":{"lat":32.270561000000001,"lon":35.294960000000003},"country":"PS","_id":281662,"name":"Talluzah"},{"coord":{"lat":48.233330000000002,"lon":21.233329999999999},"country":"HU","_id":715001,"name":"Tallya"},{"coord":{"lat":-36.25,"lon":145.433334},"country":"AU","_id":2147545,"name":"Tallygaroopna"},{"coord":{"lat":39.133228000000003,"lon":-123.167778},"country":"US","_id":5400996,"name":"Talmage"},{"coord":{"lat":-35.950001,"lon":147.5},"country":"AU","_id":2147542,"name":"Talmalmo"},{"coord":{"lat":50.033329000000002,"lon":2.3333300000000001},"country":"FR","_id":6444759,"name":"Talmas"},{"coord":{"lat":50.030490999999998,"lon":2.3255400000000002},"country":"FR","_id":2973476,"name":"Talmas"},{"coord":{"lat":45.929721999999998,"lon":13.120279999999999},"country":"IT","_id":3165959,"name":"Talmassons"},{"coord":{"lat":31.950001,"lon":34.849997999999999},"country":"IL","_id":293436,"name":"Talme Menashe"},{"coord":{"lat":53.818297999999999,"lon":83.567702999999995},"country":"RU","_id":1490266,"name":"Talmenka"},{"coord":{"lat":31.809999000000001,"lon":-9.3300000000000001},"country":"MA","_id":2530978,"name":"Talmest"},{"coord":{"lat":31.93927,"lon":35.135390999999998},"country":"IL","_id":8199392,"name":"Talmon"},{"coord":{"lat":46.466999000000001,"lon":-1.6173999999999999},"country":"FR","_id":6617859,"name":"Talmont-Saint-Hilaire"},{"coord":{"lat":69.486503999999996,"lon":88.397201999999993},"country":"RU","_id":1490256,"name":"Talnakh"},{"coord":{"lat":10.57222,"lon":122.89666699999999},"country":"PH","_id":1683800,"name":"Taloc"},{"coord":{"lat":21.566669000000001,"lon":74.216667000000001},"country":"IN","_id":1255104,"name":"Taloda"},{"coord":{"lat":10.63246,"lon":30.3797},"country":"SD","_id":366487,"name":"Talodi"},{"coord":{"lat":13.354799999999999,"lon":144.75588999999999},"country":"GU","_id":7869842,"name":"Talofofo Mayors Office"},{"coord":{"lat":13.355219999999999,"lon":144.758804},"country":"GU","_id":4038652,"name":"Talofofo Municipality"},{"coord":{"lat":13.355130000000001,"lon":144.75834699999999},"country":"GU","_id":4038647,"name":"Talofofo Village"},{"coord":{"lat":36.038651000000002,"lon":-98.963706999999999},"country":"US","_id":4552740,"name":"Taloga"},{"coord":{"lat":-8.1866900000000005,"lon":112.701111},"country":"ID","_id":1625411,"name":"Talok"},{"coord":{"lat":-7.1254999999999997,"lon":111.74690200000001},"country":"ID","_id":6866208,"name":"Talok"},{"coord":{"lat":-7.0293000000000001,"lon":111.304802},"country":"ID","_id":7375390,"name":"Talok"},{"coord":{"lat":-6.9775,"lon":111.710701},"country":"ID","_id":8075245,"name":"Talok"},{"coord":{"lat":11.00778,"lon":122.845001},"country":"PH","_id":1683784,"name":"Talokgangan"},{"coord":{"lat":-8.4011999999999993,"lon":118.316498},"country":"ID","_id":1645275,"name":"Taloko"},{"coord":{"lat":7.5286099999999996,"lon":125.72277800000001},"country":"PH","_id":1683779,"name":"Talomo"},{"coord":{"lat":11.56,"lon":122.681107},"country":"PH","_id":1683771,"name":"Talon"},{"coord":{"lat":36.736049999999999,"lon":69.534508000000002},"country":"AF","_id":1123004,"name":"Taloqan"},{"coord":{"lat":15.917899999999999,"lon":120.4496},"country":"PH","_id":1683747,"name":"Talospatang"},{"coord":{"lat":51.114440999999999,"lon":40.729999999999997},"country":"RU","_id":484747,"name":"Talovaya"},{"coord":{"lat":48.212502000000001,"lon":41.281112999999998},"country":"RU","_id":484725,"name":"Talovskiy"},{"coord":{"lat":47.807651999999997,"lon":40.109428000000001},"country":"RU","_id":484720,"name":"Talovyy"},{"coord":{"lat":16.33333,"lon":120.5},"country":"PH","_id":1683737,"name":"Taloy"},{"coord":{"lat":15.949999999999999,"lon":120.466667},"country":"PH","_id":1683738,"name":"Taloy"},{"coord":{"lat":69.537216000000001,"lon":-93.521118000000001},"country":"CA","_id":6161366,"name":"Taloyoak"},{"coord":{"lat":20.383329,"lon":-104.81667299999999},"country":"MX","_id":3982589,"name":"Talpa de Allende"},{"coord":{"lat":44.283329000000002,"lon":25.283331},"country":"RO","_id":665588,"name":"Talpa-Trivalea"},{"coord":{"lat":10.5,"lon":-61.266669999999998},"country":"TT","_id":3573638,"name":"Talparo"},{"coord":{"lat":52.906711999999999,"lon":-4.0694400000000002},"country":"GB","_id":7298011,"name":"Talsarnau"},{"coord":{"lat":52.903438999999999,"lon":-4.0649199999999999},"country":"GB","_id":2636290,"name":"Talsarnau"},{"coord":{"lat":45.333328000000002,"lon":97.983329999999995},"country":"MN","_id":1515229,"name":"Talshand"},{"coord":{"lat":53.637217999999997,"lon":71.877219999999994},"country":"KZ","_id":1518511,"name":"Talshyq"},{"coord":{"lat":57.245621,"lon":22.581368999999999},"country":"LV","_id":454970,"name":"Talsi"},{"coord":{"lat":57.333328000000002,"lon":22.58333},"country":"LV","_id":454968,"name":"Talsu Rajons"},{"coord":{"lat":-25.399999999999999,"lon":-70.483329999999995},"country":"CL","_id":3870243,"name":"Taltal"},{"coord":{"lat":15.5878,"lon":119.945503},"country":"PH","_id":1683733,"name":"Taltal"},{"coord":{"lat":50.437721000000003,"lon":12.11595},"country":"DE","_id":2824291,"name":"Taltitz"},{"coord":{"lat":32.683188999999999,"lon":-96.385536000000002},"country":"US","_id":4735524,"name":"Talty"},{"coord":{"lat":14.182499999999999,"lon":122.785301},"country":"PH","_id":1683801,"name":"Talubatib"},{"coord":{"lat":15.777799999999999,"lon":120.81109600000001},"country":"PH","_id":1683718,"name":"Talugtug"},{"coord":{"lat":6.9541700000000004,"lon":122.183891},"country":"PH","_id":1683713,"name":"Taluksangay"},{"coord":{"lat":-8.0906000000000002,"lon":112.285004},"country":"ID","_id":1625386,"name":"Talun"},{"coord":{"lat":-8.0906000000000002,"lon":112.285004},"country":"ID","_id":7035389,"name":"Talun"},{"coord":{"lat":-7.0548000000000002,"lon":107.93470000000001},"country":"ID","_id":7921527,"name":"Talun"},{"coord":{"lat":-7.3849999999999998,"lon":108.126999},"country":"ID","_id":8022588,"name":"Talun"},{"coord":{"lat":-6.9535,"lon":111.9179},"country":"ID","_id":8076520,"name":"Talun"},{"coord":{"lat":-7.2195999999999998,"lon":107.907799},"country":"ID","_id":7920884,"name":"Taluncemara"},{"coord":{"lat":36.086891000000001,"lon":-117.97286200000001},"country":"US","_id":5401000,"name":"Talus"},{"coord":{"lat":7.4266699999999997,"lon":122.81028000000001},"country":"PH","_id":1683701,"name":"Talusan"},{"coord":{"lat":5.8116700000000003,"lon":125.172783},"country":"PH","_id":1683690,"name":"Taluya"},{"coord":{"lat":45.639899999999997,"lon":4.7222},"country":"FR","_id":6441795,"name":"Taluyers"},{"coord":{"lat":45.639912000000002,"lon":4.72194},"country":"FR","_id":2973457,"name":"Taluyers"},{"coord":{"lat":30.850000000000001,"lon":74.933327000000006},"country":"IN","_id":1255082,"name":"Talwandi Bhai"},{"coord":{"lat":31.948609999999999,"lon":75.866669000000002},"country":"IN","_id":1255076,"name":"Talwara"},{"coord":{"lat":-28.5,"lon":149.5},"country":"AU","_id":2147532,"name":"Talwood"},{"coord":{"lat":33.590000000000003,"lon":-4.1900000000000004},"country":"MA","_id":2530906,"name":"Talzemt"},{"coord":{"lat":15.56667,"lon":108.48333},"country":"VN","_id":1567148,"name":"Tam Ky"},{"coord":{"lat":41.966659999999997,"lon":-92.576858999999999},"country":"US","_id":4878229,"name":"Tama"},{"coord":{"lat":-9.5904000000000007,"lon":119.555702},"country":"ID","_id":7563722,"name":"Tamaau"},{"coord":{"lat":44.466670999999998,"lon":26.549999},"country":"RO","_id":665578,"name":"Tamadau Mare"},{"coord":{"lat":27.822268999999999,"lon":-17.894698999999999},"country":"ES","_id":2510675,"name":"Tamaduste"},{"coord":{"lat":38.033329000000002,"lon":139.66667200000001},"country":"JP","_id":1850762,"name":"Tamagawa"},{"coord":{"lat":34.388489,"lon":7.94313},"country":"TN","_id":2464770,"name":"Tamaghzah"},{"coord":{"lat":15.33333,"lon":-90.166672000000005},"country":"GT","_id":3588554,"name":"Tamahu"},{"coord":{"lat":40.999141999999999,"lon":-3.24743},"country":"ES","_id":3108366,"name":"Tamajon"},{"coord":{"lat":41.035159999999998,"lon":-3.2250999999999999},"country":"ES","_id":6358029,"name":"Tamajón"},{"coord":{"lat":-36.888199,"lon":174.860184},"country":"NZ","_id":6232217,"name":"Tamaki"},{"coord":{"lat":52.540970000000002,"lon":43.251449999999998},"country":"RU","_id":484674,"name":"Tamala"},{"coord":{"lat":8.8522099999999995,"lon":-73.812286},"country":"CO","_id":3667528,"name":"Tamalameque"},{"coord":{"lat":9.4007799999999992,"lon":-0.83930000000000005},"country":"GH","_id":2294877,"name":"Tamale"},{"coord":{"lat":21.350000000000001,"lon":-97.800003000000004},"country":"MX","_id":3516410,"name":"Tamalin"},{"coord":{"lat":36.837631000000002,"lon":6.64018},"country":"DZ","_id":2478226,"name":"Tamalous"},{"coord":{"lat":37.878342000000004,"lon":-122.536247},"country":"US","_id":7262659,"name":"Tamalpais-Homestead Valley"},{"coord":{"lat":40.663558999999999,"lon":-6.0793600000000003},"country":"ES","_id":6360553,"name":"Tamames"},{"coord":{"lat":40.657249,"lon":-6.1053600000000001},"country":"ES","_id":3108363,"name":"Tamames"},{"coord":{"lat":36.299999,"lon":139.116669},"country":"JP","_id":1850746,"name":"Tamamura"},{"coord":{"lat":45.2117,"lon":36.716090999999999},"country":"RU","_id":484670,"name":"Taman"},{"coord":{"lat":-8.0196000000000005,"lon":113.21729999999999},"country":"ID","_id":7037437,"name":"Taman"},{"coord":{"lat":-6.9775999999999998,"lon":112.314903},"country":"ID","_id":8080524,"name":"Taman"},{"coord":{"lat":2.0327000000000002,"lon":102.562302},"country":"MY","_id":7855804,"name":"Taman Khalidi Baru"},{"coord":{"lat":2.7189999999999999,"lon":101.933296},"country":"MY","_id":7796608,"name":"Taman Labu Jaya"},{"coord":{"lat":1.6006,"lon":103.641899},"country":"MY","_id":1732741,"name":"Taman Senai"},{"coord":{"lat":32.916671999999998,"lon":130.566666},"country":"JP","_id":1850745,"name":"Tamana"},{"coord":{"lat":-9.6379000000000001,"lon":119.60080000000001},"country":"ID","_id":7456525,"name":"Tamanaimahu"},{"coord":{"lat":-8.0234000000000005,"lon":111.893204},"country":"ID","_id":7579501,"name":"Tamanan"},{"coord":{"lat":-8.0722000000000005,"lon":111.902603},"country":"ID","_id":7579608,"name":"Tamanan"},{"coord":{"lat":31.000869999999999,"lon":-9.6780200000000001},"country":"MA","_id":2530843,"name":"Tamanar"},{"coord":{"lat":-8.7751000000000001,"lon":116.306999},"country":"ID","_id":7085015,"name":"Tamanbumigora"},{"coord":{"lat":-8.7597199999999997,"lon":-35.104720999999998},"country":"BR","_id":3386931,"name":"Tamandare"},{"coord":{"lat":-38.204819000000001,"lon":-58.740608000000002},"country":"AR","_id":3427840,"name":"Tamangueyú"},{"coord":{"lat":13.598330000000001,"lon":-89.420280000000005},"country":"SV","_id":3583041,"name":"Tamanique"},{"coord":{"lat":-7.2262000000000004,"lon":106.52829699999999},"country":"ID","_id":7847311,"name":"Tamanjaya Satu"},{"coord":{"lat":34.483330000000002,"lon":133.949997},"country":"JP","_id":1850742,"name":"Tamano"},{"coord":{"lat":22.785,"lon":5.52278},"country":"DZ","_id":2478216,"name":"Tamanrasset"},{"coord":{"lat":-8.1963000000000008,"lon":114.94450399999999},"country":"ID","_id":7084546,"name":"Tamansari"},{"coord":{"lat":-8.2810000000000006,"lon":113.723198},"country":"ID","_id":7406190,"name":"Tamansari"},{"coord":{"lat":-7.423,"lon":108.1931},"country":"ID","_id":8022710,"name":"Tamansari"},{"coord":{"lat":40.797310000000003,"lon":-75.969368000000003},"country":"US","_id":5215142,"name":"Tamaqua"},{"coord":{"lat":5.82972,"lon":-72.163330000000002},"country":"CO","_id":3667516,"name":"Tamara"},{"coord":{"lat":14.15,"lon":-87.333327999999995},"country":"HN","_id":3601039,"name":"Tamara"},{"coord":{"lat":26.212859999999999,"lon":-80.249770999999996},"country":"US","_id":4174738,"name":"Tamarac"},{"coord":{"lat":28.098939999999999,"lon":-15.47218},"country":"ES","_id":2510667,"name":"Tamaraceite"},{"coord":{"lat":32.950001,"lon":131.383331},"country":"JP","_id":1850736,"name":"Tamarai"},{"coord":{"lat":-26.133329,"lon":152.66667200000001},"country":"AU","_id":2147526,"name":"Tamaree"},{"coord":{"lat":-20.325559999999999,"lon":57.370559999999998},"country":"MU","_id":933982,"name":"Tamarin"},{"coord":{"lat":41.869098999999999,"lon":0.42214000000000002},"country":"ES","_id":3108360,"name":"Tamarit de Llitera \/ Tamarite de Litera"},{"coord":{"lat":41.814411,"lon":0.39097999999999999},"country":"ES","_id":6358422,"name":"Tamarite de Litera"},{"coord":{"lat":41.983958999999999,"lon":-5.0166700000000004},"country":"ES","_id":6362284,"name":"Tamariz de Campos"},{"coord":{"lat":41.977058,"lon":-5.0233499999999998},"country":"ES","_id":3108358,"name":"Tamariz de Campos"},{"coord":{"lat":42.273860999999997,"lon":-3.9915400000000001},"country":"ES","_id":3108357,"name":"Tamaron"},{"coord":{"lat":55.267223000000001,"lon":37.610000999999997},"country":"RU","_id":6416076,"name":"Tamarovo"},{"coord":{"lat":42.273848999999998,"lon":-3.99193},"country":"ES","_id":6356611,"name":"Tamarón"},{"coord":{"lat":-22.418399999999998,"lon":27.40127},"country":"BW","_id":933030,"name":"Tamasane"},{"coord":{"lat":46.983330000000002,"lon":26.933330999999999},"country":"RO","_id":665568,"name":"Tamaseni"},{"coord":{"lat":46.633330999999998,"lon":18.283331},"country":"HU","_id":3044171,"name":"Tamasi"},{"coord":{"lat":46.483330000000002,"lon":26.983329999999999},"country":"RO","_id":665556,"name":"Tamasi"},{"coord":{"lat":21.91667,"lon":-99.400002000000001},"country":"MX","_id":3516397,"name":"Tamasopo"},{"coord":{"lat":21.933330999999999,"lon":-99.483329999999995},"country":"MX","_id":3516396,"name":"Tamasopo"},{"coord":{"lat":7.5386800000000003,"lon":149.414276},"country":"FM","_id":7628253,"name":"Tamatam"},{"coord":{"lat":7.5389799999999996,"lon":149.411743},"country":"FM","_id":7626985,"name":"Tamatam Municipality"},{"coord":{"lat":-9.4333299999999998,"lon":159.949997},"country":"SB","_id":2102985,"name":"Tamatangga"},{"coord":{"lat":18.394698999999999,"lon":-71.202904000000004},"country":"DO","_id":3492520,"name":"Tamayo"},{"coord":{"lat":15.883330000000001,"lon":120.283333},"country":"PH","_id":1683663,"name":"Tamayo"},{"coord":{"lat":7.1330600000000004,"lon":125.379723},"country":"PH","_id":1681543,"name":"Tamayong"},{"coord":{"lat":19.633329,"lon":-103.25},"country":"MX","_id":3982567,"name":"Tamazula de Gordiano"},{"coord":{"lat":17.680558999999999,"lon":-97.568893000000003},"country":"MX","_id":3801045,"name":"Tamazulapan del Progreso"},{"coord":{"lat":21.266670000000001,"lon":-98.783332999999999},"country":"MX","_id":3516385,"name":"Tamazunchale"},{"coord":{"lat":35.633330999999998,"lon":135.066666},"country":"JP","_id":1850718,"name":"Tamba"},{"coord":{"lat":13.73333,"lon":-13.66667},"country":"SN","_id":2244987,"name":"Tamba I"},{"coord":{"lat":11.670500000000001,"lon":122.41120100000001},"country":"PH","_id":1683638,"name":"Tambac"},{"coord":{"lat":21.950001,"lon":-99.333327999999995},"country":"MX","_id":3516384,"name":"Tambaca"},{"coord":{"lat":50.233330000000002,"lon":10.866669999999999},"country":"DE","_id":2824288,"name":"Tambach"},{"coord":{"lat":50.799999,"lon":10.616669999999999},"country":"DE","_id":2824285,"name":"Tambach-Dietharz"},{"coord":{"lat":13.75389,"lon":-13.758609999999999},"country":"SN","_id":2244991,"name":"Tambacounda"},{"coord":{"lat":-8.1486999999999998,"lon":113.067398},"country":"ID","_id":7347317,"name":"Tambahrejo Krajan"},{"coord":{"lat":6.7263900000000003,"lon":124.626389},"country":"PH","_id":1683642,"name":"Tambak"},{"coord":{"lat":-8.0565999999999995,"lon":112.297997},"country":"ID","_id":7035265,"name":"Tambakan"},{"coord":{"lat":-6.2027999999999999,"lon":105.9384},"country":"ID","_id":7792532,"name":"Tambakan"},{"coord":{"lat":-7.3731999999999998,"lon":108.11979700000001},"country":"ID","_id":8018088,"name":"Tambakan"},{"coord":{"lat":-7.4034000000000004,"lon":108.178596},"country":"ID","_id":8022647,"name":"Tambakbaya"},{"coord":{"lat":-7.0053999999999998,"lon":108.5578},"country":"ID","_id":8067417,"name":"Tambakbaya"},{"coord":{"lat":-8.2655999999999992,"lon":114.235603},"country":"ID","_id":7037952,"name":"Tambakbayan"},{"coord":{"lat":-7.1337000000000002,"lon":112.42710099999999},"country":"ID","_id":6786069,"name":"Tambakboyo"},{"coord":{"lat":-6.9781000000000004,"lon":110.36640199999999},"country":"ID","_id":6737757,"name":"Tambakharjo"},{"coord":{"lat":-7.1570999999999998,"lon":111.570198},"country":"ID","_id":7035887,"name":"Tambakkromo"},{"coord":{"lat":-7.1154999999999999,"lon":111.663803},"country":"ID","_id":7036284,"name":"Tambakmerak"},{"coord":{"lat":-7.3460000000000001,"lon":112.80390199999999},"country":"ID","_id":1903205,"name":"Tambakoso"},{"coord":{"lat":-7.3825000000000003,"lon":108.656502},"country":"ID","_id":8070100,"name":"Tambakreja"},{"coord":{"lat":-8.0109999999999992,"lon":111.96410400000001},"country":"ID","_id":7579487,"name":"Tambakrejo"},{"coord":{"lat":-8.3110999999999997,"lon":112.142899},"country":"ID","_id":8079140,"name":"Tambakrejo"},{"coord":{"lat":-6.9001999999999999,"lon":112.175301},"country":"ID","_id":8079908,"name":"Tambakrejo"},{"coord":{"lat":-6.7259000000000002,"lon":111.06770299999999},"country":"ID","_id":8058433,"name":"Tambakromo"},{"coord":{"lat":-7.2488999999999999,"lon":108.535004},"country":"ID","_id":1625321,"name":"Tambaksari"},{"coord":{"lat":-7.5011999999999999,"lon":108.751099},