[{"coord":{"lat":14.37514,"lon":99.892250000000004},"country":"TH","_id":1149964,"name":"U Thong"},{"coord":{"lat":15.678699999999999,"lon":119.94029999999999},"country":"PH","_id":1680512,"name":"Uacon"},{"coord":{"lat":-11.363429999999999,"lon":15.12078},"country":"AO","_id":3345497,"name":"Uacu Cungo"},{"coord":{"lat":5.0499999999999998,"lon":-60.833331999999999},"country":"VE","_id":3625801,"name":"Uadauraparutá"},{"coord":{"lat":10.57396,"lon":123.393303},"country":"PH","_id":1680505,"name":"Ualog"},{"coord":{"lat":-2.9900000000000002,"lon":-65.108329999999995},"country":"BR","_id":3661756,"name":"Uarini"},{"coord":{"lat":-9.8413900000000005,"lon":-39.481670000000001},"country":"BR","_id":3385883,"name":"Uaua"},{"coord":{"lat":44.456108,"lon":20.073891},"country":"RS","_id":784795,"name":"Ub"},{"coord":{"lat":-21.120000999999998,"lon":-42.942779999999999},"country":"BR","_id":3445859,"name":"Uba"},{"coord":{"lat":10.453060000000001,"lon":13.22139},"country":"NG","_id":2321057,"name":"Uba"},{"coord":{"lat":50.933331000000003,"lon":6.1166700000000001},"country":"DE","_id":2820621,"name":"Ubach-Palenberg"},{"coord":{"lat":50.853329000000002,"lon":5.9486100000000004},"country":"NL","_id":2746014,"name":"Ubachsberg"},{"coord":{"lat":42.617019999999997,"lon":-2.2647900000000001},"country":"ES","_id":3107362,"name":"Ubago"},{"coord":{"lat":-13.26806,"lon":-39.662781000000003},"country":"BR","_id":3445854,"name":"Ubaira"},{"coord":{"lat":-14.3125,"lon":-39.323329999999999},"country":"BR","_id":3445853,"name":"Ubaitaba"},{"coord":{"lat":-3.8544399999999999,"lon":-40.921107999999997},"country":"BR","_id":3385873,"name":"Ubajara"},{"coord":{"lat":-31.793579000000001,"lon":-58.313499},"country":"AR","_id":3427593,"name":"Ubajay"},{"coord":{"lat":14.98808,"lon":43.544440999999999},"country":"YE","_id":69944,"name":"Ubal"},{"coord":{"lat":4.7477799999999997,"lon":-72.536941999999996},"country":"CO","_id":3666526,"name":"Ubala"},{"coord":{"lat":-19.635280999999999,"lon":-42.105559999999997},"country":"BR","_id":3445852,"name":"Ubaporanga"},{"coord":{"lat":4.4866799999999998,"lon":-73.937477000000001},"country":"CO","_id":3666522,"name":"Ubaque"},{"coord":{"lat":-21.165559999999999,"lon":-49.717498999999997},"country":"BR","_id":3445851,"name":"Ubarana"},{"coord":{"lat":-14.213889999999999,"lon":-39.522781000000002},"country":"BR","_id":3445849,"name":"Ubata"},{"coord":{"lat":5.3093300000000001,"lon":-73.815742},"country":"CO","_id":3666519,"name":"Ubate"},{"coord":{"lat":-23.426210000000001,"lon":-45.036330999999997},"country":"BR","_id":6322637,"name":"Ubatuba"},{"coord":{"lat":-23.433889000000001,"lon":-45.071109999999997},"country":"BR","_id":3445847,"name":"Ubatuba"},{"coord":{"lat":28.165239,"lon":69.728897000000003},"country":"PK","_id":1163021,"name":"Ubauro"},{"coord":{"lat":10,"lon":124.466667},"country":"PH","_id":1680477,"name":"Ubay"},{"coord":{"lat":10.055999999999999,"lon":124.472939},"country":"PH","_id":1680475,"name":"Ubay"},{"coord":{"lat":51.983330000000002,"lon":8.6333300000000008},"country":"DE","_id":2820620,"name":"Ubbedissen"},{"coord":{"lat":51.837502000000001,"lon":5.9013900000000001},"country":"NL","_id":2746012,"name":"Ubbergen"},{"coord":{"lat":33.943061999999998,"lon":131.251114},"country":"JP","_id":1849498,"name":"Ube"},{"coord":{"lat":38.013278999999997,"lon":-3.3704999999999998},"country":"ES","_id":2510116,"name":"Ubeda"},{"coord":{"lat":47.225341999999998,"lon":15.23615},"country":"AT","_id":2763209,"name":"Ubelbach"},{"coord":{"lat":43.134441000000002,"lon":-2.4604499999999998},"country":"ES","_id":3107358,"name":"Ubera"},{"coord":{"lat":-19.748328999999998,"lon":-47.931938000000002},"country":"BR","_id":3445839,"name":"Uberaba"},{"coord":{"lat":48.849997999999999,"lon":7.6333299999999999},"country":"FR","_id":6441385,"name":"Uberach"},{"coord":{"lat":48.84919,"lon":7.6293800000000003},"country":"FR","_id":2971418,"name":"Uberach"},{"coord":{"lat":50,"lon":6.1500000000000004},"country":"DE","_id":2820591,"name":"Ubereisenbach"},{"coord":{"lat":49.241871000000003,"lon":6.6984000000000004},"country":"DE","_id":2820583,"name":"Uberherrn"},{"coord":{"lat":-18.918610000000001,"lon":-48.277222000000002},"country":"BR","_id":3445831,"name":"Uberlandia"},{"coord":{"lat":47.766669999999998,"lon":9.1666699999999999},"country":"DE","_id":2820577,"name":"Uberlingen"},{"coord":{"lat":47.252837999999997,"lon":9.6707999999999998},"country":"AT","_id":2763202,"name":"Ubersaxen"},{"coord":{"lat":47.016669999999998,"lon":16.049999},"country":"AT","_id":2763201,"name":"Ubersbach"},{"coord":{"lat":47.816668999999997,"lon":12.48333},"country":"DE","_id":2820564,"name":"Ubersee"},{"coord":{"lat":44.921298999999998,"lon":41.285499999999999},"country":"RU","_id":479724,"name":"Ubezhenskaya"},{"coord":{"lat":6.6550399999999996,"lon":6.38687},"country":"NG","_id":2321031,"name":"Ubiaja"},{"coord":{"lat":45.783679999999997,"lon":9.6193500000000007},"country":"IT","_id":6534516,"name":"Ubiale Clanezzo"},{"coord":{"lat":43.411490999999998,"lon":-4.1020599999999998},"country":"ES","_id":3107357,"name":"Ubiarco"},{"coord":{"lat":42.157477999999998,"lon":0.26667000000000002},"country":"ES","_id":3107356,"name":"Ubiergo"},{"coord":{"lat":55.306750999999998,"lon":79.680160999999998},"country":"RU","_id":1488708,"name":"Ubinskoye"},{"coord":{"lat":-22.526669999999999,"lon":-49.663058999999997},"country":"BR","_id":3445828,"name":"Ubirajara"},{"coord":{"lat":-28.046109999999999,"lon":-54.680560999999997},"country":"BR","_id":3445827,"name":"Ubiretama"},{"coord":{"lat":45.615268999999998,"lon":9.0039400000000001},"country":"IT","_id":6534237,"name":"Uboldo"},{"coord":{"lat":53.166668000000001,"lon":28.816668},"country":"BY","_id":620643,"name":"Ubolot’ye"},{"coord":{"lat":15.224830000000001,"lon":104.85289},"country":"TH","_id":1605245,"name":"Ubon Ratchathani"},{"coord":{"lat":16.752700999999998,"lon":102.63243900000001},"country":"TH","_id":7510966,"name":"Ubonratana"},{"coord":{"lat":44.397221000000002,"lon":134.10389699999999},"country":"RU","_id":2014649,"name":"Uborka"},{"coord":{"lat":55.728332999999999,"lon":37.101112000000001},"country":"RU","_id":479716,"name":"Ubory"},{"coord":{"lat":36.665298,"lon":-5.4678399999999998},"country":"ES","_id":6356953,"name":"Ubrique"},{"coord":{"lat":36.677779999999998,"lon":-5.4459999999999997},"country":"ES","_id":2510112,"name":"Ubrique"},{"coord":{"lat":49.170799000000002,"lon":8.6188900000000004},"country":"DE","_id":6555615,"name":"Ubstadt-Weiher"},{"coord":{"lat":49.170830000000002,"lon":8.6188900000000004},"country":"DE","_id":3272450,"name":"Ubstadt-Weiher"},{"coord":{"lat":-8.5098000000000003,"lon":115.265404},"country":"ID","_id":1622846,"name":"Ubud"},{"coord":{"lat":44.815556000000001,"lon":37.636665000000001},"country":"RU","_id":866248,"name":"Ubykh"},{"coord":{"lat":-33.032027999999997,"lon":-63.506659999999997},"country":"AR","_id":3833463,"name":"Ucacha"},{"coord":{"lat":41.048560999999999,"lon":-7.7383600000000001},"country":"PT","_id":8013962,"name":"Ucanha"},{"coord":{"lat":41.045848999999997,"lon":-7.7454499999999999},"country":"PT","_id":2733323,"name":"Ucanha"},{"coord":{"lat":45.75,"lon":24.683330999999999},"country":"RO","_id":664390,"name":"Ucea de Sus"},{"coord":{"lat":40.819831999999998,"lon":-3.4512800000000001},"country":"ES","_id":6358056,"name":"Uceda"},{"coord":{"lat":40.839438999999999,"lon":-3.4603999999999999},"country":"ES","_id":3107348,"name":"Uceda"},{"coord":{"lat":41.724170999999998,"lon":-3.05952},"country":"ES","_id":6361217,"name":"Ucero"},{"coord":{"lat":41.716850000000001,"lon":-3.0515400000000001},"country":"ES","_id":3107345,"name":"Ucero"},{"coord":{"lat":41.762217999999997,"lon":73.200316999999998},"country":"KG","_id":8134212,"name":"Uch-Terek"},{"coord":{"lat":43.928100999999998,"lon":-0.55989999999999995},"country":"FR","_id":6434009,"name":"Uchacq-et-Parentis"},{"coord":{"lat":43.927318999999997,"lon":-0.55996000000000001},"country":"FR","_id":2971413,"name":"Uchacq-et-Parentis"},{"coord":{"lat":54.299599000000001,"lon":59.452098999999997},"country":"RU","_id":479704,"name":"Uchaly"},{"coord":{"lat":29.466669,"lon":76.166672000000005},"country":"IN","_id":1254000,"name":"Uchana"},{"coord":{"lat":43.201430999999999,"lon":-2.8157199999999998},"country":"ES","_id":3107343,"name":"Ucharaín"},{"coord":{"lat":43.75,"lon":4.2666700000000004},"country":"FR","_id":6431468,"name":"Uchaud"},{"coord":{"lat":43.758572000000001,"lon":4.2684300000000004},"country":"FR","_id":2971412,"name":"Uchaud"},{"coord":{"lat":44.216670999999998,"lon":4.7999999999999998},"country":"FR","_id":6445113,"name":"Uchaux"},{"coord":{"lat":44.216670999999998,"lon":4.7999999999999998},"country":"FR","_id":2971411,"name":"Uchaux"},{"coord":{"lat":39.700001,"lon":141.14999399999999},"country":"JP","_id":2110657,"name":"Uchimaru"},{"coord":{"lat":-8.4591700000000003,"lon":-76.463333000000006},"country":"PE","_id":3691094,"name":"Uchiza"},{"coord":{"lat":43.937778000000002,"lon":42.511668999999998},"country":"RU","_id":479687,"name":"Uchkeken"},{"coord":{"lat":43.114269,"lon":47.082549999999998},"country":"RU","_id":869346,"name":"Uchkent"},{"coord":{"lat":43.457062000000001,"lon":42.096432},"country":"RU","_id":479685,"name":"Uchkulan"},{"coord":{"lat":44.633330999999998,"lon":33.533332999999999},"country":"UA","_id":690847,"name":"Uchkuyeva"},{"coord":{"lat":-20.952780000000001,"lon":-49.174720999999998},"country":"BR","_id":3445824,"name":"Uchoa"},{"coord":{"lat":42.150008999999997,"lon":63.552211999999997},"country":"UZ","_id":1538231,"name":"Uchquduq Shahri"},{"coord":{"lat":41.113708000000003,"lon":72.079147000000006},"country":"UZ","_id":1512501,"name":"Uchqurghon Shahri"},{"coord":{"lat":52.5,"lon":8.9166699999999999},"country":"DE","_id":2820537,"name":"Uchte"},{"coord":{"lat":50.091839,"lon":10.268610000000001},"country":"DE","_id":2820533,"name":"Uchtelhausen"},{"coord":{"lat":52.533329000000002,"lon":11.616669999999999},"country":"DE","_id":2820529,"name":"Uchtspringe"},{"coord":{"lat":50.754871000000001,"lon":16.681749},"country":"PL","_id":3082870,"name":"Uciechow"},{"coord":{"lat":49.299999,"lon":6.1500000000000004},"country":"FR","_id":6437900,"name":"Uckange"},{"coord":{"lat":49.303040000000003,"lon":6.1492000000000004},"country":"FR","_id":2971407,"name":"Uckange"},{"coord":{"lat":54.016669999999998,"lon":14.050000000000001},"country":"DE","_id":2820472,"name":"Uckeritz"},{"coord":{"lat":50.969479,"lon":0.095890000000000003},"country":"GB","_id":2635243,"name":"Uckfield"},{"coord":{"lat":48.833328000000002,"lon":13},"country":"DE","_id":2820516,"name":"Ucking"},{"coord":{"lat":39.979382000000001,"lon":-2.8614299999999999},"country":"ES","_id":2510106,"name":"Ucles"},{"coord":{"lat":48.932910999999997,"lon":-125.552834},"country":"CA","_id":6171633,"name":"Ucluelet"},{"coord":{"lat":39.918208999999997,"lon":-2.8706700000000001},"country":"ES","_id":6357543,"name":"Uclés"},{"coord":{"lat":43.596297999999997,"lon":-111.96386},"country":"US","_id":5610980,"name":"Ucon"},{"coord":{"lat":38.045760999999999,"lon":14.880280000000001},"country":"IT","_id":2522835,"name":"Ucria"},{"coord":{"lat":44.916671999999998,"lon":24.566669000000001},"country":"RO","_id":664385,"name":"Uda"},{"coord":{"lat":66.416672000000005,"lon":112.400002},"country":"RU","_id":2014624,"name":"Udachnyy"},{"coord":{"lat":20.133329,"lon":84.383330999999998},"country":"IN","_id":1253992,"name":"Udaigiri"},{"coord":{"lat":27.716669,"lon":75.483329999999995},"country":"IN","_id":1253985,"name":"Udaipur"},{"coord":{"lat":23.533331,"lon":91.483329999999995},"country":"IN","_id":1253987,"name":"Udaipur"},{"coord":{"lat":24.571166999999999,"lon":73.691826000000006},"country":"IN","_id":1253986,"name":"Udaipur"},{"coord":{"lat":23.08333,"lon":78.5},"country":"IN","_id":1253984,"name":"Udaipura"},{"coord":{"lat":43.077781999999999,"lon":-2.5124900000000001},"country":"ES","_id":3107337,"name":"Udala"},{"coord":{"lat":32.153629000000002,"lon":35.276459000000003},"country":"PS","_id":281548,"name":"Udalah"},{"coord":{"lat":26.766670000000001,"lon":92.133330999999998},"country":"IN","_id":1253977,"name":"Udalguri"},{"coord":{"lat":51.037399000000001,"lon":16.454691},"country":"PL","_id":3082866,"name":"Udanin"},{"coord":{"lat":8.4333299999999998,"lon":78.016670000000005},"country":"IN","_id":1253972,"name":"Udankudi"},{"coord":{"lat":54.340899999999998,"lon":42.861099000000003},"country":"RU","_id":826996,"name":"Udarnyy"},{"coord":{"lat":44.349170999999998,"lon":42.505279999999999},"country":"RU","_id":841270,"name":"Udarnyy"},{"coord":{"lat":45.430278999999999,"lon":15.738329999999999},"country":"HR","_id":3188553,"name":"Udbinja"},{"coord":{"lat":52.259171000000002,"lon":5.7805600000000004},"country":"NL","_id":2746009,"name":"Uddel"},{"coord":{"lat":58.347839,"lon":11.942399999999999},"country":"SE","_id":2666670,"name":"Uddevalla"},{"coord":{"lat":58.349997999999999,"lon":12},"country":"SE","_id":2666669,"name":"Uddevalla Kommun"},{"coord":{"lat":16.558879999999998,"lon":121.15123699999999},"country":"PH","_id":1680439,"name":"Uddiawan"},{"coord":{"lat":55.819710000000001,"lon":-4.0836199999999998},"country":"GB","_id":2635239,"name":"Uddingston"},{"coord":{"lat":55.625359000000003,"lon":38.002837999999997},"country":"RU","_id":479640,"name":"Udelnaya"},{"coord":{"lat":51.660831000000002,"lon":5.61944},"country":"NL","_id":2746005,"name":"Uden"},{"coord":{"lat":50.316668999999997,"lon":9.3333300000000001},"country":"DE","_id":2820503,"name":"Udenhain"},{"coord":{"lat":51.463847999999999,"lon":9.4633500000000002},"country":"DE","_id":2820500,"name":"Udenhausen"},{"coord":{"lat":49.864699999999999,"lon":8.1716700000000007},"country":"DE","_id":6554877,"name":"Udenheim"},{"coord":{"lat":49.864719000000001,"lon":8.1716700000000007},"country":"DE","_id":2820499,"name":"Udenheim"},{"coord":{"lat":51.366698999999997,"lon":10.083299999999999},"country":"DE","_id":6549822,"name":"Uder"},{"coord":{"lat":51.366669000000002,"lon":10.08333},"country":"DE","_id":2820498,"name":"Uder"},{"coord":{"lat":47.315021999999999,"lon":11.851929999999999},"country":"AT","_id":7872638,"name":"Uderns"},{"coord":{"lat":47.316668999999997,"lon":11.866669999999999},"country":"AT","_id":2763199,"name":"Uderns"},{"coord":{"lat":50.150002000000001,"lon":6.7999999999999998},"country":"DE","_id":2820496,"name":"Udersdorf"},{"coord":{"lat":51.049999,"lon":11.1333},"country":"DE","_id":6550157,"name":"Udestedt"},{"coord":{"lat":51.049999,"lon":11.133330000000001},"country":"DE","_id":2820491,"name":"Udestedt"},{"coord":{"lat":47.566668999999997,"lon":26.41667},"country":"RO","_id":664372,"name":"Udesti"},{"coord":{"lat":18.383329,"lon":77.116669000000002},"country":"IN","_id":1253958,"name":"Udgir"},{"coord":{"lat":32.933331000000003,"lon":75.133330999999998},"country":"IN","_id":1253956,"name":"Udhampur"},{"coord":{"lat":6.3144,"lon":7.4257999999999997},"country":"NG","_id":2320966,"name":"Udi"},{"coord":{"lat":61.183334000000002,"lon":46.549999},"country":"RU","_id":479622,"name":"Udima"},{"coord":{"lat":61.141708000000001,"lon":45.914420999999997},"country":"RU","_id":479619,"name":"Udimskiy"},{"coord":{"lat":46.061019999999999,"lon":13.236829999999999},"country":"IT","_id":6540119,"name":"Udine"},{"coord":{"lat":46.061939000000002,"lon":13.24222},"country":"IT","_id":3165072,"name":"Udine"},{"coord":{"lat":13.35,"lon":74.75},"country":"IN","_id":1253952,"name":"Udipi"},{"coord":{"lat":50.133301000000003,"lon":6.8833299999999999},"country":"DE","_id":6554670,"name":"Udler"},{"coord":{"lat":50.133330999999998,"lon":6.8833299999999999},"country":"DE","_id":2820486,"name":"Udler"},{"coord":{"lat":50.440601000000001,"lon":13.457380000000001},"country":"CZ","_id":3063762,"name":"Udlice"},{"coord":{"lat":47.091019000000003,"lon":8.3996399999999998},"country":"CH","_id":7287357,"name":"Udligenswil"},{"coord":{"lat":47.090049999999998,"lon":8.4033499999999997},"country":"CH","_id":2658283,"name":"Udligenswil"},{"coord":{"lat":57,"lon":53},"country":"RU","_id":479613,"name":"Udmurtskaya Respublika"},{"coord":{"lat":44.193199,"lon":41.552897999999999},"country":"RU","_id":479596,"name":"Udobnaya"},{"coord":{"lat":57.879440000000002,"lon":34.9925},"country":"RU","_id":452949,"name":"Udomlya"},{"coord":{"lat":17.415669999999999,"lon":102.785889},"country":"TH","_id":1605239,"name":"Udon Thani"},{"coord":{"lat":24.716669,"lon":75.966667000000001},"country":"IN","_id":1253947,"name":"Udpura"},{"coord":{"lat":54.506110999999997,"lon":134.405823},"country":"RU","_id":2014611,"name":"Udskoye"},{"coord":{"lat":10.58333,"lon":77.25},"country":"IN","_id":1253944,"name":"Udumalaippettai"},{"coord":{"lat":43.339722000000002,"lon":-4.2670700000000004},"country":"ES","_id":6360734,"name":"Udías"},{"coord":{"lat":46.869469000000002,"lon":7.3263999999999996},"country":"CH","_id":7287358,"name":"Ueberstorf"},{"coord":{"lat":46.865870999999999,"lon":7.3099800000000004},"country":"CH","_id":2658281,"name":"Ueberstorf"},{"coord":{"lat":49.628608999999997,"lon":6.27806},"country":"LU","_id":2960026,"name":"Uebersyren"},{"coord":{"lat":46.739479000000003,"lon":7.5472799999999998},"country":"CH","_id":7287359,"name":"Uebeschi"},{"coord":{"lat":53.737949,"lon":14.044729999999999},"country":"DE","_id":2820471,"name":"Ueckermunde"},{"coord":{"lat":36.400002000000001,"lon":138.26666299999999},"country":"JP","_id":1849429,"name":"Ueda"},{"coord":{"lat":51.657798999999997,"lon":6.2759},"country":"DE","_id":6553035,"name":"Uedem"},{"coord":{"lat":51.666671999999998,"lon":6.2999999999999998},"country":"DE","_id":2820465,"name":"Uedem"},{"coord":{"lat":49.670848999999997,"lon":10.72017},"country":"DE","_id":2820334,"name":"Uehlfeld"},{"coord":{"lat":52.099997999999999,"lon":10.7667},"country":"DE","_id":6552427,"name":"Uehrde"},{"coord":{"lat":52.099018000000001,"lon":10.765230000000001},"country":"DE","_id":2820322,"name":"Uehrde"},{"coord":{"lat":32.900002000000001,"lon":130.683334},"country":"JP","_id":1849424,"name":"Ueki"},{"coord":{"lat":35.349997999999999,"lon":139.51666299999999},"country":"JP","_id":1849423,"name":"Ueki"},{"coord":{"lat":53.483299000000002,"lon":11.433299999999999},"country":"DE","_id":6547980,"name":"Uelitz"},{"coord":{"lat":53.483330000000002,"lon":11.43333},"country":"DE","_id":2820460,"name":"Uelitz"},{"coord":{"lat":52.5,"lon":6.8833299999999999},"country":"DE","_id":6552945,"name":"Uelsen"},{"coord":{"lat":52.5,"lon":6.8833299999999999},"country":"DE","_id":2820458,"name":"Uelsen"},{"coord":{"lat":49.810001,"lon":8.2886100000000003},"country":"DE","_id":6555304,"name":"Uelversheim"},{"coord":{"lat":49.810001,"lon":8.2886100000000003},"country":"DE","_id":2820457,"name":"Uelversheim"},{"coord":{"lat":54.415298,"lon":8.9239200000000007},"country":"DE","_id":2820203,"name":"Uelvesbull"},{"coord":{"lat":54.416697999999997,"lon":8.9333299999999998},"country":"DE","_id":6551619,"name":"Uelvesbüll"},{"coord":{"lat":52.966670999999998,"lon":10.56667},"country":"DE","_id":2820456,"name":"Uelzen"},{"coord":{"lat":49.704441000000003,"lon":9.9069400000000005},"country":"DE","_id":2820453,"name":"Uengershausen"},{"coord":{"lat":52.616669000000002,"lon":11.800000000000001},"country":"DE","_id":2820452,"name":"Uenglingen"},{"coord":{"lat":34.75,"lon":136.133331},"country":"JP","_id":1849414,"name":"Ueno"},{"coord":{"lat":37.183331000000003,"lon":138.75},"country":"JP","_id":1849410,"name":"Ueno"},{"coord":{"lat":35.616669000000002,"lon":139.116669},"country":"JP","_id":1849407,"name":"Uenohara"},{"coord":{"lat":47.236721000000003,"lon":8.7573000000000008},"country":"CH","_id":2658280,"name":"Uerikon"},{"coord":{"lat":47.302891000000002,"lon":8.0237099999999995},"country":"CH","_id":2658279,"name":"Uerkheim"},{"coord":{"lat":47.303618999999998,"lon":8.0090400000000006},"country":"CH","_id":7287361,"name":"Uerkheim"},{"coord":{"lat":50.25,"lon":7.0166700000000004},"country":"DE","_id":6554716,"name":"Uersfeld"},{"coord":{"lat":50.25,"lon":7.0166700000000004},"country":"DE","_id":2818152,"name":"Uersfeld"},{"coord":{"lat":50.25,"lon":6.9333299999999998},"country":"DE","_id":2820444,"name":"Uess"},{"coord":{"lat":47.589438999999999,"lon":8.8306400000000007},"country":"CH","_id":7287362,"name":"Uesslingen-Buch"},{"coord":{"lat":46.774979000000002,"lon":7.5745699999999996},"country":"CH","_id":7287363,"name":"Uetendorf"},{"coord":{"lat":46.773918000000002,"lon":7.5725100000000003},"country":"CH","_id":2658277,"name":"Uetendorf"},{"coord":{"lat":53.683331000000003,"lon":9.6666699999999999},"country":"DE","_id":2818067,"name":"Uetersen"},{"coord":{"lat":47.264408000000003,"lon":8.6792499999999997},"country":"CH","_id":2658276,"name":"Uetikon"},{"coord":{"lat":47.266540999999997,"lon":8.6776499999999999},"country":"CH","_id":6293652,"name":"Uetikon \/ Grossdorf"},{"coord":{"lat":47.270302000000001,"lon":8.6817100000000007},"country":"CH","_id":7287364,"name":"Uetikon am See"},{"coord":{"lat":49.794701000000003,"lon":9.7305600000000005},"country":"DE","_id":6557102,"name":"Uettingen"},{"coord":{"lat":49.794719999999998,"lon":9.7305600000000005},"country":"DE","_id":2820439,"name":"Uettingen"},{"coord":{"lat":52.466670999999998,"lon":12.93333},"country":"DE","_id":3208751,"name":"Uetz-Paaren"},{"coord":{"lat":52.471328999999997,"lon":10.158099999999999},"country":"DE","_id":6552432,"name":"Uetze"},{"coord":{"lat":52.465111,"lon":10.20467},"country":"DE","_id":2820436,"name":"Uetze"},{"coord":{"lat":44.082160999999999,"lon":106.86985},"country":"MN","_id":2028252,"name":"UEydzen"},{"coord":{"lat":50.25,"lon":6.9333299999999998},"country":"DE","_id":6554717,"name":"Ueß"},{"coord":{"lat":54.775002000000001,"lon":56.037497999999999},"country":"RU","_id":479561,"name":"Ufa"},{"coord":{"lat":50.906039999999997,"lon":-3.3274599999999999},"country":"GB","_id":2635234,"name":"Uffculme"},{"coord":{"lat":49.533329000000002,"lon":10.25},"country":"DE","_id":2820423,"name":"Uffenheim"},{"coord":{"lat":50.577572000000004,"lon":9.5296099999999999},"country":"DE","_id":2820421,"name":"Uffhausen"},{"coord":{"lat":47.820419000000001,"lon":7.1770800000000001},"country":"FR","_id":6441649,"name":"Uffholtz"},{"coord":{"lat":47.820819999999998,"lon":7.1778500000000003},"country":"FR","_id":2971401,"name":"Uffholtz"},{"coord":{"lat":47.21096,"lon":8.0180799999999994},"country":"CH","_id":2658273,"name":"Uffikon"},{"coord":{"lat":47.716670999999998,"lon":11.15},"country":"DE","_id":2820419,"name":"Uffing"},{"coord":{"lat":52.623790999999997,"lon":-0.38435000000000002},"country":"GB","_id":2635230,"name":"Ufford"},{"coord":{"lat":47.107922000000002,"lon":7.8928900000000004},"country":"CH","_id":7287366,"name":"Ufhusen"},{"coord":{"lat":47.11647,"lon":7.8962399999999997},"country":"CH","_id":2658272,"name":"Ufhusen"},{"coord":{"lat":56.708401000000002,"lon":58.051701000000001},"country":"RU","_id":479553,"name":"Ufimskiy"},{"coord":{"lat":51.498589000000003,"lon":10.98066},"country":"DE","_id":2820413,"name":"Uftrungen"},{"coord":{"lat":28.950319,"lon":-13.744490000000001},"country":"ES","_id":2510105,"name":"Uga"},{"coord":{"lat":5.9357600000000001,"lon":7.0792999999999999},"country":"NG","_id":2320920,"name":"Uga"},{"coord":{"lat":7.7123999999999997,"lon":8.6136999999999997},"country":"NG","_id":2320909,"name":"Uga Soja"},{"coord":{"lat":17.607220000000002,"lon":121.714996},"country":"PH","_id":1680430,"name":"Ugac Sur"},{"coord":{"lat":17.29373,"lon":121.799843},"country":"PH","_id":1680428,"name":"Ugad"},{"coord":{"lat":64.966667000000001,"lon":130.449997},"country":"RU","_id":2014583,"name":"Ugakhyn"},{"coord":{"lat":57.766669999999998,"lon":-153.39999399999999},"country":"US","_id":5877087,"name":"Uganik"},{"coord":{"lat":43.143290999999998,"lon":-2.7515700000000001},"country":"ES","_id":3107326,"name":"Ugarana"},{"coord":{"lat":47.183331000000003,"lon":20.200001},"country":"HU","_id":714478,"name":"Ugari Tanyák"},{"coord":{"lat":46.816668999999997,"lon":21.033331},"country":"HU","_id":714477,"name":"Ugaritanyák"},{"coord":{"lat":40.163052,"lon":-3.87243},"country":"ES","_id":6361836,"name":"Ugena"},{"coord":{"lat":40.155720000000002,"lon":-3.8760300000000001},"country":"ES","_id":3107320,"name":"Ugena"},{"coord":{"lat":39.926318999999999,"lon":18.157430999999999},"country":"IT","_id":2522833,"name":"Ugento"},{"coord":{"lat":5.8086000000000002,"lon":8.0812000000000008},"country":"NG","_id":2320831,"name":"Ugep"},{"coord":{"lat":60.004021000000002,"lon":5.5287600000000001},"country":"NO","_id":3133425,"name":"Uggdal"},{"coord":{"lat":40.101719000000003,"lon":18.449328999999999},"country":"IT","_id":3165065,"name":"Uggiano la Chiesa"},{"coord":{"lat":45.82338,"lon":8.9596400000000003},"country":"IT","_id":3165063,"name":"Uggiate"},{"coord":{"lat":5.4898600000000002,"lon":6.0074300000000003},"country":"NG","_id":2320829,"name":"Ughelli"},{"coord":{"lat":36.960869000000002,"lon":-3.0552299999999999},"country":"ES","_id":2510103,"name":"Ugijar"},{"coord":{"lat":45.75,"lon":6.4166699999999999},"country":"FR","_id":6442917,"name":"Ugine"},{"coord":{"lat":45.750838999999999,"lon":6.4161099999999998},"country":"FR","_id":2971399,"name":"Ugine"},{"coord":{"lat":47.780312000000002,"lon":37.250641000000002},"country":"UA","_id":690823,"name":"Ugledar"},{"coord":{"lat":49.083328000000002,"lon":142.03332499999999},"country":"RU","_id":2120261,"name":"Uglegorsk"},{"coord":{"lat":48.314739000000003,"lon":38.274231},"country":"UA","_id":690822,"name":"Uglegorsk"},{"coord":{"lat":48.242741000000002,"lon":41.253101000000001},"country":"RU","_id":479539,"name":"Uglegorskiy"},{"coord":{"lat":43.217219999999998,"lon":133.23028600000001},"country":"RU","_id":2014573,"name":"Uglekamensk"},{"coord":{"lat":49.766666000000001,"lon":73.066665999999998},"country":"KZ","_id":1517824,"name":"Uglerazrez"},{"coord":{"lat":48.147041000000002,"lon":40.062069000000001},"country":"RU","_id":479537,"name":"Uglerodovskiy"},{"coord":{"lat":55.204445,"lon":37.503334000000002},"country":"RU","_id":6416015,"name":"Ugleshchnya"},{"coord":{"lat":58.95335,"lon":57.584629},"country":"RU","_id":479535,"name":"Ugleuralskiy"},{"coord":{"lat":56.611462000000003,"lon":8.5442800000000005},"country":"DK","_id":2610971,"name":"Uglev"},{"coord":{"lat":47.316668999999997,"lon":142.616669},"country":"RU","_id":2120257,"name":"Uglezavodsk"},{"coord":{"lat":57.527500000000003,"lon":38.331668999999998},"country":"RU","_id":479532,"name":"Uglich"},{"coord":{"lat":44.130828999999999,"lon":15.103059999999999},"country":"HR","_id":3188538,"name":"Ugljan"},{"coord":{"lat":44.663609000000001,"lon":19.020281000000001},"country":"BA","_id":3188532,"name":"Ugljevik"},{"coord":{"lat":58.239170000000001,"lon":33.510829999999999},"country":"RU","_id":479523,"name":"Uglovka"},{"coord":{"lat":43.328887999999999,"lon":132.09165999999999},"country":"RU","_id":2014571,"name":"Uglovoye"},{"coord":{"lat":51.355701000000003,"lon":80.194198999999998},"country":"RU","_id":1488632,"name":"Uglovskoye"},{"coord":{"lat":51.81908,"lon":39.596062000000003},"country":"RU","_id":479512,"name":"Uglyanets"},{"coord":{"lat":54.5,"lon":110.699997},"country":"RU","_id":2014569,"name":"Ugnasay"},{"coord":{"lat":50.368110999999999,"lon":23.748949},"country":"UA","_id":690814,"name":"Ugnev"},{"coord":{"lat":35.520198999999998,"lon":128.36234999999999},"country":"KR","_id":6901967,"name":"Ugok"},{"coord":{"lat":67.650002000000001,"lon":53.066668999999997},"country":"RU","_id":479487,"name":"Ugol’nyy"},{"coord":{"lat":64.733329999999995,"lon":177.699997},"country":"RU","_id":2120245,"name":"Ugol’nyye Kopi"},{"coord":{"lat":5.6666699999999999,"lon":73},"country":"MV","_id":1337619,"name":"Ugoofaaru"},{"coord":{"lat":58.1325,"lon":44.361941999999999},"country":"RU","_id":479474,"name":"Ugory"},{"coord":{"lat":54.777748000000003,"lon":34.326740000000001},"country":"RU","_id":479471,"name":"Ugra"},{"coord":{"lat":54.507133000000003,"lon":36.084274000000001},"country":"RU","_id":479472,"name":"Ugra"},{"coord":{"lat":44.878329999999998,"lon":20.186938999999999},"country":"RS","_id":784779,"name":"Ugrinovci"},{"coord":{"lat":55.613334999999999,"lon":36.745834000000002},"country":"RU","_id":819094,"name":"Ugryumovo"},{"coord":{"lat":54.383330999999998,"lon":110.383331},"country":"RU","_id":2014547,"name":"Ugsakhay"},{"coord":{"lat":26.783331,"lon":80.333327999999995},"country":"IN","_id":1253930,"name":"Ugu"},{"coord":{"lat":43.099997999999999,"lon":24.41667},"country":"BG","_id":726114,"name":"Ugurchin"},{"coord":{"lat":40.44632,"lon":34.452590999999998},"country":"TR","_id":738468,"name":"Ugurludag"},{"coord":{"lat":36.947009999999999,"lon":-3.07165},"country":"ES","_id":6357784,"name":"Ugíjar"},{"coord":{"lat":57,"lon":-153.91667200000001},"country":"US","_id":5877112,"name":"Uhaiak (historical)"},{"coord":{"lat":43.166671999999998,"lon":-1.23333},"country":"FR","_id":6440639,"name":"Uhart-Cize"},{"coord":{"lat":43.162208999999997,"lon":-1.2436499999999999},"country":"FR","_id":2971392,"name":"Uhart-Cize"},{"coord":{"lat":49.464550000000003,"lon":22.398291},"country":"PL","_id":756406,"name":"Uherce Mineralne"},{"coord":{"lat":49.069752000000001,"lon":17.459689999999998},"country":"CZ","_id":3063739,"name":"Uherske Hradiste"},{"coord":{"lat":49.025131000000002,"lon":17.64715},"country":"CZ","_id":3063736,"name":"Uhersky Brod"},{"coord":{"lat":48.985560999999997,"lon":17.389838999999998},"country":"CZ","_id":3063735,"name":"Uhersky Ostroh"},{"coord":{"lat":48.704749999999997,"lon":9.5856999999999992},"country":"DE","_id":2820407,"name":"Uhingen"},{"coord":{"lat":46.170558999999997,"lon":14.50972},"country":"SI","_id":3219943,"name":"Uhk"},{"coord":{"lat":29.957719999999998,"lon":-97.786109999999994},"country":"US","_id":4738279,"name":"Uhland"},{"coord":{"lat":47.733330000000002,"lon":9.25},"country":"DE","_id":3205690,"name":"Uhldingen-Muhlhofen"},{"coord":{"lat":47.733299000000002,"lon":9.25},"country":"DE","_id":6556052,"name":"Uhldingen-Mühlhofen"},{"coord":{"lat":54.799999,"lon":8.8499999999999996},"country":"DE","_id":2820396,"name":"Uhlebüll"},{"coord":{"lat":50.083302000000003,"lon":7.4333299999999998},"country":"DE","_id":6553975,"name":"Uhler"},{"coord":{"lat":50.083328000000002,"lon":7.4333299999999998},"country":"DE","_id":2820338,"name":"Uhler"},{"coord":{"lat":47.716670999999998,"lon":8.3166700000000002},"country":"DE","_id":3205691,"name":"Uhlingen-Birkendorf"},{"coord":{"lat":49.880192000000001,"lon":15.06481},"country":"CZ","_id":3063727,"name":"Uhlirske Janovice"},{"coord":{"lat":50.933331000000003,"lon":12.550000000000001},"country":"DE","_id":2820329,"name":"Uhlmannsdorf"},{"coord":{"lat":44.821460999999999,"lon":33.604519000000003},"country":"UA","_id":690820,"name":"Uhlove"},{"coord":{"lat":50.75,"lon":11.466670000000001},"country":"DE","_id":2820326,"name":"Uhlstädt"},{"coord":{"lat":40.393120000000003,"lon":-81.346496999999999},"country":"US","_id":5174585,"name":"Uhrichsville"},{"coord":{"lat":52.296928000000001,"lon":10.85758},"country":"DE","_id":2820317,"name":"Uhry"},{"coord":{"lat":48.955199999999998,"lon":24.692920999999998},"country":"UA","_id":690804,"name":"Uhryniv"},{"coord":{"lat":47.670738,"lon":8.6354199999999999},"country":"CH","_id":2658271,"name":"Uhwiesen"},{"coord":{"lat":47.668529999999997,"lon":8.63551},"country":"CH","_id":6290822,"name":"Uhwiesen \/ Mettliwisen-Katzenbach"},{"coord":{"lat":51.366669000000002,"lon":14.51667},"country":"DE","_id":2820314,"name":"Uhyst"},{"coord":{"lat":51.200001,"lon":14.216670000000001},"country":"DE","_id":2820313,"name":"Uhyst am Taucher"},{"coord":{"lat":-11.33694,"lon":-42.1325},"country":"BR","_id":3445821,"name":"Uibaí"},{"coord":{"lat":51.200001,"lon":11.91667},"country":"DE","_id":2820312,"name":"Uichteritz"},{"coord":{"lat":-7.6087400000000001,"lon":15.061310000000001},"country":"AO","_id":2236568,"name":"Uige"},{"coord":{"lat":40.975181999999997,"lon":126.495842},"country":"KP","_id":2039625,"name":"Uijin-dong"},{"coord":{"lat":40.199440000000003,"lon":124.53167000000001},"country":"KP","_id":2039623,"name":"Uiju"},{"coord":{"lat":46.682301000000002,"lon":22.221568999999999},"country":"RO","_id":7871348,"name":"Uileacu de Beius"},{"coord":{"lat":50.966670999999998,"lon":3.9666700000000001},"country":"BE","_id":2785110,"name":"Uilenhoek"},{"coord":{"lat":56.881740999999998,"lon":56.581347999999998},"country":"RU","_id":479442,"name":"Uinskoye"},{"coord":{"lat":41.262501,"lon":-110.568398},"country":"US","_id":5841693,"name":"Uinta County"},{"coord":{"lat":41.144112,"lon":-111.923271},"country":"US","_id":5783914,"name":"Uintah"},{"coord":{"lat":-6.5183299999999997,"lon":-38.412219999999998},"country":"BR","_id":3385850,"name":"Uirauna"},{"coord":{"lat":-33.757567999999999,"lon":25.397099999999998},"country":"ZA","_id":946877,"name":"Uitenhage"},{"coord":{"lat":52.529170999999998,"lon":4.7097199999999999},"country":"NL","_id":2745978,"name":"Uitgeest"},{"coord":{"lat":52.237499,"lon":4.82639},"country":"NL","_id":2745973,"name":"Uithoorn"},{"coord":{"lat":53.414169000000001,"lon":6.7236099999999999},"country":"NL","_id":2745968,"name":"Uithuizermeeden"},{"coord":{"lat":47.367019999999997,"lon":8.4590300000000003},"country":"CH","_id":7287367,"name":"Uitikon"},{"coord":{"lat":47.369109999999999,"lon":8.4569899999999993},"country":"CH","_id":2658269,"name":"Uitikon"},{"coord":{"lat":47.363318999999997,"lon":8.4644399999999997},"country":"CH","_id":6295374,"name":"Uitikon \/ Waldegg"},{"coord":{"lat":51.982498,"lon":5.0166700000000004},"country":"NL","_id":2745961,"name":"Uitweg"},{"coord":{"lat":45.658057999999997,"lon":20.905830000000002},"country":"RO","_id":664344,"name":"Uivar"},{"coord":{"lat":41.219859999999997,"lon":-3.0061599999999999},"country":"ES","_id":6358057,"name":"Ujados"},{"coord":{"lat":41.235259999999997,"lon":-3.00482},"country":"ES","_id":3107318,"name":"Ujados"},{"coord":{"lat":8.9321800000000007,"lon":165.76416},"country":"MH","_id":7306519,"name":"Ujae"},{"coord":{"lat":9.0803999999999991,"lon":165.62782300000001},"country":"MH","_id":7303514,"name":"Ujae Atoll"},{"coord":{"lat":40.519019999999998,"lon":47.654228000000003},"country":"AZ","_id":584791,"name":"Ujar"},{"coord":{"lat":40.416671999999998,"lon":47.75},"country":"AZ","_id":584783,"name":"Ujar Rayon"},{"coord":{"lat":51.597808999999998,"lon":19.922250999999999},"country":"PL","_id":3082854,"name":"Ujazd"},{"coord":{"lat":50.389381,"lon":18.349291000000001},"country":"PL","_id":3082855,"name":"Ujazd"},{"coord":{"lat":49.763969000000003,"lon":17.180401},"country":"CZ","_id":3063683,"name":"Ujezd"},{"coord":{"lat":49.168090999999997,"lon":17.906099000000001},"country":"CZ","_id":3063695,"name":"Ujezd"},{"coord":{"lat":47.799999,"lon":21.683330999999999},"country":"HU","_id":714464,"name":"Ujfeherto"},{"coord":{"lat":28.016666000000001,"lon":79.016670000000005},"country":"IN","_id":1253918,"name":"Ujhani"},{"coord":{"lat":47.219810000000003,"lon":19.386379000000002},"country":"HU","_id":3043581,"name":"Ujhartyan"},{"coord":{"lat":34.883330999999998,"lon":135.800003},"country":"JP","_id":1849372,"name":"Uji"},{"coord":{"lat":36.683331000000003,"lon":139.96667500000001},"country":"JP","_id":1849367,"name":"Ujiie"},{"coord":{"lat":-4.9055600000000004,"lon":29.676109},"country":"TZ","_id":149310,"name":"Ujiji"},{"coord":{"lat":25.783331,"lon":85.800003000000004},"country":"IN","_id":1253916,"name":"Ujiārpur"},{"coord":{"lat":23.183330999999999,"lon":75.766670000000005},"country":"IN","_id":1253914,"name":"Ujjain"},{"coord":{"lat":46.583328000000002,"lon":21.033331},"country":"HU","_id":714449,"name":"Ujkigyos"},{"coord":{"lat":47.450001,"lon":24.899999999999999},"country":"RO","_id":668091,"name":"Ujrad"},{"coord":{"lat":53.053390999999998,"lon":16.732009999999999},"country":"PL","_id":3082838,"name":"Ujscie"},{"coord":{"lat":49.482899000000003,"lon":19.138010000000001},"country":"PL","_id":3082837,"name":"Ujsoly"},{"coord":{"lat":47.299999,"lon":20.08333},"country":"HU","_id":714421,"name":"Ujszasz"},{"coord":{"lat":47.274768999999999,"lon":19.924769999999999},"country":"HU","_id":3043448,"name":"Ujszilvas"},{"coord":{"lat":42.5,"lon":-1.5},"country":"ES","_id":3107316,"name":"Ujue"},{"coord":{"lat":-0.90249999999999997,"lon":119.86199999999999},"country":"ID","_id":6971019,"name":"Ujuna"},{"coord":{"lat":-8.2136999999999993,"lon":114.381798},"country":"ID","_id":7545196,"name":"Ujung"},{"coord":{"lat":-7.2199999999999998,"lon":108.78449999999999},"country":"ID","_id":1622804,"name":"Ujungbarang Satu"},{"coord":{"lat":-6.9169999999999998,"lon":112.555099},"country":"ID","_id":1622784,"name":"Ujungpangkah"},{"coord":{"lat":42.480049000000001,"lon":-1.4899500000000001},"country":"ES","_id":6359782,"name":"Ujué"},{"coord":{"lat":53.054797999999998,"lon":16.727699000000001},"country":"PL","_id":7533237,"name":"Ujście"},{"coord":{"lat":55.078999000000003,"lon":98.858597000000003},"country":"RU","_id":1488616,"name":"Uk"},{"coord":{"lat":10.83122,"lon":5.8249399999999998},"country":"NG","_id":2320746,"name":"Ukata"},{"coord":{"lat":28.299999,"lon":129.23333700000001},"country":"JP","_id":1849347,"name":"Uken"},{"coord":{"lat":53.792900000000003,"lon":40.489201000000001},"country":"RU","_id":479426,"name":"Ukholovo"},{"coord":{"lat":63.567050999999999,"lon":53.683478999999998},"country":"RU","_id":479411,"name":"Ukhta"},{"coord":{"lat":53.951801000000003,"lon":102.079903},"country":"RU","_id":2014533,"name":"Ukhtuy"},{"coord":{"lat":32.799999,"lon":130.08332799999999},"country":"JP","_id":1849344,"name":"Uki"},{"coord":{"lat":39.150168999999998,"lon":-123.207779},"country":"US","_id":5404476,"name":"Ukiah"},{"coord":{"lat":-6.8041999999999998,"lon":111.511703},"country":"ID","_id":8073139,"name":"Ukir"},{"coord":{"lat":29.516670000000001,"lon":75.866669000000002},"country":"IN","_id":1253901,"name":"Uklana"},{"coord":{"lat":55.25,"lon":24.75},"country":"LT","_id":593733,"name":"Ukmerge"},{"coord":{"lat":49,"lon":32},"country":"UA","_id":690791,"name":"Ukraine"},{"coord":{"lat":47.916671999999998,"lon":35.349997999999999},"country":"UA","_id":690777,"name":"Ukrainka"},{"coord":{"lat":50.143169,"lon":30.746120000000001},"country":"UA","_id":690773,"name":"Ukrainka"},{"coord":{"lat":45.939442,"lon":39.825588000000003},"country":"RU","_id":479343,"name":"Ukrainskaya"},{"coord":{"lat":46.233333999999999,"lon":39.816665999999998},"country":"RU","_id":479338,"name":"Ukrainskiy"},{"coord":{"lat":44.960720000000002,"lon":34.063460999999997},"country":"UA","_id":690788,"name":"Ukrayinka"},{"coord":{"lat":-3.5,"lon":23.633329},"country":"CD","_id":204498,"name":"Ukungu"},{"coord":{"lat":21.966669,"lon":80.466667000000001},"country":"IN","_id":1253898,"name":"Ukwa"},{"coord":{"lat":40.819198999999998,"lon":-8.4989699999999999},"country":"PT","_id":8010822,"name":"Ul"},{"coord":{"lat":40.814610000000002,"lon":-8.4955300000000005},"country":"PT","_id":2733315,"name":"Ul"},{"coord":{"lat":22.7225,"lon":88.555556999999993},"country":"IN","_id":1349247,"name":"Ula"},{"coord":{"lat":7.1322200000000002,"lon":125.49221799999999},"country":"PH","_id":1680399,"name":"Ula"},{"coord":{"lat":37.104911999999999,"lon":28.41667},"country":"TR","_id":298485,"name":"Ula"},{"coord":{"lat":40.045952,"lon":8.9040300000000006},"country":"IT","_id":3165057,"name":"Ula Tirso"},{"coord":{"lat":46.900002000000001,"lon":109.75},"country":"MN","_id":2028445,"name":"Ulaan-Ereg"},{"coord":{"lat":46.067402000000001,"lon":100.817238},"country":"MN","_id":2028357,"name":"Ulaan-Uul"},{"coord":{"lat":44.333328000000002,"lon":111.23333},"country":"MN","_id":2028359,"name":"Ulaan-Uul"},{"coord":{"lat":47.907710999999999,"lon":106.88324},"country":"MN","_id":2028462,"name":"Ulaanbaatar"},{"coord":{"lat":47.916671999999998,"lon":106.91667200000001},"country":"MN","_id":2028461,"name":"Ulaanbaatar Hot"},{"coord":{"lat":46.364460000000001,"lon":113.577003},"country":"MN","_id":2028450,"name":"Ulaandel"},{"coord":{"lat":49.981110000000001,"lon":92.066672999999994},"country":"MN","_id":1515029,"name":"Ulaangom"},{"coord":{"lat":47.949928,"lon":105.553207},"country":"MN","_id":2028437,"name":"Ulaanhad"},{"coord":{"lat":47.333328000000002,"lon":104.5},"country":"MN","_id":2028429,"name":"Ulaanhudag"},{"coord":{"lat":45.049999,"lon":105.56667299999999},"country":"MN","_id":2028411,"name":"Ulaanjirem"},{"coord":{"lat":47.289478000000003,"lon":103.85659},"country":"MN","_id":6988118,"name":"Ulaanshiveet"},{"coord":{"lat":46.683331000000003,"lon":92.783332999999999},"country":"MN","_id":1515018,"name":"Ulaantolgoy"},{"coord":{"lat":39.093330000000002,"lon":107.985832},"country":"CN","_id":1792283,"name":"Ulan"},{"coord":{"lat":41.513061999999998,"lon":111.696388},"country":"CN","_id":2034310,"name":"Ulan Hua"},{"coord":{"lat":51.826061000000003,"lon":107.609802},"country":"RU","_id":7536080,"name":"Ulan-Ude"},{"coord":{"lat":51.826050000000002,"lon":107.609787},"country":"RU","_id":2014407,"name":"Ulan-Ude"},{"coord":{"lat":46.083328000000002,"lon":122.08332799999999},"country":"CN","_id":2034312,"name":"Ulanhot"},{"coord":{"lat":49.695121999999998,"lon":28.13298},"country":"UA","_id":690756,"name":"Ulanov"},{"coord":{"lat":50.490310999999998,"lon":22.26362},"country":"PL","_id":756377,"name":"Ulanow"},{"coord":{"lat":50.490699999999997,"lon":22.2959},"country":"PL","_id":7533119,"name":"Ulanów"},{"coord":{"lat":45.049999,"lon":23.283331},"country":"RO","_id":664340,"name":"Ulari"},{"coord":{"lat":39.444920000000003,"lon":37.039000999999999},"country":"TR","_id":298471,"name":"Ulas"},{"coord":{"lat":40.665000999999997,"lon":108.74472},"country":"CN","_id":2050968,"name":"Ulashan"},{"coord":{"lat":40.705829999999999,"lon":29.696079000000001},"country":"TR","_id":738457,"name":"Ulasli"},{"coord":{"lat":39.809441,"lon":9.4988899999999994},"country":"IT","_id":2522832,"name":"Ulassai"},{"coord":{"lat":50.874721999999998,"lon":13.67231},"country":"DE","_id":2820296,"name":"Ulberndorf"},{"coord":{"lat":56.941108999999997,"lon":24.289721},"country":"LV","_id":454714,"name":"Ulbroka"},{"coord":{"lat":53.616669000000002,"lon":-0.33333000000000002},"country":"GB","_id":2635205,"name":"Ulceby"},{"coord":{"lat":36.992939,"lon":129.39999399999999},"country":"KR","_id":1833763,"name":"Ulchin"},{"coord":{"lat":41.929358999999998,"lon":19.224360000000001},"country":"ME","_id":3188516,"name":"Ulcinj"},{"coord":{"lat":48.690280999999999,"lon":111.994629},"country":"MN","_id":2028351,"name":"Uldz"},{"coord":{"lat":38.155521,"lon":-1.2854099999999999},"country":"ES","_id":6359544,"name":"Ulea"},{"coord":{"lat":38.140450000000001,"lon":-1.3300700000000001},"country":"ES","_id":2510102,"name":"Ulea"},{"coord":{"lat":59.283821000000003,"lon":9.2645900000000001},"country":"NO","_id":3133402,"name":"Ulefoss"},{"coord":{"lat":37.194629999999997,"lon":-2.1869900000000002},"country":"ES","_id":6355607,"name":"Uleila del Campo"},{"coord":{"lat":37.184601000000001,"lon":-2.2049099999999999},"country":"ES","_id":2510100,"name":"Uleila del Campo"},{"coord":{"lat":52.233330000000002,"lon":8.6833299999999998},"country":"DE","_id":2820292,"name":"Ulenburg"},{"coord":{"lat":-8.9333299999999998,"lon":33.683331000000003},"country":"TZ","_id":149239,"name":"Ulenje"},{"coord":{"lat":58.316200000000002,"lon":26.725169999999999},"country":"EE","_id":588092,"name":"Ulenurme"},{"coord":{"lat":51.357201000000003,"lon":112.48490099999999},"country":"RU","_id":2014369,"name":"Ulety"},{"coord":{"lat":51.591949,"lon":22.107410000000002},"country":"PL","_id":756354,"name":"Ulez"},{"coord":{"lat":56.267249999999997,"lon":8.3216699999999992},"country":"DK","_id":2610959,"name":"Ulfborg"},{"coord":{"lat":19.216669,"lon":73.150002000000001},"country":"IN","_id":1253894,"name":"Ulhasnagar"},{"coord":{"lat":50.449691999999999,"lon":23.799561000000001},"country":"PL","_id":756351,"name":"Ulhowek"},{"coord":{"lat":45.549999,"lon":116.83332799999999},"country":"CN","_id":2034292,"name":"Uliastai"},{"coord":{"lat":47.741669000000002,"lon":96.844436999999999},"country":"MN","_id":1515007,"name":"Uliastay"},{"coord":{"lat":42.723221000000002,"lon":-2.2449300000000001},"country":"ES","_id":3107312,"name":"Ulibarri"},{"coord":{"lat":52.165588,"lon":22.297778999999998},"country":"PL","_id":756349,"name":"Ulica Starowiejska"},{"coord":{"lat":49.233848999999999,"lon":23.651109999999999},"country":"UA","_id":690745,"name":"Ulichnoye"},{"coord":{"lat":44.583328000000002,"lon":25.41667},"country":"RO","_id":664329,"name":"Uliesti"},{"coord":{"lat":-31.33333,"lon":149.383331},"country":"AU","_id":2145560,"name":"Ulimambri"},{"coord":{"lat":7.6241599999999998,"lon":134.64207500000001},"country":"PW","_id":1559543,"name":"Ulimang"},{"coord":{"lat":10.280480000000001,"lon":123.709999},"country":"PH","_id":1680367,"name":"Uling"},{"coord":{"lat":55.683334000000002,"lon":36.666668000000001},"country":"RU","_id":479258,"name":"Ulitino"},{"coord":{"lat":45.041111000000001,"lon":21.156110999999999},"country":"RS","_id":784771,"name":"Uljma"},{"coord":{"lat":45.211941000000003,"lon":73.978606999999997},"country":"KZ","_id":1537980,"name":"Ulken"},{"coord":{"lat":42.049999,"lon":3.1166700000000001},"country":"ES","_id":3107309,"name":"Ulla"},{"coord":{"lat":-35.349997999999999,"lon":150.46667500000001},"country":"AU","_id":2145554,"name":"Ulladulla"},{"coord":{"lat":12.800000000000001,"lon":74.849997999999999},"country":"IN","_id":1253888,"name":"Ullal"},{"coord":{"lat":57.898719999999997,"lon":-5.1603899999999996},"country":"GB","_id":2635199,"name":"Ullapool"},{"coord":{"lat":41.526428000000003,"lon":1.9553700000000001},"country":"ES","_id":3107306,"name":"Ullastrell"},{"coord":{"lat":42.003329999999998,"lon":3.0750299999999999},"country":"ES","_id":6534158,"name":"Ullastret"},{"coord":{"lat":42,"lon":3.0666699999999998},"country":"ES","_id":3107301,"name":"Ullastret"},{"coord":{"lat":63.599997999999999,"lon":24.08333},"country":"FI","_id":633413,"name":"Ullava"},{"coord":{"lat":40.597239999999999,"lon":0.44725999999999999},"country":"ES","_id":6361398,"name":"Ulldecona"},{"coord":{"lat":40.597340000000003,"lon":0.44718000000000002},"country":"ES","_id":3107305,"name":"Ulldecona"},{"coord":{"lat":41.317909,"lon":0.85445000000000004},"country":"ES","_id":6361399,"name":"Ulldemolins"},{"coord":{"lat":41.322158999999999,"lon":0.87649999999999995},"country":"ES","_id":3107303,"name":"Ulldemolins"},{"coord":{"lat":60.144008999999997,"lon":11.17441},"country":"NO","_id":3133381,"name":"Ullensaker"},{"coord":{"lat":58.650002000000001,"lon":13.133330000000001},"country":"SE","_id":2666545,"name":"Ullered"},{"coord":{"lat":55.361721000000003,"lon":10.651899999999999},"country":"DK","_id":2610942,"name":"Ullerslev"},{"coord":{"lat":46.336109,"lon":19.844539999999999},"country":"HU","_id":3043358,"name":"Ulles"},{"coord":{"lat":53.854340000000001,"lon":-1.2126600000000001},"country":"GB","_id":2635196,"name":"Ulleskelf"},{"coord":{"lat":53.381999999999998,"lon":-1.3022199999999999},"country":"GB","_id":2635194,"name":"Ulley"},{"coord":{"lat":-37.283329000000002,"lon":143.89999399999999},"country":"AU","_id":2145550,"name":"Ullina"},{"coord":{"lat":42.758170999999997,"lon":-2.3198599999999998},"country":"ES","_id":3107300,"name":"Ullivarri-Arana"},{"coord":{"lat":47.387711000000003,"lon":19.355329999999999},"country":"HU","_id":3043356,"name":"Ullo"},{"coord":{"lat":4.70444,"lon":-75.740279999999998},"country":"CO","_id":3666502,"name":"Ulloa"},{"coord":{"lat":51.083328000000002,"lon":13.15},"country":"DE","_id":2820258,"name":"Ullrichsberg"},{"coord":{"lat":49.616669000000002,"lon":10.48333},"country":"DE","_id":2820257,"name":"Ullstadt"},{"coord":{"lat":-36.966670999999998,"lon":141.383331},"country":"AU","_id":2145549,"name":"Ullswater"},{"coord":{"lat":42.373772000000002,"lon":47.374512000000003},"country":"RU","_id":479242,"name":"Ulluaya"},{"coord":{"lat":42.596888999999997,"lon":47.718238999999997},"country":"RU","_id":479241,"name":"Ullubiyaul"},{"coord":{"lat":49.283329000000002,"lon":2.2833299999999999},"country":"FR","_id":6439012,"name":"Ully-Saint-Georges"},{"coord":{"lat":49.279139999999998,"lon":2.2809400000000002},"country":"FR","_id":2971386,"name":"Ully-Saint-Georges"},{"coord":{"lat":42.052169999999997,"lon":3.10528},"country":"ES","_id":6534157,"name":"Ullà"},{"coord":{"lat":42.887900999999999,"lon":-2.59294},"country":"ES","_id":3107299,"name":"Ullívarri-Arrazua"},{"coord":{"lat":48.398411000000003,"lon":9.9915500000000002},"country":"DE","_id":2820256,"name":"Ulm"},{"coord":{"lat":47.883330999999998,"lon":25.299999},"country":"RO","_id":664317,"name":"Ulma"},{"coord":{"lat":-29.633329,"lon":153.03332499999999},"country":"AU","_id":2145548,"name":"Ulmarra"},{"coord":{"lat":50.370541000000003,"lon":9.4192300000000007},"country":"DE","_id":2820252,"name":"Ulmbach"},{"coord":{"lat":50.209431000000002,"lon":6.9771799999999997},"country":"DE","_id":2820247,"name":"Ulmen"},{"coord":{"lat":50.209431000000002,"lon":6.9794099999999997},"country":"DE","_id":2820249,"name":"Ulmen"},{"coord":{"lat":47.466670999999998,"lon":23.299999},"country":"RO","_id":664311,"name":"Ulmeni"},{"coord":{"lat":45.066668999999997,"lon":26.649999999999999},"country":"RO","_id":664312,"name":"Ulmeni"},{"coord":{"lat":44.150002000000001,"lon":26.716669},"country":"RO","_id":664314,"name":"Ulmeni"},{"coord":{"lat":47.65202,"lon":8.7830600000000008},"country":"CH","_id":6290988,"name":"Ulmerhof"},{"coord":{"lat":49.583302000000003,"lon":7.4500000000000002},"country":"DE","_id":6555154,"name":"Ulmet"},{"coord":{"lat":49.583328000000002,"lon":7.4500000000000002},"country":"DE","_id":2820240,"name":"Ulmet"},{"coord":{"lat":44.983330000000002,"lon":26.233329999999999},"country":"RO","_id":664292,"name":"Ulmi"},{"coord":{"lat":44.900002000000001,"lon":25.5},"country":"RO","_id":664294,"name":"Ulmi"},{"coord":{"lat":44.486671000000001,"lon":25.780279},"country":"RO","_id":664295,"name":"Ulmi"},{"coord":{"lat":47.020000000000003,"lon":28.545829999999999},"country":"MD","_id":617182,"name":"Ulmu"},{"coord":{"lat":44.950001,"lon":27.316669000000001},"country":"RO","_id":664286,"name":"Ulmu"},{"coord":{"lat":44.266669999999998,"lon":26.91667},"country":"RO","_id":664287,"name":"Ulmu"},{"coord":{"lat":-30.233329999999999,"lon":152.89999399999999},"country":"AU","_id":2145545,"name":"Ulong"},{"coord":{"lat":57.791592000000001,"lon":13.41422},"country":"SE","_id":2666493,"name":"Ulricehamn"},{"coord":{"lat":46.506408999999998,"lon":8.3047500000000003},"country":"CH","_id":2658268,"name":"Ulrichen"},{"coord":{"lat":47.683331000000003,"lon":12.800000000000001},"country":"DE","_id":2820236,"name":"Ulrichholz"},{"coord":{"lat":48.676848999999997,"lon":13.90912},"country":"AT","_id":7872121,"name":"Ulrichsberg"},{"coord":{"lat":48.674979999999998,"lon":13.910489999999999},"country":"AT","_id":2763176,"name":"Ulrichsberg"},{"coord":{"lat":48.616669000000002,"lon":11.91667},"country":"DE","_id":2820218,"name":"Ulrichsried"},{"coord":{"lat":50.583328000000002,"lon":9.1999999999999993},"country":"DE","_id":2820217,"name":"Ulrichstein"},{"coord":{"lat":53.991982,"lon":-0.22968},"country":"GB","_id":2635189,"name":"Ulrome"},{"coord":{"lat":53.359169000000001,"lon":6.3333300000000001},"country":"NL","_id":2745944,"name":"Ulrum"},{"coord":{"lat":35.537219999999998,"lon":129.316666},"country":"KR","_id":1833747,"name":"Ulsan"},{"coord":{"lat":35.566668999999997,"lon":129.26666299999999},"country":"KR","_id":1833742,"name":"Ulsan-gwangyŏksi"},{"coord":{"lat":54.633330999999998,"lon":9.5999999999999996},"country":"DE","_id":2820214,"name":"Ulsby"},{"coord":{"lat":50.566668999999997,"lon":10.300000000000001},"country":"DE","_id":2820211,"name":"Ulsenheim"},{"coord":{"lat":54.566699999999997,"lon":9.75},"country":"DE","_id":6552006,"name":"Ulsnis"},{"coord":{"lat":54.566668999999997,"lon":9.75},"country":"DE","_id":2820210,"name":"Ulsnis"},{"coord":{"lat":62.343170000000001,"lon":5.8486900000000004},"country":"NO","_id":3133349,"name":"Ulsteinvik"},{"coord":{"lat":54.361111000000001,"lon":-7.4166699999999999},"country":"IE","_id":7521316,"name":"Ulster"},{"coord":{"lat":41.883429999999997,"lon":-74.250152999999997},"country":"US","_id":5141784,"name":"Ulster County"},{"coord":{"lat":18.314819,"lon":-77.520668000000001},"country":"JM","_id":3488180,"name":"Ulster Spring"},{"coord":{"lat":56.389938000000001,"lon":9.7935400000000001},"country":"DK","_id":2610908,"name":"Ulstrup"},{"coord":{"lat":54.816668999999997,"lon":9.5500000000000007},"country":"DE","_id":2820205,"name":"Ulstrup"},{"coord":{"lat":55.327530000000003,"lon":11.676489999999999},"country":"DK","_id":2610912,"name":"Ulstrup"},{"coord":{"lat":-35.483330000000002,"lon":143.25},"country":"AU","_id":2145541,"name":"Ultima"},{"coord":{"lat":-33.878608999999997,"lon":151.196945},"country":"AU","_id":2207754,"name":"Ultimo"},{"coord":{"lat":46.548321000000001,"lon":11.00417},"country":"IT","_id":6534791,"name":"Ultimo - Ulten"},{"coord":{"lat":42.039268,"lon":3.0390999999999999},"country":"ES","_id":6534159,"name":"Ultramort"},{"coord":{"lat":42.0364,"lon":3.0345499999999999},"country":"ES","_id":3107293,"name":"Ultramort"},{"coord":{"lat":42.999001,"lon":-1.6773},"country":"ES","_id":6359783,"name":"Ultzama"},{"coord":{"lat":1.6000000000000001,"lon":103.81667299999999},"country":"MY","_id":1738294,"name":"Ulu Tiram"},{"coord":{"lat":54.908611000000001,"lon":56.966946},"country":"RU","_id":479198,"name":"Ulu-Telyak"},{"coord":{"lat":-3.9072,"lon":119.744102},"country":"ID","_id":1969674,"name":"Uluale"},{"coord":{"lat":-6.1473000000000004,"lon":106.045197},"country":"ID","_id":7781465,"name":"Uluarang"},{"coord":{"lat":38.419868000000001,"lon":29.29129},"country":"TR","_id":298454,"name":"Ulubey"},{"coord":{"lat":40.872138999999997,"lon":37.758758999999998},"country":"TR","_id":738444,"name":"Ulubey"},{"coord":{"lat":38.077781999999999,"lon":30.45722},"country":"TR","_id":298451,"name":"Uluborlu"},{"coord":{"lat":37.445,"lon":42.861671000000001},"country":"TR","_id":298433,"name":"Uludere"},{"coord":{"lat":37.547759999999997,"lon":34.485278999999998},"country":"TR","_id":298414,"name":"Ulukisla"},{"coord":{"lat":54.435501000000002,"lon":56.322102000000001},"country":"RU","_id":479201,"name":"Ulukulevo"},{"coord":{"lat":-28.335229999999999,"lon":31.416170000000001},"country":"ZA","_id":946257,"name":"Ulundi"},{"coord":{"lat":41.584170999999998,"lon":32.641392000000003},"country":"TR","_id":738390,"name":"Ulus"},{"coord":{"lat":39.93956,"lon":32.853389999999997},"country":"TR","_id":298388,"name":"Ulus"},{"coord":{"lat":54.400002000000001,"lon":110.43332700000001},"country":"RU","_id":2014290,"name":"Ulus Ukhoringol"},{"coord":{"lat":53.900002000000001,"lon":109.98333},"country":"RU","_id":2014288,"name":"Ulus Ulzakhi"},{"coord":{"lat":53.766669999999998,"lon":109.93332700000001},"country":"RU","_id":2014285,"name":"Ulusy"},{"coord":{"lat":-8.5753000000000004,"lon":121.290802},"country":"ID","_id":1622718,"name":"Uluwolo"},{"coord":{"lat":36.963329000000002,"lon":37.693610999999997},"country":"TR","_id":298378,"name":"Uluyatir"},{"coord":{"lat":54.195937999999998,"lon":-3.09626},"country":"GB","_id":2635183,"name":"Ulverston"},{"coord":{"lat":-41.150002000000001,"lon":146.16667200000001},"country":"AU","_id":2145532,"name":"Ulverstone"},{"coord":{"lat":60.567188000000002,"lon":6.9187099999999999},"country":"NO","_id":3133311,"name":"Ulvik"},{"coord":{"lat":60.571171,"lon":6.9170100000000003},"country":"NO","_id":3133314,"name":"Ulvik"},{"coord":{"lat":61.416671999999998,"lon":21.91667},"country":"FI","_id":633396,"name":"Ulvila"},{"coord":{"lat":61.428440000000002,"lon":21.871030999999999},"country":"FI","_id":633395,"name":"Ulvila"},{"coord":{"lat":59.639439000000003,"lon":30.764721000000002},"country":"RU","_id":479140,"name":"Ulyanovka"},{"coord":{"lat":54.333331999999999,"lon":48.400002000000001},"country":"RU","_id":479123,"name":"Ulyanovsk"},{"coord":{"lat":37.581409000000001,"lon":-101.355171},"country":"US","_id":5446683,"name":"Ulysses"},{"coord":{"lat":48.654442000000003,"lon":67.002776999999995},"country":"KZ","_id":1517743,"name":"Ulytaū"},{"coord":{"lat":53.866669000000002,"lon":109.966667},"country":"RU","_id":2014261,"name":"Ulyukchikan"},{"coord":{"lat":53.833328000000002,"lon":109.900002},"country":"RU","_id":2014259,"name":"Ulyun"},{"coord":{"lat":51.683331000000003,"lon":11.366669999999999},"country":"DE","_id":2820197,"name":"Ulzigerode"},{"coord":{"lat":54.783329000000002,"lon":110.949997},"country":"RU","_id":2014365,"name":"Ul’gichen"},{"coord":{"lat":56.833331999999999,"lon":42.150002000000001},"country":"RU","_id":479183,"name":"Ul’yanikha"},{"coord":{"lat":56.283332999999999,"lon":39.433334000000002},"country":"RU","_id":479184,"name":"Ul’yanikha"},{"coord":{"lat":55.348056999999997,"lon":38.427776000000001},"country":"RU","_id":479179,"name":"Ul’yanino"},{"coord":{"lat":53.200001,"lon":27.533332999999999},"country":"BY","_id":620570,"name":"Ul’yanovka"},{"coord":{"lat":48.326110999999997,"lon":30.231667000000002},"country":"UA","_id":690713,"name":"Ul’yanovka"},{"coord":{"lat":54,"lon":48},"country":"RU","_id":479119,"name":"Ul’yanovskaya Oblast’"},{"coord":{"lat":44.616698999999997,"lon":40.518101000000001},"country":"RU","_id":804648,"name":"Ul’yanovskiy"},{"coord":{"lat":12.4057,"lon":34.321097999999999},"country":"SD","_id":365286,"name":"Um Bārid"},{"coord":{"lat":13.801299999999999,"lon":32.407798999999997},"country":"SD","_id":364949,"name":"Um Jar Al Gharbiyya"},{"coord":{"lat":12.30954,"lon":123.67961099999999},"country":"PH","_id":1680344,"name":"Umabay"},{"coord":{"lat":45.431389000000003,"lon":13.52389},"country":"HR","_id":3188498,"name":"Umag"},{"coord":{"lat":11.3292,"lon":124.376999},"country":"PH","_id":1680342,"name":"Umaganhan"},{"coord":{"lat":-10.2136,"lon":120.560204},"country":"ID","_id":7591860,"name":"Umakadambung"},{"coord":{"lat":20.883329,"lon":-89.75},"country":"MX","_id":3514929,"name":"Uman"},{"coord":{"lat":48.748379,"lon":30.22184},"country":"UA","_id":690688,"name":"Uman"},{"coord":{"lat":15.938000000000001,"lon":120.21530199999999},"country":"PH","_id":1680331,"name":"Umanday Centro"},{"coord":{"lat":-10.0533,"lon":120.483902},"country":"ID","_id":7568407,"name":"Umanggudang"},{"coord":{"lat":-2.1068899999999999,"lon":125.964287},"country":"ID","_id":1622713,"name":"Umaoya"},{"coord":{"lat":17.83333,"lon":76.616669000000002},"country":"IN","_id":1253870,"name":"Umarga"},{"coord":{"lat":23.533331,"lon":80.833327999999995},"country":"IN","_id":1253863,"name":"Umaria"},{"coord":{"lat":-5.9905600000000003,"lon":-37.814442},"country":"BR","_id":3385826,"name":"Umarizal"},{"coord":{"lat":19.600000000000001,"lon":77.699996999999996},"country":"IN","_id":1253861,"name":"Umarkhed"},{"coord":{"lat":19.66667,"lon":82.216667000000001},"country":"IN","_id":1253860,"name":"Umarkot"},{"coord":{"lat":25.36157,"lon":69.736237000000003},"country":"PK","_id":1162959,"name":"Umarkot"},{"coord":{"lat":13.29851,"lon":144.66329999999999},"country":"GU","_id":7267962,"name":"Umatac Mayors Office"},{"coord":{"lat":28.92943,"lon":-81.665627000000001},"country":"US","_id":4176059,"name":"Umatilla"},{"coord":{"lat":45.917350999999996,"lon":-119.342522},"country":"US","_id":5758052,"name":"Umatilla"},{"coord":{"lat":45.500129999999999,"lon":-118.50135},"country":"US","_id":5758058,"name":"Umatilla County"},{"coord":{"lat":66.687056999999996,"lon":34.342917999999997},"country":"RU","_id":479071,"name":"Umba"},{"coord":{"lat":-8.1946999999999992,"lon":114.918098},"country":"ID","_id":7084531,"name":"Umbanyar"},{"coord":{"lat":-11.383330000000001,"lon":-37.657780000000002},"country":"BR","_id":3445818,"name":"Umbauba"},{"coord":{"lat":43.305549999999997,"lon":12.336550000000001},"country":"IT","_id":6538618,"name":"Umbertide"},{"coord":{"lat":43.305549999999997,"lon":12.336550000000001},"country":"IT","_id":3165052,"name":"Umbertide"},{"coord":{"lat":48.75,"lon":11.716670000000001},"country":"DE","_id":2820196,"name":"Umbertshausen"},{"coord":{"lat":-6.1500000000000004,"lon":143.64999399999999},"country":"PG","_id":2084734,"name":"Umbimi"},{"coord":{"lat":-27.66667,"lon":151.76666299999999},"country":"AU","_id":2145524,"name":"Umbiram"},{"coord":{"lat":5.2204100000000002,"lon":-73.456947},"country":"CO","_id":3666493,"name":"Umbita"},{"coord":{"lat":45.716670999999998,"lon":27.466669},"country":"RO","_id":664281,"name":"Umbraresti"},{"coord":{"lat":37.350189,"lon":-6.1726200000000002},"country":"ES","_id":6361049,"name":"Umbrete"},{"coord":{"lat":37.368808999999999,"lon":-6.1584700000000003},"country":"ES","_id":2510098,"name":"Umbrete"},{"coord":{"lat":40.315300000000001,"lon":-5.5803700000000003},"country":"ES","_id":3107283,"name":"Umbrias"},{"coord":{"lat":39.3536,"lon":16.918610000000001},"country":"IT","_id":2522828,"name":"Umbriatico"},{"coord":{"lat":40.320628999999997,"lon":-5.5704000000000002},"country":"ES","_id":6355845,"name":"Umbrías"},{"coord":{"lat":-6.4452999999999996,"lon":106.093002},"country":"ID","_id":7845896,"name":"Umbul"},{"coord":{"lat":-6.7649999999999997,"lon":105.855904},"country":"ID","_id":7760143,"name":"Umbulan"},{"coord":{"lat":-4.5833300000000001,"lon":105.23333},"country":"ID","_id":1622685,"name":"Umbulan Miring"},{"coord":{"lat":-8.1796000000000006,"lon":112.3563},"country":"ID","_id":7375226,"name":"Umbuldamar"},{"coord":{"lat":-8.2594999999999992,"lon":113.44450399999999},"country":"ID","_id":1622665,"name":"Umbulsari"},{"coord":{"lat":-8.3074999999999992,"lon":112.95030199999999},"country":"ID","_id":8180858,"name":"Umbulsari"},{"coord":{"lat":-6.2336999999999998,"lon":105.831596},"country":"ID","_id":7780740,"name":"Umbultanjung"},{"coord":{"lat":-9.6638000000000002,"lon":120.2453},"country":"ID","_id":7609320,"name":"Umburarameha"},{"coord":{"lat":-17.255831000000001,"lon":-40.572780999999999},"country":"BR","_id":3445792,"name":"Umburatiba"},{"coord":{"lat":-7.4000000000000004,"lon":-41.5},"country":"BR","_id":3385788,"name":"Umbus"},{"coord":{"lat":-7.6955600000000004,"lon":-35.663609000000001},"country":"BR","_id":3385778,"name":"Umbuzeiro"},{"coord":{"lat":63.828418999999997,"lon":20.259720000000002},"country":"SE","_id":602150,"name":"Umea"},{"coord":{"lat":54.116112000000001,"lon":42.697498000000003},"country":"RU","_id":479055,"name":"Umet"},{"coord":{"lat":63.829922000000003,"lon":20.254840999999999},"country":"SE","_id":602149,"name":"Umeå Kommun"},{"coord":{"lat":47.140510999999996,"lon":10.94576},"country":"AT","_id":7872530,"name":"Umhausen"},{"coord":{"lat":47.133330999999998,"lon":10.93333},"country":"AT","_id":2763164,"name":"Umhausen"},{"coord":{"lat":-29.716669,"lon":31.066669000000001},"country":"ZA","_id":946165,"name":"Umhlanga"},{"coord":{"lat":33.566668999999997,"lon":130.5},"country":"JP","_id":1849299,"name":"Umi"},{"coord":{"lat":69.366943000000006,"lon":-152.14416499999999},"country":"US","_id":5877173,"name":"Umiat"},{"coord":{"lat":15.927300000000001,"lon":120.84369700000001},"country":"PH","_id":1680313,"name":"Umingan"},{"coord":{"lat":15.220599999999999,"lon":121.411102},"country":"PH","_id":1680312,"name":"Umiray"},{"coord":{"lat":-3.6772200000000002,"lon":-39.350281000000003},"country":"BR","_id":3385758,"name":"Umirim"},{"coord":{"lat":56.555351000000002,"lon":-76.552199999999999},"country":"CA","_id":6171824,"name":"Umiujaq"},{"coord":{"lat":44.678058999999998,"lon":20.30472},"country":"RS","_id":784764,"name":"Umka"},{"coord":{"lat":54.983330000000002,"lon":111.116669},"country":"RU","_id":2014243,"name":"Umkhey"},{"coord":{"lat":48.031199999999998,"lon":7.7641999999999998},"country":"DE","_id":6555762,"name":"Umkirch"},{"coord":{"lat":48.033329000000002,"lon":7.7666700000000004},"country":"DE","_id":2820190,"name":"Umkirch"},{"coord":{"lat":-30.206738999999999,"lon":30.79776},"country":"ZA","_id":946128,"name":"Umkomaas"},{"coord":{"lat":25.5,"lon":55.75},"country":"AE","_id":290595,"name":"Umm al Qaywayn"},{"coord":{"lat":25.564730000000001,"lon":55.555168000000002},"country":"AE","_id":290594,"name":"Umm al Qaywayn"},{"coord":{"lat":32.315632000000001,"lon":36.629440000000002},"country":"JO","_id":246345,"name":"Umm al Qittayn"},{"coord":{"lat":31.560841,"lon":34.518630999999999},"country":"PS","_id":6967877,"name":"Umm an Nasr"},{"coord":{"lat":26.65361,"lon":49.916389000000002},"country":"SA","_id":101035,"name":"Umm as Sahik"},{"coord":{"lat":31.88542,"lon":35.854301},"country":"JO","_id":246314,"name":"Umm as Summaq"},{"coord":{"lat":26.216669,"lon":50.583328000000002},"country":"BH","_id":290082,"name":"Umm ash Sha‘ūm"},{"coord":{"lat":25.214169999999999,"lon":50.807220000000001},"country":"QA","_id":289548,"name":"Umm Bab"},{"coord":{"lat":32.517249999999997,"lon":35.153488000000003},"country":"IL","_id":293286,"name":"Umm el Fahm"},{"coord":{"lat":25.277221999999998,"lon":51.547778999999998},"country":"QA","_id":411795,"name":"Umm Ghuwaylīnah"},{"coord":{"lat":13.60169,"lon":26.68759},"country":"SD","_id":364933,"name":"Umm Kaddadah"},{"coord":{"lat":25.021259000000001,"lon":37.268501000000001},"country":"SA","_id":100926,"name":"Umm Lajj"},{"coord":{"lat":30.040541000000001,"lon":47.916770999999997},"country":"IQ","_id":89824,"name":"Umm Qasr"},{"coord":{"lat":32.653480999999999,"lon":35.685397999999999},"country":"JO","_id":246202,"name":"Umm Qays"},{"coord":{"lat":12.9061,"lon":31.215799000000001},"country":"SD","_id":364706,"name":"Umm Ruwaba"},{"coord":{"lat":25.469721,"lon":51.397499000000003},"country":"QA","_id":289524,"name":"Umm Salal Ali"},{"coord":{"lat":25.416941000000001,"lon":51.403888999999999},"country":"QA","_id":289523,"name":"Umm Salal Muhammad"},{"coord":{"lat":54.466701999999998,"lon":13.183299999999999},"country":"DE","_id":6548439,"name":"Ummanz"},{"coord":{"lat":54.466670999999998,"lon":13.18333},"country":"DE","_id":2820186,"name":"Ummanz"},{"coord":{"lat":51.966670999999998,"lon":8.4499999999999993},"country":"DE","_id":2820183,"name":"Ummeln"},{"coord":{"lat":48.066699999999997,"lon":9.8333300000000001},"country":"DE","_id":6556031,"name":"Ummendorf"},{"coord":{"lat":48.066668999999997,"lon":9.8333300000000001},"country":"DE","_id":2820179,"name":"Ummendorf"},{"coord":{"lat":52.150002000000001,"lon":11.183299999999999},"country":"DE","_id":6549312,"name":"Ummendorf"},{"coord":{"lat":52.156447999999997,"lon":11.181509999999999},"country":"DE","_id":2820178,"name":"Ummendorf"},{"coord":{"lat":51.233330000000002,"lon":6.4166699999999999},"country":"DE","_id":2820173,"name":"Ummer"},{"coord":{"lat":52.583302000000003,"lon":10.433299999999999},"country":"DE","_id":6552326,"name":"Ummern"},{"coord":{"lat":52.59111,"lon":10.431950000000001},"country":"DE","_id":2820172,"name":"Ummern"},{"coord":{"lat":50.25,"lon":10.800000000000001},"country":"DE","_id":2820169,"name":"Ummerstadt"},{"coord":{"lat":-8.0776000000000003,"lon":113.210403},"country":"ID","_id":7037451,"name":"Umpak"},{"coord":{"lat":49.689999,"lon":9.3741699999999994},"country":"DE","_id":2820167,"name":"Umpfenbach"},{"coord":{"lat":50.9422,"lon":11.4238},"country":"DE","_id":6550287,"name":"Umpferstedt"},{"coord":{"lat":50.983330000000002,"lon":11.41667},"country":"DE","_id":2820164,"name":"Umpferstedt"},{"coord":{"lat":16.016220000000001,"lon":98.862701000000001},"country":"TH","_id":1149975,"name":"Umphang"},{"coord":{"lat":21.83333,"lon":71.816672999999994},"country":"IN","_id":1253815,"name":"Umrala"},{"coord":{"lat":41.01643,"lon":29.124759999999998},"country":"TR","_id":738377,"name":"Umraniye"},{"coord":{"lat":47.799999,"lon":12.31667},"country":"DE","_id":2820163,"name":"Umrathshausen"},{"coord":{"lat":20.850000000000001,"lon":79.333327999999995},"country":"IN","_id":1253807,"name":"Umred"},{"coord":{"lat":22.700001,"lon":73.116669000000002},"country":"IN","_id":1253805,"name":"Umreth"},{"coord":{"lat":26.510559000000001,"lon":78.936667999999997},"country":"IN","_id":1253796,"name":"Umri"},{"coord":{"lat":51.366669000000002,"lon":6.9333299999999998},"country":"DE","_id":2820158,"name":"Umstand"},{"coord":{"lat":-31.588930000000001,"lon":28.78443},"country":"ZA","_id":946058,"name":"Umtata"},{"coord":{"lat":5.5262700000000002,"lon":7.4895899999999997},"country":"NG","_id":2320576,"name":"Umuahia"},{"coord":{"lat":-23.766390000000001,"lon":-53.325001},"country":"BR","_id":3445782,"name":"Umuarama"},{"coord":{"lat":38.049999,"lon":127.31667299999999},"country":"KR","_id":1833702,"name":"Umulmok"},{"coord":{"lat":6.2637400000000003,"lon":6.3116099999999999},"country":"NG","_id":2320417,"name":"Umunede"},{"coord":{"lat":8.2658799999999992,"lon":-72.063713000000007},"country":"VE","_id":3625732,"name":"Umuquena"},{"coord":{"lat":40.414718999999998,"lon":29.183060000000001},"country":"TR","_id":738372,"name":"Umurbey"},{"coord":{"lat":-20.051940999999999,"lon":28.588609999999999},"country":"ZW","_id":1105960,"name":"Umvutcha A"},{"coord":{"lat":23.883329,"lon":71.766670000000005},"country":"IN","_id":1253786,"name":"Un"},{"coord":{"lat":29.584720999999998,"lon":77.254172999999994},"country":"IN","_id":1253785,"name":"Un"},{"coord":{"lat":31.483329999999999,"lon":76.283332999999999},"country":"IN","_id":1253782,"name":"Una"},{"coord":{"lat":20.816669000000001,"lon":71.033332999999999},"country":"IN","_id":1253783,"name":"Una"},{"coord":{"lat":-15.293329999999999,"lon":-39.075279000000002},"country":"BR","_id":3445781,"name":"Una"},{"coord":{"lat":40.224097999999998,"lon":-1.9778800000000001},"country":"ES","_id":3107281,"name":"Una"},{"coord":{"lat":42.086620000000003,"lon":-6.1447500000000002},"country":"ES","_id":3107278,"name":"Una de Quintana"},{"coord":{"lat":-3.8538999999999999,"lon":122.042},"country":"ID","_id":1974329,"name":"Unaaha"},{"coord":{"lat":35.232509999999998,"lon":69.377189999999999},"country":"AF","_id":1148695,"name":"Unabah"},{"coord":{"lat":32.261550999999997,"lon":-83.736571999999995},"country":"US","_id":4227639,"name":"Unadilla"},{"coord":{"lat":42.325358999999999,"lon":-75.312400999999994},"country":"US","_id":5141796,"name":"Unadilla"},{"coord":{"lat":42.404251000000002,"lon":-75.308777000000006},"country":"US","_id":5141797,"name":"Unadilla Center"},{"coord":{"lat":53.933331000000003,"lon":110.01667},"country":"RU","_id":2014230,"name":"Unagan"},{"coord":{"lat":-16.357500000000002,"lon":-46.906109000000001},"country":"BR","_id":3445764,"name":"Unai"},{"coord":{"lat":53.873610999999997,"lon":-166.53666699999999},"country":"US","_id":5877208,"name":"Unalaska"},{"coord":{"lat":36.561667999999997,"lon":127.018333},"country":"KR","_id":1886748,"name":"Unam-ni"},{"coord":{"lat":-34.450001,"lon":150.85000600000001},"country":"AU","_id":2145518,"name":"Unanderra"},{"coord":{"lat":48.900821999999998,"lon":16.063510999999998},"country":"CZ","_id":3063611,"name":"Unanov"},{"coord":{"lat":8.75,"lon":150.341003},"country":"FM","_id":7628280,"name":"Unanu"},{"coord":{"lat":8.75,"lon":150.339493},"country":"FM","_id":7626991,"name":"Unanu Municipality"},{"coord":{"lat":42.365119999999997,"lon":-1.1441399999999999},"country":"ES","_id":6362953,"name":"Uncastillo"},{"coord":{"lat":42.359631,"lon":-1.12842},"country":"ES","_id":3107275,"name":"Uncastillo"},{"coord":{"lat":41.434539999999998,"lon":-72.109802000000002},"country":"US","_id":4844602,"name":"Uncasville"},{"coord":{"lat":16.700001,"lon":74.283332999999999},"country":"IN","_id":1253774,"name":"Unchagao"},{"coord":{"lat":-8.19557,"lon":112.677818},"country":"ID","_id":1965924,"name":"Undaan"},{"coord":{"lat":-34.066668999999997,"lon":138.683334},"country":"AU","_id":2059612,"name":"Undalya"},{"coord":{"lat":53.197108999999998,"lon":9.9757400000000001},"country":"DE","_id":6552654,"name":"Undeloh"},{"coord":{"lat":53.197108999999998,"lon":9.9757499999999997},"country":"DE","_id":2820151,"name":"Undeloh"},{"coord":{"lat":-7.4546000000000001,"lon":108.2099},"country":"ID","_id":8022814,"name":"Unden"},{"coord":{"lat":49.838099999999997,"lon":8.21889},"country":"DE","_id":6547438,"name":"Undenheim"},{"coord":{"lat":49.838057999999997,"lon":8.21889},"country":"DE","_id":2820150,"name":"Undenheim"},{"coord":{"lat":-36.283329000000002,"lon":145.21667500000001},"country":"AU","_id":2145514,"name":"Undera"},{"coord":{"lat":-29.790839999999999,"lon":29.494479999999999},"country":"ZA","_id":945995,"name":"Underberg"},{"coord":{"lat":-35.166671999999998,"lon":141.816666},"country":"AU","_id":2145512,"name":"Underbool"},{"coord":{"lat":57.383330999999998,"lon":10.51667},"country":"DK","_id":2610888,"name":"Understed"},{"coord":{"lat":47.300758000000002,"lon":7.2224599999999999},"country":"CH","_id":7287370,"name":"Undervelier"},{"coord":{"lat":47.303082000000003,"lon":7.2227399999999999},"country":"CH","_id":2658266,"name":"Undervelier"},{"coord":{"lat":34.876949000000003,"lon":-87.697165999999996},"country":"US","_id":7260216,"name":"Underwood-Petersville"},{"coord":{"lat":42.758578999999997,"lon":-1.7637100000000001},"country":"ES","_id":3107270,"name":"Undiano"},{"coord":{"lat":54.608490000000003,"lon":48.392761},"country":"RU","_id":479021,"name":"Undory"},{"coord":{"lat":42.565719999999999,"lon":-1.16944},"country":"ES","_id":3107269,"name":"Undues de Lerda"},{"coord":{"lat":50.472777999999998,"lon":100.92778},"country":"MN","_id":2030646,"name":"Undur Sume"},{"coord":{"lat":42.588959000000003,"lon":-1.1479299999999999},"country":"ES","_id":6362954,"name":"Undués de Lerda"},{"coord":{"lat":51.57526,"lon":-2.81453},"country":"GB","_id":2635174,"name":"Undy"},{"coord":{"lat":4.40306,"lon":-74.025283999999999},"country":"CO","_id":3666481,"name":"Une"},{"coord":{"lat":52.845908999999999,"lon":32.673938999999997},"country":"RU","_id":479028,"name":"Unecha"},{"coord":{"lat":38.03566,"lon":-81.780677999999995},"country":"US","_id":4825440,"name":"Uneeda"},{"coord":{"lat":-7.1397199999999996,"lon":110.404999},"country":"ID","_id":1622636,"name":"Ungaran"},{"coord":{"lat":-33.633330999999998,"lon":146.96667500000001},"country":"AU","_id":2145497,"name":"Ungarie"},{"coord":{"lat":-34.183331000000003,"lon":136.03332499999999},"country":"AU","_id":2059597,"name":"Ungarra"},{"coord":{"lat":44.805408,"lon":-76.626907000000003},"country":"CA","_id":6171923,"name":"Ungava"},{"coord":{"lat":10.75,"lon":122.550003},"country":"PH","_id":1680285,"name":"Ungca"},{"coord":{"lat":48.048290000000001,"lon":13.624459999999999},"country":"AT","_id":7873269,"name":"Ungenach"},{"coord":{"lat":48.049999,"lon":13.616669999999999},"country":"AT","_id":2763160,"name":"Ungenach"},{"coord":{"lat":47.086849000000001,"lon":15.68202},"country":"AT","_id":7872523,"name":"Ungerdorf"},{"coord":{"lat":47.083328000000002,"lon":15.66667},"country":"AT","_id":2763154,"name":"Ungerdorf"},{"coord":{"lat":48.016700999999998,"lon":10.2667},"country":"DE","_id":6557262,"name":"Ungerhausen"},{"coord":{"lat":48.005661000000003,"lon":10.266719999999999},"country":"DE","_id":2820122,"name":"Ungerhausen"},{"coord":{"lat":47.878478999999999,"lon":7.3065899999999999},"country":"FR","_id":6441650,"name":"Ungersheim"},{"coord":{"lat":47.878478999999999,"lon":7.3079700000000001},"country":"FR","_id":2971380,"name":"Ungersheim"},{"coord":{"lat":47.204169999999998,"lon":27.795829999999999},"country":"MD","_id":617180,"name":"Ungheni"},{"coord":{"lat":46.483330000000002,"lon":24.466669},"country":"RO","_id":664271,"name":"Ungheni"},{"coord":{"lat":44.5,"lon":24.966669},"country":"RO","_id":664273,"name":"Ungheni"},{"coord":{"lat":47.200001,"lon":27.783331},"country":"RO","_id":664266,"name":"Ungheni-Prut"},{"coord":{"lat":8.0433500000000002,"lon":-77.094527999999997},"country":"CO","_id":3666475,"name":"Ungia"},{"coord":{"lat":45.983330000000002,"lon":25.266670000000001},"country":"RO","_id":664263,"name":"Ungra"},{"coord":{"lat":35.406109000000001,"lon":129.16861},"country":"KR","_id":1912205,"name":"Ungsang"},{"coord":{"lat":42.357779999999998,"lon":130.462219},"country":"KP","_id":2039557,"name":"Ungsang-nodongjagu"},{"coord":{"lat":47.116669000000002,"lon":24.049999},"country":"RO","_id":664261,"name":"Unguras"},{"coord":{"lat":46.516669999999998,"lon":26.950001},"country":"RO","_id":664226,"name":"Ungureni"},{"coord":{"lat":47.883330999999998,"lon":26.783331},"country":"RO","_id":664215,"name":"Ungureni-Jianu"},{"coord":{"lat":43.274441000000003,"lon":76.024719000000005},"country":"KZ","_id":1517733,"name":"Ungurtas"},{"coord":{"lat":5.0508300000000004,"lon":119.83972199999999},"country":"PH","_id":1957769,"name":"Ungus-Ungus"},{"coord":{"lat":40.278992000000002,"lon":-7.6167199999999999},"country":"PT","_id":8014087,"name":"Unhais da Serra"},{"coord":{"lat":40.260379999999998,"lon":-7.6240800000000002},"country":"PT","_id":2733313,"name":"Unhais da Serra"},{"coord":{"lat":23.33333,"lon":75.566672999999994},"country":"IN","_id":1253754,"name":"Unhel"},{"coord":{"lat":38.820628999999997,"lon":-9.1204999999999998},"country":"PT","_id":8012511,"name":"Unhos"},{"coord":{"lat":38.825890000000001,"lon":-9.1223100000000006},"country":"PT","_id":2262465,"name":"Unhos"},{"coord":{"lat":50.085349999999998,"lon":14.13007},"country":"CZ","_id":3063599,"name":"Unhost"},{"coord":{"lat":57.753509999999999,"lon":51.492320999999997},"country":"RU","_id":478996,"name":"Uni"},{"coord":{"lat":48.416888999999998,"lon":-77.516182000000001},"country":"CA","_id":6171931,"name":"Uniacke"},{"coord":{"lat":-4.5858299999999996,"lon":-42.864170000000001},"country":"BR","_id":3385745,"name":"Uniao"},{"coord":{"lat":-26.23,"lon":-51.086390999999999},"country":"BR","_id":3445746,"name":"Uniao da Vitoria"},{"coord":{"lat":-9.1627799999999997,"lon":-36.031939999999999},"country":"BR","_id":3385742,"name":"Uniao dos Palmares"},{"coord":{"lat":26.149999999999999,"lon":75.216667000000001},"country":"IN","_id":1253751,"name":"Uniara"},{"coord":{"lat":36.195388999999999,"lon":-82.349579000000006},"country":"US","_id":4663928,"name":"Unicoi"},{"coord":{"lat":49.770919999999997,"lon":17.121441000000001},"country":"CZ","_id":3063596,"name":"Unicov"},{"coord":{"lat":8.5350000000000001,"lon":126.23056},"country":"PH","_id":1680276,"name":"Unidad"},{"coord":{"lat":11.90677,"lon":122.000511},"country":"PH","_id":1680272,"name":"Unidos"},{"coord":{"lat":8.5942000000000007,"lon":123.66799899999999},"country":"PH","_id":1680275,"name":"Unidos"},{"coord":{"lat":41.131390000000003,"lon":37.282501000000003},"country":"TR","_id":738349,"name":"Unieh"},{"coord":{"lat":51.974280999999998,"lon":18.793078999999999},"country":"PL","_id":3082801,"name":"Uniejow"},{"coord":{"lat":51.968398999999998,"lon":18.7973},"country":"PL","_id":7533309,"name":"Uniejów"},{"coord":{"lat":45.400002000000001,"lon":4.2666700000000004},"country":"FR","_id":6434335,"name":"Unieux"},{"coord":{"lat":45.400398000000003,"lon":4.2781200000000004},"country":"FR","_id":2971377,"name":"Unieux"},{"coord":{"lat":-35.152821000000003,"lon":-65.946021999999999},"country":"AR","_id":3833424,"name":"Union"},{"coord":{"lat":39.897830999999996,"lon":-84.306327999999993},"country":"US","_id":4526790,"name":"Union"},{"coord":{"lat":40.697600999999999,"lon":-74.263199},"country":"US","_id":5105608,"name":"Union"},{"coord":{"lat":11.761200000000001,"lon":121.89630099999999},"country":"PH","_id":1680260,"name":"Union"},{"coord":{"lat":10.669499999999999,"lon":124.325203},"country":"PH","_id":1680262,"name":"Union"},{"coord":{"lat":10.047499999999999,"lon":124.51509900000001},"country":"PH","_id":1680266,"name":"Union"},{"coord":{"lat":9.7566699999999997,"lon":126.110283},"country":"PH","_id":1680267,"name":"Union"},{"coord":{"lat":-24.799999,"lon":-56.549999},"country":"PY","_id":3436763,"name":"Union"},{"coord":{"lat":38.945900000000002,"lon":-84.680496000000005},"country":"US","_id":4311646,"name":"Union"},{"coord":{"lat":38.450049999999997,"lon":-91.008476000000002},"country":"US","_id":4412454,"name":"Union"},{"coord":{"lat":32.571528999999998,"lon":-89.121452000000005},"country":"US","_id":4449144,"name":"Union"},{"coord":{"lat":34.715407999999996,"lon":-81.623711},"country":"US","_id":4599214,"name":"Union"},{"coord":{"lat":37.591510999999997,"lon":-80.543678},"country":"US","_id":4825447,"name":"Union"},{"coord":{"lat":44.211472000000001,"lon":-69.274208000000002},"country":"US","_id":4832484,"name":"Union"},{"coord":{"lat":45.208469000000001,"lon":-117.865211},"country":"US","_id":5758113,"name":"Union"},{"coord":{"lat":40.446499000000003,"lon":-74.178200000000004},"country":"US","_id":5105615,"name":"Union Beach"},{"coord":{"lat":33.587059000000004,"lon":-84.542427000000004},"country":"US","_id":4227777,"name":"Union City"},{"coord":{"lat":40.779549000000003,"lon":-74.023750000000007},"country":"US","_id":5105634,"name":"Union City"},{"coord":{"lat":37.595829000000002,"lon":-122.01917299999999},"country":"US","_id":5404554,"name":"Union City"},{"coord":{"lat":37.595771999999997,"lon":-122.019127},"country":"US","_id":5404555,"name":"Union City"},{"coord":{"lat":35.391719999999999,"lon":-97.941436999999993},"country":"US","_id":4553709,"name":"Union City"},{"coord":{"lat":36.424228999999997,"lon":-89.057006999999999},"country":"US","_id":4664170,"name":"Union City"},{"coord":{"lat":40.201988,"lon":-84.809128000000001},"country":"US","_id":4927449,"name":"Union City"},{"coord":{"lat":42.066710999999998,"lon":-85.136093000000002},"country":"US","_id":5012928,"name":"Union City"},{"coord":{"lat":40.199489999999997,"lon":-84.805237000000005},"country":"US","_id":5174660,"name":"Union City"},{"coord":{"lat":41.899501999999998,"lon":-79.845329000000007},"country":"US","_id":5216639,"name":"Union City"},{"coord":{"lat":45.366520000000001,"lon":-118.001328},"country":"US","_id":5758120,"name":"Union County"},{"coord":{"lat":35.000149,"lon":-80.549789000000004},"country":"US","_id":4496196,"name":"Union County"},{"coord":{"lat":40.300060000000002,"lon":-83.383262999999999},"country":"US","_id":5174669,"name":"Union County"},{"coord":{"lat":41.125359000000003,"lon":-76.916351000000006},"country":"US","_id":5216649,"name":"Union County"},{"coord":{"lat":34.833419999999997,"lon":-83.966583},"country":"US","_id":4227781,"name":"Union County"},{"coord":{"lat":33.150131000000002,"lon":-92.650161999999995},"country":"US","_id":4134330,"name":"Union County"},{"coord":{"lat":36.450031000000003,"lon":-103.46717099999999},"country":"US","_id":5495841,"name":"Union County"},{"coord":{"lat":40.633437999999998,"lon":-74.266257999999993},"country":"US","_id":5105640,"name":"Union County"},{"coord":{"lat":22.795280000000002,"lon":-81.537497999999999},"country":"CU","_id":3534761,"name":"Union de Reyes"},{"coord":{"lat":21.100000000000001,"lon":-101.966667},"country":"MX","_id":3980799,"name":"Union de San Antonio"},{"coord":{"lat":19.966669,"lon":-104.26667},"country":"MX","_id":3980798,"name":"Union de Tula"},{"coord":{"lat":46.55735,"lon":-120.47506},"country":"US","_id":5814419,"name":"Union Gap"},{"coord":{"lat":42.688068000000001,"lon":-88.051468},"country":"US","_id":5276720,"name":"Union Grove"},{"coord":{"lat":37.018749,"lon":-79.686417000000006},"country":"US","_id":4790661,"name":"Union Hall"},{"coord":{"lat":16.472300000000001,"lon":-94.829521},"country":"MX","_id":3514916,"name":"Union Hidalgo"},{"coord":{"lat":47.678871000000001,"lon":-122.028328},"country":"US","_id":7262428,"name":"Union Hill-Novelty Hill"},{"coord":{"lat":22,"lon":98},"country":"MM","_id":1327865,"name":"Union of Burma"},{"coord":{"lat":-12.23333,"lon":44.445529999999998},"country":"KM","_id":921929,"name":"Union of the Comoros"},{"coord":{"lat":-20.386391,"lon":57.573608},"country":"MU","_id":1106693,"name":"Union Park"},{"coord":{"lat":28.568059999999999,"lon":-81.286179000000004},"country":"US","_id":4176109,"name":"Union Park"},{"coord":{"lat":33.615681000000002,"lon":-83.074600000000004},"country":"US","_id":4227871,"name":"Union Point"},{"coord":{"lat":32.144320999999998,"lon":-85.714950999999999},"country":"US","_id":4094975,"name":"Union Springs"},{"coord":{"lat":42.839790000000001,"lon":-76.693282999999994},"country":"US","_id":5141912,"name":"Union Springs"},{"coord":{"lat":11.70065,"lon":92.675171000000006},"country":"IN","_id":1278647,"name":"Union Territory of Andaman and Nicobar Islands"},{"coord":{"lat":30.75,"lon":76.800003000000004},"country":"IN","_id":1274744,"name":"Union Territory of Chandīgarh"},{"coord":{"lat":20.399999999999999,"lon":72.870002999999997},"country":"IN","_id":1271155,"name":"Union Territory of Damān and Diu"},{"coord":{"lat":20.16667,"lon":73.033332999999999},"country":"IN","_id":1273726,"name":"Union Territory of Dādra and Nagar Haveli"},{"coord":{"lat":11.93333,"lon":79.816672999999994},"country":"IN","_id":1259424,"name":"Union Territory of Puducherry"},{"coord":{"lat":-33.658951000000002,"lon":23.123170999999999},"country":"ZA","_id":945970,"name":"Uniondale"},{"coord":{"lat":40.700378000000001,"lon":-73.592911000000001},"country":"US","_id":5141927,"name":"Uniondale"},{"coord":{"lat":32.449581000000002,"lon":-87.514167999999998},"country":"US","_id":4094997,"name":"Uniontown"},{"coord":{"lat":37.775317999999999,"lon":-87.930580000000006},"country":"US","_id":4311722,"name":"Uniontown"},{"coord":{"lat":39.900081999999998,"lon":-79.716431},"country":"US","_id":4561859,"name":"Uniontown"},{"coord":{"lat":40.975059999999999,"lon":-81.408173000000005},"country":"US","_id":5174747,"name":"Uniontown"},{"coord":{"lat":43.868999000000002,"lon":-79.309096999999994},"country":"CA","_id":6171998,"name":"Unionville"},{"coord":{"lat":31.434909999999999,"lon":-83.509613000000002},"country":"US","_id":4227917,"name":"Unionville"},{"coord":{"lat":35.087372000000002,"lon":-80.508956999999995},"country":"US","_id":4496304,"name":"Unionville"},{"coord":{"lat":35.621738000000001,"lon":-86.592499000000004},"country":"US","_id":4664218,"name":"Unionville"},{"coord":{"lat":40.476959000000001,"lon":-93.003258000000002},"country":"US","_id":5057655,"name":"Unionville"},{"coord":{"lat":47.133330999999998,"lon":24.483329999999999},"country":"RO","_id":664198,"name":"Unirea"},{"coord":{"lat":45.616669000000002,"lon":22.883329},"country":"RO","_id":664202,"name":"Unirea"},{"coord":{"lat":45.116669000000002,"lon":27.816669000000001},"country":"RO","_id":664203,"name":"Unirea"},{"coord":{"lat":44.266669999999998,"lon":27.633329},"country":"RO","_id":664204,"name":"Unirea"},{"coord":{"lat":44.150002000000001,"lon":23.183330999999999},"country":"RO","_id":664205,"name":"Unirea"},{"coord":{"lat":13.839169999999999,"lon":121.97833300000001},"country":"PH","_id":1680250,"name":"Unisan"},{"coord":{"lat":53.212409999999998,"lon":18.386220999999999},"country":"PL","_id":3082785,"name":"Unislaw"},{"coord":{"lat":-29.047219999999999,"lon":-55.150280000000002},"country":"BR","_id":3445742,"name":"Unistalda"},{"coord":{"lat":46.166671999999998,"lon":28.66667},"country":"MD","_id":858895,"name":"Unitate Teritorială Autonomă Găgăuzia"},{"coord":{"lat":47.366669000000002,"lon":29.25},"country":"MD","_id":858889,"name":"Unitatea Teritorială din Stînga Nistrului"},{"coord":{"lat":24,"lon":54},"country":"AE","_id":290557,"name":"United Arab Emirates"},{"coord":{"lat":54.758437999999998,"lon":-2.6953100000000001},"country":"GB","_id":2635167,"name":"United Kingdom of Great Britain and Northern Ireland"},{"coord":{"lat":-6,"lon":35},"country":"TZ","_id":149590,"name":"United Republic of Tanzania"},{"coord":{"lat":39.759998000000003,"lon":-98.5},"country":"US","_id":6252001,"name":"United States"},{"coord":{"lat":52.450142,"lon":-109.168159},"country":"CA","_id":6172009,"name":"Unity"},{"coord":{"lat":43.293961000000003,"lon":-72.260368},"country":"US","_id":5093977,"name":"Unity"},{"coord":{"lat":8.6500000000000004,"lon":29.850000000000001},"country":"SS","_id":408650,"name":"Unity State"},{"coord":{"lat":29.548010000000001,"lon":-98.291122000000001},"country":"US","_id":4738574,"name":"Universal City"},{"coord":{"lat":34.138900999999997,"lon":-118.353409},"country":"US","_id":5404794,"name":"Universal City"},{"coord":{"lat":28.069201,"lon":-82.436088999999996},"country":"US","_id":7260219,"name":"University"},{"coord":{"lat":34.365940000000002,"lon":-89.525360000000006},"country":"US","_id":4449404,"name":"University"},{"coord":{"lat":39.057048999999999,"lon":-77.444153},"country":"US","_id":4790763,"name":"University Center"},{"coord":{"lat":38.655880000000003,"lon":-90.309280000000001},"country":"US","_id":4412697,"name":"University City"},{"coord":{"lat":40.777321000000001,"lon":-73.722633000000002},"country":"US","_id":5141962,"name":"University Gardens"},{"coord":{"lat":41.655022000000002,"lon":-91.556838999999997},"country":"US","_id":4879817,"name":"University Heights"},{"coord":{"lat":41.497829000000003,"lon":-81.537353999999993},"country":"US","_id":5174830,"name":"University Heights"},{"coord":{"lat":49.414799000000002,"lon":2.8168299999999999},"country":"FR","_id":7626220,"name":"University of Technology of Compiegne"},{"coord":{"lat":25.746490000000001,"lon":-80.367553999999998},"country":"US","_id":4176217,"name":"University Park"},{"coord":{"lat":32.850127999999998,"lon":-96.800278000000006},"country":"US","_id":4738606,"name":"University Park"},{"coord":{"lat":38.970390000000002,"lon":-76.941917000000004},"country":"US","_id":4372137,"name":"University Park"},{"coord":{"lat":41.592258000000001,"lon":-87.685333},"country":"US","_id":4914514,"name":"University Park"},{"coord":{"lat":32.283428000000001,"lon":-106.753342},"country":"US","_id":5495937,"name":"University Park"},{"coord":{"lat":47.235649000000002,"lon":-122.5504},"country":"US","_id":5814450,"name":"University Place"},{"coord":{"lat":37.603549999999998,"lon":-0.87329000000000001},"country":"ES","_id":6359545,"name":"Unión (La)"},{"coord":{"lat":15.06667,"lon":-92.083327999999995},"country":"MX","_id":3514915,"name":"Unión Juárez"},{"coord":{"lat":23.799999,"lon":72.400002000000001},"country":"IN","_id":1253750,"name":"Unjha"},{"coord":{"lat":41.016669999999998,"lon":28.966669},"country":"TR","_id":738354,"name":"Unkapanı"},{"coord":{"lat":50.596530999999999,"lon":7.2188800000000004},"country":"DE","_id":2820101,"name":"Unkel"},{"coord":{"lat":47.639690000000002,"lon":12.681509999999999},"country":"AT","_id":7873332,"name":"Unken"},{"coord":{"lat":47.650002000000001,"lon":12.716670000000001},"country":"AT","_id":2763150,"name":"Unken"},{"coord":{"lat":49.716701999999998,"lon":7.75},"country":"DE","_id":6554992,"name":"Unkenbach"},{"coord":{"lat":49.716670999999998,"lon":7.75},"country":"DE","_id":2820099,"name":"Unkenbach"},{"coord":{"lat":-34.953918000000002,"lon":138.60798600000001},"country":"AU","_id":7839465,"name":"Unley"},{"coord":{"lat":-34.950001,"lon":138.60000600000001},"country":"AU","_id":2059589,"name":"Unley"},{"coord":{"lat":48.167290000000001,"lon":9.5221900000000002},"country":"DE","_id":6556032,"name":"Unlingen"},{"coord":{"lat":48.167338999999998,"lon":9.5221900000000002},"country":"DE","_id":2820088,"name":"Unlingen"},{"coord":{"lat":51.533329000000002,"lon":7.6833299999999998},"country":"DE","_id":2820087,"name":"Unna"},{"coord":{"lat":26.533331,"lon":80.5},"country":"IN","_id":1253747,"name":"Unnao"},{"coord":{"lat":50.650002000000001,"lon":7.9166699999999999},"country":"DE","_id":6554275,"name":"Unnau"},{"coord":{"lat":50.648811000000002,"lon":7.9082699999999999},"country":"DE","_id":2820084,"name":"Unnau"},{"coord":{"lat":34.483330000000002,"lon":133.949997},"country":"JP","_id":1849274,"name":"Uno"},{"coord":{"lat":-31.230730000000001,"lon":-64.316147000000001},"country":"AR","_id":3833412,"name":"Unquillo"},{"coord":{"lat":45.408779000000003,"lon":3.2113800000000001},"country":"FR","_id":2971376,"name":"Unsac"},{"coord":{"lat":38.054169000000002,"lon":127.20471999999999},"country":"KR","_id":1833581,"name":"Unsal-li"},{"coord":{"lat":51.931992000000001,"lon":11.518140000000001},"country":"DE","_id":2820071,"name":"Unseburg"},{"coord":{"lat":50.374699,"lon":10.255100000000001},"country":"DE","_id":6556990,"name":"Unsleben"},{"coord":{"lat":50.383330999999998,"lon":10.26667},"country":"DE","_id":2820065,"name":"Unsleben"},{"coord":{"lat":51.182850000000002,"lon":10.58562},"country":"DE","_id":6547389,"name":"Unstrut-Hainich-Kreis"},{"coord":{"lat":47.799999,"lon":26.783331},"country":"RO","_id":664193,"name":"Unteni"},{"coord":{"lat":49.666671999999998,"lon":8.6500000000000004},"country":"DE","_id":2819442,"name":"Unter Hambach"},{"coord":{"lat":49.633330999999998,"lon":8.9000000000000004},"country":"DE","_id":2819374,"name":"Unter Hiltersklingen"},{"coord":{"lat":51.049999,"lon":13.01667},"country":"DE","_id":2818894,"name":"Unter Rauschenthal"},{"coord":{"lat":49.529170999999998,"lon":8.7883300000000002},"country":"DE","_id":2820058,"name":"Unter-Abtsteinach"},{"coord":{"lat":47.151629999999997,"lon":9.0196299999999994},"country":"CH","_id":2658259,"name":"Unter-Bilten"},{"coord":{"lat":46.536670999999998,"lon":14.30639},"country":"AT","_id":2762956,"name":"Unter-Ferlach"},{"coord":{"lat":47.266060000000003,"lon":8.8729099999999992},"country":"CH","_id":6292404,"name":"Unter-Fägswil"},{"coord":{"lat":46.988219999999998,"lon":7.6486900000000002},"country":"CH","_id":2658251,"name":"Unter-Gomerkinden"},{"coord":{"lat":47.451641000000002,"lon":8.8019599999999993},"country":"CH","_id":6295206,"name":"Unter-Langenhard"},{"coord":{"lat":46.970821000000001,"lon":7.3552600000000004},"country":"CH","_id":2658229,"name":"Unter-Wohlen"},{"coord":{"lat":50.016669999999998,"lon":9.1666699999999999},"country":"DE","_id":2820052,"name":"Unterafferbach"},{"coord":{"lat":47.13644,"lon":8.5853000000000002},"country":"CH","_id":2658264,"name":"Unterageri"},{"coord":{"lat":49.183331000000003,"lon":10.4},"country":"DE","_id":2820048,"name":"Unterahorn"},{"coord":{"lat":48.599997999999999,"lon":12.283329999999999},"country":"DE","_id":2820047,"name":"Unterahrain"},{"coord":{"lat":49.466670999999998,"lon":10.51667},"country":"DE","_id":2820026,"name":"Unteraltenbernheim"},{"coord":{"lat":49.721668000000001,"lon":9.7336100000000005},"country":"DE","_id":2820024,"name":"Unteraltertheim"},{"coord":{"lat":48.116669000000002,"lon":11.16667},"country":"DE","_id":2820023,"name":"Unteralting"},{"coord":{"lat":47.616698999999997,"lon":11.033300000000001},"country":"DE","_id":6556250,"name":"Unterammergau"},{"coord":{"lat":47.616580999999996,"lon":11.02718},"country":"DE","_id":2820020,"name":"Unterammergau"},{"coord":{"lat":49.183331000000003,"lon":10.216670000000001},"country":"DE","_id":2820017,"name":"Unterampfrach"},{"coord":{"lat":47.799999,"lon":9.6999999999999993},"country":"DE","_id":2820016,"name":"Unterankenreute"},{"coord":{"lat":47.900002000000001,"lon":10.93333},"country":"DE","_id":2820014,"name":"Unterapfeldorf"},{"coord":{"lat":47.916671999999998,"lon":12.699999999999999},"country":"DE","_id":2820005,"name":"Unteraschau"},{"coord":{"lat":46.865558999999998,"lon":15.77028},"country":"AT","_id":2763118,"name":"Unterauersbach"},{"coord":{"lat":46.874310000000001,"lon":15.77215},"country":"AT","_id":7873388,"name":"Unterauersbach"},{"coord":{"lat":46.737389,"lon":8.1100600000000007},"country":"CH","_id":2658262,"name":"Unterbach"},{"coord":{"lat":48.616680000000002,"lon":10.360620000000001},"country":"DE","_id":2819962,"name":"Unterbechingen"},{"coord":{"lat":48.233330000000002,"lon":10.949999999999999},"country":"DE","_id":2819950,"name":"Unterbergen"},{"coord":{"lat":46.800559999999997,"lon":15.32896},"country":"AT","_id":7872279,"name":"Unterbergla"},{"coord":{"lat":46.799999,"lon":15.31667},"country":"AT","_id":2763099,"name":"Unterbergla"},{"coord":{"lat":46.733330000000002,"lon":15.283329999999999},"country":"AT","_id":2763100,"name":"Unterbergla"},{"coord":{"lat":48.549999,"lon":13.116669999999999},"country":"DE","_id":2819933,"name":"Unterbeutelsbach"},{"coord":{"lat":50.816699999999997,"lon":11.65},"country":"DE","_id":6550418,"name":"Unterbodnitz"},{"coord":{"lat":50.816668999999997,"lon":11.65},"country":"DE","_id":2819907,"name":"Unterbodnitz"},{"coord":{"lat":48.668919000000002,"lon":9.3725799999999992},"country":"DE","_id":2819905,"name":"Unterboihingen"},{"coord":{"lat":50.816699999999997,"lon":9.9833300000000005},"country":"DE","_id":6549898,"name":"Unterbreizbach"},{"coord":{"lat":50.816668999999997,"lon":9.9833300000000005},"country":"DE","_id":2819892,"name":"Unterbreizbach"},{"coord":{"lat":48.349997999999999,"lon":11.58333},"country":"DE","_id":2819884,"name":"Unterbruck"},{"coord":{"lat":48.066668999999997,"lon":11.33333},"country":"DE","_id":2819879,"name":"Unterbrunn"},{"coord":{"lat":50.033329000000002,"lon":11.48333},"country":"DE","_id":2819882,"name":"Unterbrücklein"},{"coord":{"lat":49.237437999999997,"lon":11.56002},"country":"DE","_id":2819861,"name":"Unterbuchfeld"},{"coord":{"lat":50.966670999999998,"lon":7.3666700000000001},"country":"DE","_id":2819864,"name":"Unterbüchel"},{"coord":{"lat":48.833328000000002,"lon":12.18333},"country":"DE","_id":2819837,"name":"Unterdeggenbach"},{"coord":{"lat":48.483330000000002,"lon":12.16667},"country":"DE","_id":2819832,"name":"Unterdessing"},{"coord":{"lat":47.983330000000002,"lon":10.83333},"country":"DE","_id":2819825,"name":"Unterdiessen"},{"coord":{"lat":48.383301000000003,"lon":12.666700000000001},"country":"DE","_id":6556570,"name":"Unterdietfurt"},{"coord":{"lat":48.383330999999998,"lon":12.66667},"country":"DE","_id":2819823,"name":"Unterdietfurt"},{"coord":{"lat":47.983299000000002,"lon":10.833299999999999},"country":"DE","_id":6556271,"name":"Unterdießen"},{"coord":{"lat":48.766669999999998,"lon":8.3333300000000001},"country":"DE","_id":2819810,"name":"Unterdorf"},{"coord":{"lat":47.401192000000002,"lon":8.7150400000000001},"country":"CH","_id":6295544,"name":"Untere Höfe"},{"coord":{"lat":47.783329000000002,"lon":10.4},"country":"DE","_id":2819783,"name":"Unteregg"},{"coord":{"lat":47.966701999999998,"lon":10.466699999999999},"country":"DE","_id":6547461,"name":"Unteregg"},{"coord":{"lat":47.966670999999998,"lon":10.466670000000001},"country":"DE","_id":2819782,"name":"Unteregg"},{"coord":{"lat":47.700001,"lon":8.4000000000000004},"country":"DE","_id":2819779,"name":"Untereggingen"},{"coord":{"lat":47.733330000000002,"lon":11.18333},"country":"DE","_id":2819778,"name":"Untereglfing"},{"coord":{"lat":47.502499,"lon":8.3472899999999992},"country":"CH","_id":2658256,"name":"Unterehrendingen"},{"coord":{"lat":49.883330999999998,"lon":10.15},"country":"DE","_id":2819739,"name":"Untereisenheim"},{"coord":{"lat":49.211101999999997,"lon":9.2019400000000005},"country":"DE","_id":6555534,"name":"Untereisesheim"},{"coord":{"lat":49.211109,"lon":9.2019400000000005},"country":"DE","_id":2819738,"name":"Untereisesheim"},{"coord":{"lat":48.460971999999998,"lon":10.1045},"country":"DE","_id":2819732,"name":"Unterelchingen"},{"coord":{"lat":48.633330999999998,"lon":11.75},"country":"DE","_id":2819716,"name":"Unterempfenbach"},{"coord":{"lat":46.289028000000002,"lon":7.6936600000000004},"country":"CH","_id":7287375,"name":"Unterems"},{"coord":{"lat":47.409728999999999,"lon":8.4370700000000003},"country":"CH","_id":7287377,"name":"Unterengstringen"},{"coord":{"lat":47.413960000000003,"lon":8.4476099999999992},"country":"CH","_id":2658253,"name":"Unterengstringen"},{"coord":{"lat":48.652599000000002,"lon":9.3547999999999991},"country":"DE","_id":6555434,"name":"Unterensingen"},{"coord":{"lat":48.654518000000003,"lon":9.3579899999999991},"country":"DE","_id":2819710,"name":"Unterensingen"},{"coord":{"lat":48.366669000000002,"lon":9.9333299999999998},"country":"DE","_id":2819654,"name":"Unterer Riedhof"},{"coord":{"lat":47.400002000000001,"lon":8},"country":"CH","_id":2658252,"name":"Untererlinsbach"},{"coord":{"lat":50.146769999999997,"lon":9.8786000000000005},"country":"DE","_id":2819639,"name":"Untererthal"},{"coord":{"lat":51.433331000000003,"lon":11.68333},"country":"DE","_id":2819612,"name":"Unteresperstedt"},{"coord":{"lat":50.016669999999998,"lon":10.366669999999999},"country":"DE","_id":2819602,"name":"Untereuerheim"},{"coord":{"lat":47.158859,"lon":15.682790000000001},"country":"AT","_id":7873582,"name":"Unterfladnitz"},{"coord":{"lat":47.183331000000003,"lon":15.66667},