[{"coord":{"lat":41.46349,"lon":48.806049000000002},"country":"AZ","_id":584717,"name":"Xacmaz"},{"coord":{"lat":36.049999,"lon":14.26444},"country":"MT","_id":2562280,"name":"Xaghra"},{"coord":{"lat":42.200001,"lon":83.25},"country":"CN","_id":1529077,"name":"Xahbulak"},{"coord":{"lat":-25.051940999999999,"lon":33.644168999999998},"country":"MZ","_id":1024552,"name":"Xai-Xai"},{"coord":{"lat":19.25,"lon":101.75},"country":"LA","_id":1655084,"name":"Xaignabouli"},{"coord":{"lat":44.200001,"lon":0.25},"country":"FR","_id":6435120,"name":"Xaintrailles"},{"coord":{"lat":44.205959,"lon":0.25851000000000002},"country":"FR","_id":2967278,"name":"Xaintrailles"},{"coord":{"lat":19.533331,"lon":-96.916672000000005},"country":"MX","_id":3526617,"name":"Xalapa de Enriquez"},{"coord":{"lat":19.216669,"lon":-98.383330999999998},"country":"MX","_id":3514597,"name":"Xalmimilulco"},{"coord":{"lat":19.516670000000001,"lon":-99.083893000000003},"country":"MX","_id":3517945,"name":"Xalostoc"},{"coord":{"lat":17.25,"lon":-98.666672000000005},"country":"MX","_id":3514593,"name":"Xalpatlahuac"},{"coord":{"lat":17.466669,"lon":-98.616669000000002},"country":"MX","_id":3514592,"name":"Xalpatlahuac"},{"coord":{"lat":18.866671,"lon":-97.599997999999999},"country":"MX","_id":3514589,"name":"Xaltepec"},{"coord":{"lat":17.066669000000001,"lon":-99.833327999999995},"country":"MX","_id":3514583,"name":"Xaltianguis"},{"coord":{"lat":20.419720000000002,"lon":104.043892},"country":"LA","_id":1652203,"name":"Xam Nua"},{"coord":{"lat":40.884720000000002,"lon":107.139999},"country":"CN","_id":2034062,"name":"Xamba"},{"coord":{"lat":-6.4111099999999999,"lon":-48.536388000000002},"country":"BR","_id":3384940,"name":"Xambioá"},{"coord":{"lat":-23.736111000000001,"lon":-53.490001999999997},"country":"BR","_id":3444851,"name":"Xambrê"},{"coord":{"lat":19.945150000000002,"lon":104.51721999999999},"country":"LA","_id":7648328,"name":"Xamtay"},{"coord":{"lat":39.816668999999997,"lon":46.799999},"country":"AZ","_id":409421,"name":"Xankəndi Şəhəri"},{"coord":{"lat":40.586941000000003,"lon":46.315829999999998},"country":"AZ","_id":584716,"name":"Xanlar"},{"coord":{"lat":51.666671999999998,"lon":6.4500000000000002},"country":"DE","_id":2805385,"name":"Xanten"},{"coord":{"lat":41.141392000000003,"lon":24.883610000000001},"country":"GR","_id":733840,"name":"Xanthi"},{"coord":{"lat":-30.033331,"lon":117.033333},"country":"AU","_id":2057687,"name":"Xantippe"},{"coord":{"lat":-26.876940000000001,"lon":-52.404170999999998},"country":"BR","_id":3444848,"name":"Xanxere"},{"coord":{"lat":-10.651669999999999,"lon":-68.504440000000002},"country":"BR","_id":3924674,"name":"Xapuri"},{"coord":{"lat":4.6543999999999999,"lon":47.857498},"country":"SO","_id":50064,"name":"Xarardheere"},{"coord":{"lat":29.899999999999999,"lon":93.300003000000004},"country":"CN","_id":8059137,"name":"Xarlung"},{"coord":{"lat":-9.4891699999999997,"lon":-48.362499},"country":"BR","_id":3384937,"name":"Xarqueada"},{"coord":{"lat":27.494019999999999,"lon":88.952956999999998},"country":"CN","_id":1279754,"name":"Xarsingma"},{"coord":{"lat":38.983330000000002,"lon":-0.51666999999999996},"country":"ES","_id":2516345,"name":"Xativa"},{"coord":{"lat":50.098838999999998,"lon":14.623150000000001},"country":"CZ","_id":3062159,"name":"Xaverov"},{"coord":{"lat":-26.961670000000002,"lon":-52.534720999999998},"country":"BR","_id":3444830,"name":"Xaxim"},{"coord":{"lat":20.83333,"lon":-89.366669000000002},"country":"MX","_id":3514549,"name":"Xceus"},{"coord":{"lat":28.633329,"lon":87.083327999999995},"country":"CN","_id":1279749,"name":"Xegar"},{"coord":{"lat":39.684780000000003,"lon":-83.929648999999998},"country":"US","_id":4528810,"name":"Xenia"},{"coord":{"lat":39.033329000000002,"lon":-0.21667},"country":"ES","_id":2516372,"name":"Xeraco,Jaraco"},{"coord":{"lat":39.012959000000002,"lon":-0.23502999999999999},"country":"ES","_id":6362011,"name":"Xeresa"},{"coord":{"lat":39.016669999999998,"lon":-0.21667},"country":"ES","_id":2516330,"name":"Xeresa"},{"coord":{"lat":35.075001,"lon":33.320830999999998},"country":"CY","_id":145981,"name":"Xeri"},{"coord":{"lat":43.376990999999997,"lon":-7.7968799999999998},"country":"ES","_id":6359182,"name":"Xermade"},{"coord":{"lat":48.049999,"lon":6.4000000000000004},"country":"FR","_id":6445810,"name":"Xertigny"},{"coord":{"lat":48.043940999999997,"lon":6.4083600000000001},"country":"FR","_id":2967269,"name":"Xertigny"},{"coord":{"lat":20.450001,"lon":-87.300003000000004},"country":"MX","_id":3514531,"name":"Xetna"},{"coord":{"lat":36.032780000000002,"lon":14.25806},"country":"MT","_id":2562274,"name":"Xewkija"},{"coord":{"lat":-8.8022200000000002,"lon":-35.626942},"country":"BR","_id":3384930,"name":"Xexéu"},{"coord":{"lat":35.273299999999999,"lon":100.39765199999999},"country":"CN","_id":1817811,"name":"Xiaba"},{"coord":{"lat":26.815280999999999,"lon":119.679169},"country":"CN","_id":1790807,"name":"Xiabaishi"},{"coord":{"lat":40.770279000000002,"lon":118.169724},"country":"CN","_id":2034048,"name":"Xiabancheng"},{"coord":{"lat":33.027630000000002,"lon":113.566689},"country":"CN","_id":1910047,"name":"Xiabeisi"},{"coord":{"lat":28.308579999999999,"lon":116.38205000000001},"country":"CN","_id":1790796,"name":"Xiabuji"},{"coord":{"lat":39.786388000000002,"lon":117.41667200000001},"country":"CN","_id":1790795,"name":"Xiacang"},{"coord":{"lat":29.183920000000001,"lon":118.838791},"country":"CN","_id":1916698,"name":"Xiacaoqiao"},{"coord":{"lat":25.189171000000002,"lon":111.18000000000001},"country":"CN","_id":6422903,"name":"Xiacengpu"},{"coord":{"lat":34.349997999999999,"lon":119.31667299999999},"country":"CN","_id":1790787,"name":"Xiache"},{"coord":{"lat":24.661921,"lon":115.11245},"country":"CN","_id":1919304,"name":"Xiache"},{"coord":{"lat":34.996040000000001,"lon":103.802673},"country":"CN","_id":1790785,"name":"Xiacheng"},{"coord":{"lat":29.372820000000001,"lon":120.45356},"country":"CN","_id":1918807,"name":"Xiachengli"},{"coord":{"lat":21.650860000000002,"lon":112.58129099999999},"country":"CN","_id":1913339,"name":"Xiachuan"},{"coord":{"lat":27.923459999999999,"lon":114.94914199999999},"country":"CN","_id":1790778,"name":"Xiacun"},{"coord":{"lat":26.575081000000001,"lon":118.26943199999999},"country":"CN","_id":1790774,"name":"Xiadao"},{"coord":{"lat":26.774190999999998,"lon":113.53121899999999},"country":"CN","_id":8201775,"name":"Xiadong"},{"coord":{"lat":30.923639000000001,"lon":118.77758799999999},"country":"CN","_id":1552269,"name":"Xiadu"},{"coord":{"lat":42.949500999999998,"lon":124.291527},"country":"CN","_id":7005638,"name":"Xiaertai"},{"coord":{"lat":29.767468999999998,"lon":115.54216},"country":"CN","_id":7643652,"name":"Xiafan"},{"coord":{"lat":26.572469999999999,"lon":116.93405199999999},"country":"CN","_id":1922425,"name":"Xiafang"},{"coord":{"lat":31.896668999999999,"lon":120.209999},"country":"CN","_id":1790751,"name":"Xiagang"},{"coord":{"lat":23.993549000000002,"lon":117.011337},"country":"CN","_id":1917891,"name":"Xiage"},{"coord":{"lat":29.843928999999999,"lon":121.030586},"country":"CN","_id":1790734,"name":"Xiaguan"},{"coord":{"lat":35.653179000000002,"lon":102.64582799999999},"country":"CN","_id":1809239,"name":"Xiagulei"},{"coord":{"lat":39.724651000000001,"lon":113.61432600000001},"country":"CN","_id":1790719,"name":"Xiahan"},{"coord":{"lat":26.610558999999999,"lon":119.948334},"country":"CN","_id":1790707,"name":"Xiahu"},{"coord":{"lat":34.725867999999998,"lon":109.50724},"country":"CN","_id":1790723,"name":"Xiaji"},{"coord":{"lat":25.755559999999999,"lon":108.69194},"country":"CN","_id":1790696,"name":"Xiajiang"},{"coord":{"lat":29.959999,"lon":118.660828},"country":"CN","_id":1790683,"name":"Xiakeng"},{"coord":{"lat":29.14432,"lon":118.987228},"country":"CN","_id":1790681,"name":"Xiakou"},{"coord":{"lat":33.211170000000003,"lon":106.407509},"country":"CN","_id":1790673,"name":"Xiakouyi"},{"coord":{"lat":39.592219999999998,"lon":112.657501},"country":"CN","_id":1790672,"name":"Xialaba"},{"coord":{"lat":33.530880000000003,"lon":113.212463},"country":"CN","_id":1790665,"name":"Xiali"},{"coord":{"lat":32.076720999999999,"lon":106.771523},"country":"CN","_id":1790664,"name":"Xialiang"},{"coord":{"lat":30.065901,"lon":120.355789},"country":"CN","_id":7735145,"name":"Xialu"},{"coord":{"lat":26.57649,"lon":117.66580999999999},"country":"CN","_id":1790652,"name":"Xiamao"},{"coord":{"lat":39.396061000000003,"lon":113.108414},"country":"CN","_id":1790647,"name":"Xiamayu"},{"coord":{"lat":32.531638999999998,"lon":120.947929},"country":"CN","_id":7318938,"name":"Xiamazhuang"},{"coord":{"lat":23.997399999999999,"lon":117.682243},"country":"CN","_id":1790646,"name":"Xiamei"},{"coord":{"lat":24.479790000000001,"lon":118.08187100000001},"country":"CN","_id":1790645,"name":"Xiamen"},{"coord":{"lat":39.497532,"lon":112.51239},"country":"CN","_id":1790637,"name":"Xiamiangao"},{"coord":{"lat":34.576487999999998,"lon":109.77056899999999},"country":"CN","_id":1790636,"name":"Xiamiao"},{"coord":{"lat":39.464191,"lon":112.080437},"country":"CN","_id":1790635,"name":"Xiamujiao"},{"coord":{"lat":34.258330999999998,"lon":108.928612},"country":"CN","_id":1790630,"name":"Xian"},{"coord":{"lat":24.920560999999999,"lon":112.28694900000001},"country":"CN","_id":1790633,"name":"Xian"},{"coord":{"lat":40.922660999999998,"lon":122.23481},"country":"CN","_id":2053185,"name":"Xian"},{"coord":{"lat":23.078589999999998,"lon":116.50469200000001},"country":"CN","_id":1812500,"name":"Xianan"},{"coord":{"lat":26.266629999999999,"lon":116.658974},"country":"CN","_id":7446847,"name":"Xianan"},{"coord":{"lat":23.237209,"lon":116.314621},"country":"CN","_id":1919795,"name":"Xiancheng"},{"coord":{"lat":29.463920999999999,"lon":110.471397},"country":"CN","_id":1928000,"name":"Xianchiyu"},{"coord":{"lat":26.938610000000001,"lon":119.360283},"country":"CN","_id":1790620,"name":"Xiancun"},{"coord":{"lat":30.136649999999999,"lon":118.01458},"country":"CN","_id":7637609,"name":"Xiancun"},{"coord":{"lat":25.017719,"lon":121.542473},"country":"TW","_id":1675720,"name":"Xianeibu"},{"coord":{"lat":32.008999000000003,"lon":120.975166},"country":"CN","_id":1886026,"name":"Xianfeng"},{"coord":{"lat":33.847031000000001,"lon":113.47779800000001},"country":"CN","_id":1790601,"name":"Xiangcheng"},{"coord":{"lat":25.466868999999999,"lon":100.562477},"country":"CN","_id":1790442,"name":"Xiangcheng"},{"coord":{"lat":28.199038999999999,"lon":115.16152200000001},"country":"CN","_id":1790602,"name":"Xiangcheng"},{"coord":{"lat":35.006988999999997,"lon":109.586113},"country":"CN","_id":7405635,"name":"Xiangcunxiang"},{"coord":{"lat":25.443621,"lon":116.209846},"country":"CN","_id":1921665,"name":"Xiangdian"},{"coord":{"lat":29.50761,"lon":109.402657},"country":"CN","_id":1804602,"name":"Xiangfeng"},{"coord":{"lat":28.474701,"lon":115.430367},"country":"CN","_id":1790583,"name":"Xiangfu"},{"coord":{"lat":30.32976,"lon":120.09922},"country":"CN","_id":7735198,"name":"Xiangfu"},{"coord":{"lat":35.847079999999998,"lon":102.02961000000001},"country":"CN","_id":7413219,"name":"Xianggan"},{"coord":{"lat":23.388611000000001,"lon":112.82111399999999},"country":"CN","_id":1914540,"name":"Xianggang"},{"coord":{"lat":24.078890000000001,"lon":113.760834},"country":"CN","_id":7644170,"name":"Xianggui"},{"coord":{"lat":33.108910000000002,"lon":113.424919},"country":"CN","_id":1790573,"name":"Xianghe"},{"coord":{"lat":32.090881000000003,"lon":118.25000799999999},"country":"CN","_id":1790578,"name":"Xianghe"},{"coord":{"lat":25.799999,"lon":116},"country":"CN","_id":1790568,"name":"Xianghu"},{"coord":{"lat":29.325371000000001,"lon":117.31588000000001},"country":"CN","_id":1790567,"name":"Xianghu"},{"coord":{"lat":39.966942000000003,"lon":116.20639},"country":"CN","_id":1912044,"name":"Xianghuangnanying"},{"coord":{"lat":31.174509,"lon":121.11691999999999},"country":"CN","_id":1790560,"name":"Xianghuaqiao"},{"coord":{"lat":28.620840000000001,"lon":104.299271},"country":"CN","_id":6648023,"name":"Xiangjiaba"},{"coord":{"lat":25.533331,"lon":115.75},"country":"CN","_id":1790557,"name":"Xiangjiang"},{"coord":{"lat":25.06917,"lon":111.819168},"country":"CN","_id":6423050,"name":"Xiangjiang"},{"coord":{"lat":29.206849999999999,"lon":110.005081},"country":"CN","_id":7059590,"name":"Xiangjiazhai"},{"coord":{"lat":36.027222000000002,"lon":111.400002},"country":"CN","_id":1790541,"name":"Xiangling"},{"coord":{"lat":25.361388999999999,"lon":111.537216},"country":"CN","_id":6422502,"name":"Xianglinpu"},{"coord":{"lat":34.992519000000001,"lon":108.225998},"country":"CN","_id":1790536,"name":"Xiangmiao"},{"coord":{"lat":34.526828999999999,"lon":107.068062},"country":"CN","_id":1790532,"name":"Xiangong"},{"coord":{"lat":24.58943,"lon":112.114807},"country":"CN","_id":1920461,"name":"Xiangping"},{"coord":{"lat":34.615138999999999,"lon":109.366173},"country":"CN","_id":1790527,"name":"Xiangqiao"},{"coord":{"lat":31.870380000000001,"lon":118.31635300000001},"country":"CN","_id":1790526,"name":"Xiangquan"},{"coord":{"lat":40.140560000000001,"lon":123.11694300000001},"country":"CN","_id":2051187,"name":"Xiangrong"},{"coord":{"lat":31.662220000000001,"lon":118.593552},"country":"CN","_id":1790516,"name":"Xiangshan"},{"coord":{"lat":28.953479999999999,"lon":115.98097199999999},"country":"CN","_id":1925311,"name":"Xiangshan"},{"coord":{"lat":27.557079000000002,"lon":116.030113},"country":"CN","_id":1925312,"name":"Xiangshan"},{"coord":{"lat":29.517199999999999,"lon":110.837463},"country":"CN","_id":1790510,"name":"Xiangshi"},{"coord":{"lat":32.942219000000001,"lon":107.07971999999999},"country":"CN","_id":1790498,"name":"Xiangshui"},{"coord":{"lat":23.268709000000001,"lon":114.218712},"country":"CN","_id":1790506,"name":"Xiangshui"},{"coord":{"lat":18.593188999999999,"lon":109.612061},"country":"CN","_id":1790508,"name":"Xiangshui"},{"coord":{"lat":29.474791,"lon":116.550102},"country":"CN","_id":1790496,"name":"Xiangshuitang"},{"coord":{"lat":27.850000000000001,"lon":112.900002},"country":"CN","_id":1790492,"name":"Xiangtan"},{"coord":{"lat":28.426438999999998,"lon":115.96322600000001},"country":"CN","_id":1790488,"name":"Xiangtang"},{"coord":{"lat":40.832709999999999,"lon":122.76850899999999},"country":"CN","_id":2053253,"name":"Xiangtang"},{"coord":{"lat":29.00806,"lon":117.540283},"country":"CN","_id":1909610,"name":"Xiangtun"},{"coord":{"lat":29.240729999999999,"lon":116.548241},"country":"CN","_id":7636855,"name":"Xiangxi"},{"coord":{"lat":27.733329999999999,"lon":112.533333},"country":"CN","_id":1790471,"name":"Xiangxiang"},{"coord":{"lat":27.129940000000001,"lon":114.22586800000001},"country":"CN","_id":7658327,"name":"Xiangxing"},{"coord":{"lat":32.042197999999999,"lon":112.144791},"country":"CN","_id":1790587,"name":"Xiangyang"},{"coord":{"lat":30.895638999999999,"lon":118.866783},"country":"CN","_id":1552266,"name":"Xiangyang"},{"coord":{"lat":31.872219000000001,"lon":121.787781},"country":"CN","_id":1790460,"name":"Xiangyang"},{"coord":{"lat":45.752972,"lon":126.923042},"country":"CN","_id":7630148,"name":"Xiangyang"},{"coord":{"lat":29.905539999999998,"lon":114.16391},"country":"CN","_id":7741550,"name":"Xiangyanghu"},{"coord":{"lat":39.607250000000001,"lon":112.35134100000001},"country":"CN","_id":1790461,"name":"Xiangyangpu"},{"coord":{"lat":24.971108999999998,"lon":118.16027800000001},"country":"CN","_id":1921288,"name":"Xiangyun"},{"coord":{"lat":23.972819999999999,"lon":109.66677900000001},"country":"CN","_id":1790435,"name":"Xiangzhou"},{"coord":{"lat":24.857749999999999,"lon":102.422096},"country":"CN","_id":6824445,"name":"Xianjie"},{"coord":{"lat":28.850000000000001,"lon":120.73333},"country":"CN","_id":1790413,"name":"Xianju"},{"coord":{"lat":31.40015,"lon":112.03379099999999},"country":"CN","_id":1790412,"name":"Xianju"},{"coord":{"lat":30.225829999999998,"lon":119.981392},"country":"CN","_id":1790402,"name":"Xianlin"},{"coord":{"lat":33.814200999999997,"lon":106.244759},"country":"CN","_id":7407766,"name":"Xianlong"},{"coord":{"lat":29.883329,"lon":114.216667},"country":"CN","_id":1790396,"name":"Xianning"},{"coord":{"lat":32.436667999999997,"lon":119.550827},"country":"CN","_id":1790392,"name":"Xiannu"},{"coord":{"lat":30.52693,"lon":111.73992200000001},"country":"CN","_id":7696233,"name":"Xiannu"},{"coord":{"lat":42.450339999999997,"lon":129.402863},"country":"CN","_id":7544732,"name":"Xianpudong"},{"coord":{"lat":42.172001000000002,"lon":127.23159800000001},"country":"CN","_id":2033998,"name":"Xianrenqiao"},{"coord":{"lat":27.754439999999999,"lon":110.32971999999999},"country":"CN","_id":1790387,"name":"Xianrenwan"},{"coord":{"lat":30.991448999999999,"lon":101.12700700000001},"country":"CN","_id":1783556,"name":"Xianshui"},{"coord":{"lat":38.985000999999997,"lon":117.38278200000001},"country":"CN","_id":1790379,"name":"Xianshuigu"},{"coord":{"lat":33.530101999999999,"lon":113.450943},"country":"CN","_id":1811123,"name":"Xiantai"},{"coord":{"lat":33.393397999999998,"lon":106.3685},"country":"CN","_id":1790377,"name":"Xiantaiba"},{"coord":{"lat":28.81859,"lon":106.19270299999999},"country":"CN","_id":1790376,"name":"Xiantan"},{"coord":{"lat":23.808941000000001,"lon":114.785088},"country":"CN","_id":1790374,"name":"Xiantang"},{"coord":{"lat":30.383329,"lon":113.400002},"country":"CN","_id":1790371,"name":"Xiantao"},{"coord":{"lat":26.334720999999998,"lon":109.64305899999999},"country":"CN","_id":1790357,"name":"Xianxi"},{"coord":{"lat":26.113119000000001,"lon":115.56313299999999},"country":"CN","_id":1790364,"name":"Xianxia"},{"coord":{"lat":29.690339999999999,"lon":121.778839},"country":"CN","_id":1790358,"name":"Xianxiang"},{"coord":{"lat":29.587779999999999,"lon":121.842781},"country":"CN","_id":1887722,"name":"Xianxiang"},{"coord":{"lat":29.675429999999999,"lon":120.81321},"country":"CN","_id":1790356,"name":"Xianyan"},{"coord":{"lat":28.573329999999999,"lon":118.39417299999999},"country":"CN","_id":1924314,"name":"Xianyan"},{"coord":{"lat":34.337780000000002,"lon":108.702606},"country":"CN","_id":1790353,"name":"Xianyang"},{"coord":{"lat":28.045580000000001,"lon":118.518333},"country":"CN","_id":1790354,"name":"Xianyang"},{"coord":{"lat":30.305420000000002,"lon":118.200203},"country":"CN","_id":1790345,"name":"Xianyuan"},{"coord":{"lat":28.2987,"lon":114.258331},"country":"CN","_id":1790347,"name":"Xianyuan"},{"coord":{"lat":25.635559000000001,"lon":111.364166},"country":"CN","_id":6422332,"name":"Xianzijiao"},{"coord":{"lat":31.801300000000001,"lon":118.007797},"country":"CN","_id":1790339,"name":"Xianzong"},{"coord":{"lat":24.691351000000001,"lon":115.25715599999999},"country":"CN","_id":1790338,"name":"Xiao"},{"coord":{"lat":24.979441000000001,"lon":102.773804},"country":"CN","_id":6824982,"name":"Xiaobanqiao"},{"coord":{"lat":33.232551999999998,"lon":106.489868},"country":"CN","_id":7408492,"name":"Xiaobianhe"},{"coord":{"lat":26.78632,"lon":115.83120700000001},"country":"CN","_id":1790315,"name":"Xiaobu"},{"coord":{"lat":29.460719999999998,"lon":110.097511},"country":"CN","_id":7059421,"name":"Xiaobutou"},{"coord":{"lat":36.151820999999998,"lon":106.75971199999999},"country":"CN","_id":1790311,"name":"Xiaocha"},{"coord":{"lat":42.889991999999999,"lon":123.204521},"country":"CN","_id":2033988,"name":"Xiaochengzi"},{"coord":{"lat":29.753589999999999,"lon":115.98951},"country":"CN","_id":1790300,"name":"Xiaochi"},{"coord":{"lat":25.144341000000001,"lon":116.885437},"country":"CN","_id":1790302,"name":"Xiaochi"},{"coord":{"lat":26.233709000000001,"lon":117.01808200000001},"country":"CN","_id":1922337,"name":"Xiaochi"},{"coord":{"lat":33.680599000000001,"lon":105.561562},"country":"CN","_id":1790296,"name":"Xiaochuan"},{"coord":{"lat":34.263882000000002,"lon":108.261436},"country":"CN","_id":1790289,"name":"Xiaocun"},{"coord":{"lat":39.251942,"lon":117.217781},"country":"CN","_id":1790272,"name":"Xiaodian"},{"coord":{"lat":37.736389000000003,"lon":112.556389},"country":"CN","_id":1790274,"name":"Xiaodian"},{"coord":{"lat":30.033331,"lon":121.099998},"country":"CN","_id":1790263,"name":"Xiaodong"},{"coord":{"lat":39.061939000000002,"lon":117.398888},"country":"CN","_id":1790260,"name":"Xiaodongzhuang"},{"coord":{"lat":29.628329999999998,"lon":111.912216},"country":"CN","_id":1928110,"name":"Xiaodukou"},{"coord":{"lat":34.169842000000003,"lon":107.82118199999999},"country":"CN","_id":1909627,"name":"Xiaofayi"},{"coord":{"lat":30.91667,"lon":113.900002},"country":"CN","_id":1790254,"name":"Xiaogan"},{"coord":{"lat":31.077418999999999,"lon":113.933632},"country":"CN","_id":1790163,"name":"Xiaogang"},{"coord":{"lat":28.246759000000001,"lon":115.86277},"country":"CN","_id":1790248,"name":"Xiaogang"},{"coord":{"lat":29.950330999999998,"lon":121.74292800000001},"country":"CN","_id":1790250,"name":"Xiaogang"},{"coord":{"lat":29.875879000000001,"lon":109.31931299999999},"country":"CN","_id":1790236,"name":"Xiaoguan"},{"coord":{"lat":35.584389000000002,"lon":102.89170799999999},"country":"CN","_id":7413777,"name":"Xiaoguan"},{"coord":{"lat":33.029559999999996,"lon":120.47596},"country":"CN","_id":1547557,"name":"Xiaohai"},{"coord":{"lat":31.955179000000001,"lon":120.96434000000001},"country":"CN","_id":1790220,"name":"Xiaohai"},{"coord":{"lat":31.803889999999999,"lon":112.15222199999999},"country":"CN","_id":1790210,"name":"Xiaohe"},{"coord":{"lat":30.309971000000001,"lon":120.135048},"country":"CN","_id":7735175,"name":"Xiaohe"},{"coord":{"lat":32.958969000000003,"lon":106.66539},"country":"CN","_id":1790196,"name":"Xiaohemiao"},{"coord":{"lat":27.605,"lon":110.516937},"country":"CN","_id":1790194,"name":"Xiaohenglong"},{"coord":{"lat":42.4375,"lon":119.57111399999999},"country":"CN","_id":2033968,"name":"Xiaoheyan"},{"coord":{"lat":27.33333,"lon":118.26667},"country":"CN","_id":1790184,"name":"Xiaohu"},{"coord":{"lat":28.31222,"lon":116.709717},"country":"CN","_id":1925320,"name":"Xiaohuang"},{"coord":{"lat":34.909260000000003,"lon":109.27063800000001},"country":"CN","_id":2000872,"name":"Xiaohui"},{"coord":{"lat":34.133330999999998,"lon":119.650002},"country":"CN","_id":1790148,"name":"Xiaojian"},{"coord":{"lat":29.383261000000001,"lon":121.115433},"country":"CN","_id":1790157,"name":"Xiaojiang"},{"coord":{"lat":22.281459999999999,"lon":109.529343},"country":"CN","_id":1790160,"name":"Xiaojiang"},{"coord":{"lat":24.616130999999999,"lon":112.59266700000001},"country":"CN","_id":1920464,"name":"Xiaojiang"},{"coord":{"lat":31.284949999999998,"lon":118.062134},"country":"CN","_id":1552729,"name":"Xiaojiangba"},{"coord":{"lat":24.864559,"lon":102.135048},"country":"CN","_id":6823779,"name":"Xiaojie"},{"coord":{"lat":24.158100000000001,"lon":102.461197},"country":"CN","_id":6824063,"name":"Xiaojie"},{"coord":{"lat":24.643930000000001,"lon":102.931427},"country":"CN","_id":6824635,"name":"Xiaojie"},{"coord":{"lat":24.344760999999998,"lon":102.8638},"country":"CN","_id":1901903,"name":"Xiaojiezi"},{"coord":{"lat":34.339511999999999,"lon":109.41349},"country":"CN","_id":1998308,"name":"Xiaojin"},{"coord":{"lat":39.886398,"lon":112.65164900000001},"country":"CN","_id":1790124,"name":"Xiaojingzhuang"},{"coord":{"lat":23.188939999999999,"lon":114.40422100000001},"country":"CN","_id":1916883,"name":"Xiaojinkou"},{"coord":{"lat":24.66667,"lon":113.800003},"country":"CN","_id":1790116,"name":"Xiaokeng"},{"coord":{"lat":30.172740999999998,"lon":121.30587800000001},"country":"CN","_id":1790104,"name":"Xiaolin"},{"coord":{"lat":45.336368999999998,"lon":127.30538900000001},"country":"CN","_id":2033952,"name":"Xiaoling"},{"coord":{"lat":35.894840000000002,"lon":102.995621},"country":"CN","_id":7413861,"name":"Xiaoling"},{"coord":{"lat":32.033329000000002,"lon":118.849998},"country":"CN","_id":1790100,"name":"Xiaolingwei"},{"coord":{"lat":36.400829000000002,"lon":116.584717},"country":"CN","_id":1790098,"name":"Xiaolipu"},{"coord":{"lat":26.681819999999998,"lon":115.25475299999999},"country":"CN","_id":1790090,"name":"Xiaolong"},{"coord":{"lat":25.54138,"lon":115.544838},"country":"CN","_id":1790091,"name":"Xiaolong"},{"coord":{"lat":27.801940999999999,"lon":110.160561},"country":"CN","_id":1790088,"name":"Xiaolongmen"},{"coord":{"lat":23.384439,"lon":113.82817799999999},"country":"CN","_id":1790085,"name":"Xiaolou"},{"coord":{"lat":29.861499999999999,"lon":117.607697},"country":"CN","_id":1790081,"name":"Xiaolukou"},{"coord":{"lat":30.536750999999999,"lon":114.15934},"country":"CN","_id":7904808,"name":"Xiaoluojiazui"},{"coord":{"lat":27.82583,"lon":118.972221},"country":"CN","_id":1790064,"name":"Xiaomei"},{"coord":{"lat":25.876591000000001,"lon":115.70639799999999},"country":"CN","_id":1923473,"name":"Xiaomi"},{"coord":{"lat":22.776899,"lon":115.033798},"country":"CN","_id":7032140,"name":"Xiaomo"},{"coord":{"lat":36.624352000000002,"lon":106.81809199999999},"country":"CN","_id":1790052,"name":"Xiaonangou"},{"coord":{"lat":30.695971,"lon":114.349243},"country":"CN","_id":7904020,"name":"Xiaonanhu"},{"coord":{"lat":39.384739000000003,"lon":112.481354},"country":"CN","_id":1790037,"name":"Xiaopingyi"},{"coord":{"lat":31.029551000000001,"lon":119.829582},"country":"CN","_id":1790034,"name":"Xiaopu"},{"coord":{"lat":25.239170000000001,"lon":111.316643},"country":"CN","_id":1806209,"name":"Xiaopu"},{"coord":{"lat":25.280830000000002,"lon":111.344437},"country":"CN","_id":6422958,"name":"Xiaopu"},{"coord":{"lat":33.916359,"lon":113.060562},"country":"CN","_id":1910191,"name":"Xiaoqi"},{"coord":{"lat":26.95384,"lon":118.466072},"country":"CN","_id":1790029,"name":"Xiaoqiao"},{"coord":{"lat":34.909438999999999,"lon":108.771393},"country":"CN","_id":1790017,"name":"Xiaoqiu"},{"coord":{"lat":24.281960000000002,"lon":112.132957},"country":"CN","_id":1790007,"name":"Xiaosanjiang"},{"coord":{"lat":30.107790000000001,"lon":122.057793},"country":"CN","_id":1881568,"name":"Xiaosha"},{"coord":{"lat":42.639439000000003,"lon":128.29361},"country":"CN","_id":2046561,"name":"Xiaoshahe"},{"coord":{"lat":27.521391000000001,"lon":110.748062},"country":"CN","_id":1790001,"name":"Xiaoshajiang"},{"coord":{"lat":30.167459000000001,"lon":120.258827},"country":"CN","_id":1789998,"name":"Xiaoshan"},{"coord":{"lat":44.907119999999999,"lon":127.602402},"country":"CN","_id":7630128,"name":"Xiaoshanzi"},{"coord":{"lat":32.096530999999999,"lon":118.781479},"country":"CN","_id":1548958,"name":"Xiaoshi"},{"coord":{"lat":41.297111999999998,"lon":124.120918},"country":"CN","_id":2033934,"name":"Xiaoshi"},{"coord":{"lat":33.155121000000001,"lon":113.320099},"country":"CN","_id":1789985,"name":"Xiaoshidian"},{"coord":{"lat":24.4468,"lon":102.617531},"country":"CN","_id":6825439,"name":"Xiaoshiqiao"},{"coord":{"lat":42.536110000000001,"lon":125.129723},"country":"CN","_id":2046429,"name":"Xiaosiping"},{"coord":{"lat":26.442419000000001,"lon":116.30549600000001},"country":"CN","_id":1789973,"name":"Xiaosong"},{"coord":{"lat":28.208521000000001,"lon":115.912018},"country":"CN","_id":1925325,"name":"Xiaotang"},{"coord":{"lat":27.04204,"lon":116.092506},"country":"CN","_id":1789963,"name":"Xiaotian"},{"coord":{"lat":26.859719999999999,"lon":113.83693700000001},"country":"CN","_id":1930342,"name":"Xiaotian"},{"coord":{"lat":24.912648999999998,"lon":102.791557},"country":"CN","_id":6824989,"name":"Xiaowangjiaying"},{"coord":{"lat":29.701388999999999,"lon":121.35582700000001},"country":"CN","_id":1789951,"name":"Xiaowangmiao"},{"coord":{"lat":26.190280999999999,"lon":107.512497},"country":"CN","_id":1789945,"name":"Xiaoweizhai"},{"coord":{"lat":25.770399000000001,"lon":115.329903},"country":"CN","_id":1789935,"name":"Xiaoxi"},{"coord":{"lat":24.352488999999998,"lon":117.29071},"country":"CN","_id":1789937,"name":"Xiaoxi"},{"coord":{"lat":25.950609,"lon":116.712852},"country":"CN","_id":1815504,"name":"Xiaoxi"},{"coord":{"lat":30.771350999999999,"lon":111.321457},"country":"CN","_id":1789918,"name":"Xiaoxita"},{"coord":{"lat":50.799999,"lon":124.283333},"country":"CN","_id":2033915,"name":"Xiaoyangqi"},{"coord":{"lat":34.617778999999999,"lon":109.703011},"country":"CN","_id":1789898,"name":"Xiaoyi"},{"coord":{"lat":42.912059999999997,"lon":129.52065999999999},"country":"CN","_id":7659437,"name":"Xiaoying"},{"coord":{"lat":30.07122,"lon":120.92796300000001},"country":"CN","_id":1789877,"name":"Xiaoyue"},{"coord":{"lat":29.27384,"lon":110.41989100000001},"country":"CN","_id":7059662,"name":"Xiaoyuwan"},{"coord":{"lat":34.045658000000003,"lon":109.28713999999999},"country":"CN","_id":1789873,"name":"Xiaozhai"},{"coord":{"lat":34.639141000000002,"lon":104.013077},"country":"CN","_id":7446319,"name":"Xiaozhai"},{"coord":{"lat":23.985420000000001,"lon":114.02597799999999},"country":"CN","_id":1917124,"name":"Xiaozhen"},{"coord":{"lat":27.561700999999999,"lon":99.875259},"country":"CN","_id":6643966,"name":"Xiaozhongdian"},{"coord":{"lat":40.270778999999997,"lon":120.42997},"country":"CN","_id":2033909,"name":"Xiaozhuangzi"},{"coord":{"lat":29.514410000000002,"lon":114.46423299999999},"country":"CN","_id":1789832,"name":"Xiapu"},{"coord":{"lat":27.796419,"lon":114.443161},"country":"CN","_id":1789833,"name":"Xiapu"},{"coord":{"lat":29.889021,"lon":121.880302},"country":"CN","_id":1887772,"name":"Xiapu"},{"coord":{"lat":26.823699999999999,"lon":117.15654000000001},"country":"CN","_id":1789823,"name":"Xiaqu"},{"coord":{"lat":29.570399999999999,"lon":121.02675600000001},"country":"CN","_id":1915379,"name":"Xiaren"},{"coord":{"lat":27.808969000000001,"lon":99.357596999999998},"country":"CN","_id":6643964,"name":"Xiaruo"},{"coord":{"lat":39.212001999999998,"lon":113.35740699999999},"country":"CN","_id":1789819,"name":"Xiaruyue"},{"coord":{"lat":31.982281,"lon":121.41928900000001},"country":"CN","_id":1791782,"name":"Xiasanhe"},{"coord":{"lat":30.310230000000001,"lon":120.317177},"country":"CN","_id":7735255,"name":"Xiasha"},{"coord":{"lat":29.464769,"lon":121.530502},"country":"CN","_id":1789810,"name":"Xiashan"},{"coord":{"lat":23.249808999999999,"lon":116.427116},"country":"CN","_id":1789812,"name":"Xiashan"},{"coord":{"lat":29.3339,"lon":118.40617399999999},"country":"CN","_id":1916778,"name":"Xiashan"},{"coord":{"lat":39.514172000000002,"lon":113.29306},"country":"CN","_id":1789803,"name":"Xiashe"},{"coord":{"lat":30.536289,"lon":120.686378},"country":"CN","_id":1789799,"name":"Xiashi"},{"coord":{"lat":34.380020000000002,"lon":107.068428},"country":"CN","_id":7367793,"name":"Xiashixiang"},{"coord":{"lat":24.214179999999999,"lon":112.08541099999999},"country":"CN","_id":1920396,"name":"Xiashuai"},{"coord":{"lat":39.527729000000001,"lon":112.081863},"country":"CN","_id":1789789,"name":"Xiashuitou"},{"coord":{"lat":32.289982000000002,"lon":105.51326},"country":"CN","_id":1914158,"name":"Xiasi"},{"coord":{"lat":33.719872000000002,"lon":112.679802},"country":"CN","_id":1789780,"name":"Xiatang"},{"coord":{"lat":28.615310999999998,"lon":118.099152},"country":"CN","_id":7066221,"name":"Xiatang"},{"coord":{"lat":27.027781000000001,"lon":111.234718},"country":"CN","_id":1930346,"name":"Xiatangyunxiang"},{"coord":{"lat":39.360278999999998,"lon":112.376671},"country":"CN","_id":1789776,"name":"Xiatuanpu"},{"coord":{"lat":36.106022000000003,"lon":106.636093},"country":"CN","_id":1791874,"name":"Xiawangwa"},{"coord":{"lat":39.613608999999997,"lon":117.05332900000001},"country":"CN","_id":1789759,"name":"Xiawuqi"},{"coord":{"lat":30.5,"lon":118.93332700000001},"country":"CN","_id":1553794,"name":"Xiaxi"},{"coord":{"lat":28.459789000000001,"lon":118.186691},"country":"CN","_id":7066245,"name":"Xiaxi"},{"coord":{"lat":40.299999,"lon":97.166672000000005},"country":"CN","_id":1529061,"name":"Xiaxihao"},{"coord":{"lat":29.989709999999999,"lon":116.006737},"country":"CN","_id":7640667,"name":"Xiaxin"},{"coord":{"lat":26.428761000000002,"lon":117.45417},"country":"CN","_id":1789745,"name":"Xiayang"},{"coord":{"lat":26.481359000000001,"lon":113.798027},"country":"CN","_id":1803438,"name":"Xiayang"},{"coord":{"lat":27.877680000000002,"lon":119.80468},"country":"CN","_id":6971678,"name":"Xiayang"},{"coord":{"lat":31.14967,"lon":121.115883},"country":"CN","_id":7845495,"name":"Xiayang"},{"coord":{"lat":29.80472,"lon":121.591393},"country":"CN","_id":1887078,"name":"Xiaying"},{"coord":{"lat":41.723179000000002,"lon":124.552139},"country":"CN","_id":2033894,"name":"Xiayingzi"},{"coord":{"lat":22.77355,"lon":114.65078699999999},"country":"CN","_id":1789727,"name":"Xiayong"},{"coord":{"lat":27.282499000000001,"lon":119.061943},"country":"CN","_id":1983877,"name":"Xiayuan"},{"coord":{"lat":32.231670000000001,"lon":120.64138800000001},"country":"CN","_id":1790691,"name":"Xiayuan"},{"coord":{"lat":34.714531000000001,"lon":109.76505299999999},"country":"CN","_id":1789709,"name":"Xiazhai"},{"coord":{"lat":34.802219000000001,"lon":117.111671},"country":"CN","_id":1789703,"name":"Xiazhen"},{"coord":{"lat":28.646099,"lon":118.40244300000001},"country":"CN","_id":1789705,"name":"Xiazhen"},{"coord":{"lat":29.756209999999999,"lon":122.23571800000001},"country":"CN","_id":1814635,"name":"Xiazhi"},{"coord":{"lat":34.916111000000001,"lon":118.638893},"country":"CN","_id":1789693,"name":"Xiazhuang"},{"coord":{"lat":35.851500999999999,"lon":102.295624},"country":"CN","_id":7413345,"name":"Xiazhuang"},{"coord":{"lat":27.764589000000001,"lon":118.93765999999999},"country":"CN","_id":6969808,"name":"Xibian"},{"coord":{"lat":26.368320000000001,"lon":118.37468699999999},"country":"CN","_id":1922257,"name":"Xibin"},{"coord":{"lat":26.981390000000001,"lon":119.724716},"country":"CN","_id":1789659,"name":"Xibing"},{"coord":{"lat":31.778369999999999,"lon":118.28492},"country":"CN","_id":1789657,"name":"Xibu"},{"coord":{"lat":23.699059999999999,"lon":117.42511},"country":"CN","_id":1789658,"name":"Xibu"},{"coord":{"lat":36.494720000000001,"lon":103.633331},"country":"CN","_id":1936475,"name":"Xicao"},{"coord":{"lat":27.896419999999999,"lon":102.26342},"country":"CN","_id":1789647,"name":"Xichang"},{"coord":{"lat":32.525002000000001,"lon":120.591667},"country":"CN","_id":1548514,"name":"Xichang"},{"coord":{"lat":23.929500999999998,"lon":114.45266700000001},"country":"CN","_id":1917107,"name":"Xichang"},{"coord":{"lat":29.071118999999999,"lon":109.53321099999999},"country":"CN","_id":1789643,"name":"Xichehe"},{"coord":{"lat":23.306021000000001,"lon":103.16351299999999},"country":"CN","_id":1810240,"name":"Xicheng"},{"coord":{"lat":26.163018999999998,"lon":118.14193},"country":"CN","_id":1922260,"name":"Xicheng"},{"coord":{"lat":34.308047999999999,"lon":108.441681},"country":"CN","_id":7063942,"name":"Xicheng"},{"coord":{"lat":30.359038999999999,"lon":112.18026},"country":"CN","_id":7661858,"name":"Xicheng"},{"coord":{"lat":29.244070000000001,"lon":120.437698},"country":"CN","_id":1918764,"name":"Xichou"},{"coord":{"lat":36.495621,"lon":107.15007799999999},"country":"CN","_id":7518595,"name":"Xichuan"},{"coord":{"lat":19.41667,"lon":-97},"country":"MX","_id":3514518,"name":"Xico"},{"coord":{"lat":19.173611000000001,"lon":-98.233329999999995},"country":"MX","_id":3815363,"name":"Xicohtzinco"},{"coord":{"lat":23.016670000000001,"lon":-98.883330999999998},"country":"MX","_id":3483063,"name":"Xicotencatl"},{"coord":{"lat":20.299999,"lon":-97.966667000000001},"country":"MX","_id":3514510,"name":"Xicotepec de Juarez"},{"coord":{"lat":39.151389999999999,"lon":113.115448},"country":"CN","_id":1785483,"name":"Xicun"},{"coord":{"lat":27.755119000000001,"lon":114.21787999999999},"country":"CN","_id":1789622,"name":"Xicun"},{"coord":{"lat":27.99662,"lon":116.352898},"country":"CN","_id":7739108,"name":"Xidajie"},{"coord":{"lat":29.907221,"lon":117.99240899999999},"country":"CN","_id":1789601,"name":"Xidi"},{"coord":{"lat":29.490511000000001,"lon":121.433029},"country":"CN","_id":1789600,"name":"Xidian"},{"coord":{"lat":40.088070000000002,"lon":119.93607299999999},"country":"CN","_id":2053426,"name":"Xidianzi"},{"coord":{"lat":39.252220000000001,"lon":117.34639},"country":"CN","_id":1789597,"name":"Xiditou"},{"coord":{"lat":39.599997999999999,"lon":98.400002000000001},"country":"CN","_id":1279716,"name":"Xidong"},{"coord":{"lat":26.956289000000002,"lon":112.368279},"country":"CN","_id":1789593,"name":"Xidu"},{"coord":{"lat":35.428162,"lon":110.811813},"country":"CN","_id":1789586,"name":"Xiedian"},{"coord":{"lat":25.706538999999999,"lon":115.865623},"country":"CN","_id":1789584,"name":"Xiefang"},{"coord":{"lat":22.961099999999998,"lon":114.140579},"country":"CN","_id":7001716,"name":"Xiegang"},{"coord":{"lat":34.204182000000003,"lon":109.24561300000001},"country":"CN","_id":1789575,"name":"Xiehu"},{"coord":{"lat":32.759720000000002,"lon":119.59693900000001},"country":"CN","_id":1548832,"name":"Xiejia"},{"coord":{"lat":30.04044,"lon":111.366478},"country":"CN","_id":1910527,"name":"Xiejiaping"},{"coord":{"lat":29.487649999999999,"lon":116.711952},"country":"CN","_id":1789554,"name":"Xiejiatan"},{"coord":{"lat":28.983329999999999,"lon":110.66667200000001},"country":"CN","_id":1789553,"name":"Xiejiaya"},{"coord":{"lat":34.360889,"lon":109.15308400000001},"country":"CN","_id":1789550,"name":"Xiekou"},{"coord":{"lat":30.035561000000001,"lon":121.60582700000001},"country":"CN","_id":1789540,"name":"Xiepu"},{"coord":{"lat":32.061691000000003,"lon":120.383629},"country":"CN","_id":1789537,"name":"Xieqiao"},{"coord":{"lat":30.488728999999999,"lon":120.56804700000001},"country":"CN","_id":1789538,"name":"Xieqiao"},{"coord":{"lat":33.004299000000003,"lon":106.909317},"country":"CN","_id":7408027,"name":"Xieshui"},{"coord":{"lat":30.121901000000001,"lon":120.9011},"country":"CN","_id":1789526,"name":"Xietang"},{"coord":{"lat":31.82469,"lon":118.045372},"country":"CN","_id":7047778,"name":"Xiexiang"},{"coord":{"lat":31.41,"lon":95.620002999999997},"country":"CN","_id":1279746,"name":"Xiexiong"},{"coord":{"lat":33.149540000000002,"lon":112.43562300000001},"country":"CN","_id":1908867,"name":"Xiezhuang"},{"coord":{"lat":39.612170999999996,"lon":113.481392},"country":"CN","_id":1789512,"name":"Xifangcheng"},{"coord":{"lat":42.737220999999998,"lon":124.722221},"country":"CN","_id":2033866,"name":"Xifeng"},{"coord":{"lat":29.092099999999999,"lon":114.401787},"country":"CN","_id":1789499,"name":"Xigang"},{"coord":{"lat":33.734749000000001,"lon":105.38816799999999},"country":"CN","_id":7373329,"name":"Xigaoshan"},{"coord":{"lat":42.574950999999999,"lon":123.16525300000001},"country":"CN","_id":7012544,"name":"Xiguantun Muguzu Manzuxiang"},{"coord":{"lat":24.425830999999999,"lon":118.349998},"country":"TW","_id":1675247,"name":"Xiguoshan"},{"coord":{"lat":40.433959999999999,"lon":122.31321},"country":"CN","_id":2033854,"name":"Xihai"},{"coord":{"lat":40.014690000000002,"lon":113.23996699999999},"country":"CN","_id":2033853,"name":"Xihanling"},{"coord":{"lat":31.686358999999999,"lon":113.465851},"country":"CN","_id":1789462,"name":"Xihe"},{"coord":{"lat":30.991751000000001,"lon":118.47466300000001},"country":"CN","_id":1789463,"name":"Xihe"},{"coord":{"lat":31.008430000000001,"lon":114.009598},"country":"CN","_id":7653982,"name":"Xihe"},{"coord":{"lat":31.443020000000001,"lon":118.34893},"country":"CN","_id":7060470,"name":"Xiheshan"},{"coord":{"lat":29.849488999999998,"lon":117.179176},"country":"CN","_id":1789428,"name":"Xihu"},{"coord":{"lat":33.783329000000002,"lon":114.51667},"country":"CN","_id":1789427,"name":"Xihua"},{"coord":{"lat":33.525748999999998,"lon":105.918541},"country":"CN","_id":1789425,"name":"Xihuaiba"},{"coord":{"lat":33.781979,"lon":105.276268},"country":"CN","_id":7352543,"name":"Xiji"},{"coord":{"lat":35.808601000000003,"lon":111.32521800000001},"country":"CN","_id":1789410,"name":"Xijia"},{"coord":{"lat":25.837311,"lon":115.780563},"country":"CN","_id":1789404,"name":"Xijiang"},{"coord":{"lat":24.75882,"lon":112.593712},"country":"CN","_id":1789405,"name":"Xijiang"},{"coord":{"lat":34.565899000000002,"lon":104.00340300000001},"country":"CN","_id":7446294,"name":"Xijiang"},{"coord":{"lat":36.009579000000002,"lon":106.276138},"country":"CN","_id":1789399,"name":"Xijiao"},{"coord":{"lat":39.462952000000001,"lon":112.44767},"country":"CN","_id":7508990,"name":"Xijiazhai"},{"coord":{"lat":34.048560999999999,"lon":109.818161},"country":"CN","_id":1910348,"name":"Xijing"},{"coord":{"lat":29.432699,"lon":118.31527699999999},"country":"CN","_id":1905307,"name":"Xikengkou"},{"coord":{"lat":29.68524,"lon":121.274406},"country":"CN","_id":1789355,"name":"Xikou"},{"coord":{"lat":29.686260000000001,"lon":118.00952100000001},"country":"CN","_id":1789356,"name":"Xikou"},{"coord":{"lat":29.225639000000001,"lon":110.758202},"country":"CN","_id":1789357,"name":"Xikou"},{"coord":{"lat":29.163119999999999,"lon":114.37576300000001},"country":"CN","_id":1789358,"name":"Xikou"},{"coord":{"lat":26.845559999999999,"lon":116.832329},"country":"CN","_id":1789362,"name":"Xikou"},{"coord":{"lat":25.064150000000001,"lon":116.67504099999999},"country":"CN","_id":1921721,"name":"Xikou"},{"coord":{"lat":29.146239999999999,"lon":118.497147},"country":"CN","_id":7090494,"name":"Xikou"},{"coord":{"lat":40.983330000000002,"lon":25.41667},"country":"GR","_id":733831,"name":"Xilagani"},{"coord":{"lat":32.118487999999999,"lon":120.427567},"country":"CN","_id":1789345,"name":"Xilai"},{"coord":{"lat":40.223258999999999,"lon":122.145149},"country":"CN","_id":2053179,"name":"Xilanqi"},{"coord":{"lat":29.679179999999999,"lon":110.7286},"country":"CN","_id":7050615,"name":"Xilian"},{"coord":{"lat":37.078330999999999,"lon":115.941391},"country":"CN","_id":1901233,"name":"Xiliguantun"},{"coord":{"lat":43.966670999999998,"lon":116.033333},"country":"CN","_id":2033824,"name":"Xilin Hot"},{"coord":{"lat":26.814440000000001,"lon":119.047218},"country":"CN","_id":1789329,"name":"Xiling"},{"coord":{"lat":30.716061,"lon":111.283897},"country":"CN","_id":6642273,"name":"Xiling"},{"coord":{"lat":42.836472000000001,"lon":129.158051},"country":"CN","_id":2033826,"name":"Xilinhe"},{"coord":{"lat":52.990631,"lon":123.23522199999999},"country":"CN","_id":6958004,"name":"Xilinji"},{"coord":{"lat":21.33333,"lon":-98.966667000000001},"country":"MX","_id":3514502,"name":"Xilitla"},{"coord":{"lat":39.683182000000002,"lon":113.54083300000001},"country":"CN","_id":1789318,"name":"Xiliu"},{"coord":{"lat":34.150280000000002,"lon":108.791107},"country":"CN","_id":1910225,"name":"Xiliu"},{"coord":{"lat":40.848579000000001,"lon":122.624168},"country":"CN","_id":2033819,"name":"Xiliu"},{"coord":{"lat":39.430118999999998,"lon":49.101661999999997},"country":"AZ","_id":147784,"name":"Xilli"},{"coord":{"lat":24.420860000000001,"lon":103.177261},"country":"CN","_id":6825080,"name":"Xilong"},{"coord":{"lat":40.927132,"lon":23.17944},"country":"GR","_id":733828,"name":"Xilopolis"},{"coord":{"lat":19.266670000000001,"lon":-98.199996999999996},"country":"MX","_id":3516763,"name":"Xiloxoxtla"},{"coord":{"lat":23.381139999999998,"lon":116.50453899999999},"country":"CN","_id":1919742,"name":"Xilu"},{"coord":{"lat":29.408660999999999,"lon":109.466469},"country":"CN","_id":1927931,"name":"Xiluo"},{"coord":{"lat":28.20063,"lon":103.58226000000001},"country":"CN","_id":1805565,"name":"Xiluodu"},{"coord":{"lat":30.47052,"lon":115.47421300000001},"country":"CN","_id":1789300,"name":"Xima"},{"coord":{"lat":38.663798999999997,"lon":112.01709700000001},"country":"CN","_id":1789298,"name":"Ximafang"},{"coord":{"lat":24.963889999999999,"lon":118.37944},"country":"CN","_id":1789289,"name":"Ximei"},{"coord":{"lat":28.91235,"lon":110.00685900000001},"country":"CN","_id":8016493,"name":"Ximi"},{"coord":{"lat":30.741679999999999,"lon":119.584549},"country":"CN","_id":1919224,"name":"Ximu"},{"coord":{"lat":40.699699000000003,"lon":122.907433},"country":"CN","_id":2033808,"name":"Ximu"},{"coord":{"lat":42.237499,"lon":113.836388},"country":"CN","_id":2033791,"name":"Xin Bulag"},{"coord":{"lat":29.887550000000001,"lon":117.28037999999999},"country":"CN","_id":1789234,"name":"Xinan"},{"coord":{"lat":31.797858999999999,"lon":121.78085299999999},"country":"CN","_id":1789237,"name":"Xinan"},{"coord":{"lat":32.437987999999997,"lon":118.40888200000001},"country":"CN","_id":1789265,"name":"Xinan"},{"coord":{"lat":29.649999999999999,"lon":111.5},"country":"CN","_id":1789269,"name":"Xinan"},{"coord":{"lat":26.719999000000001,"lon":119.85556},"country":"CN","_id":1789271,"name":"Xinan"},{"coord":{"lat":23.120858999999999,"lon":115.19090300000001},"country":"CN","_id":1789274,"name":"Xinan"},{"coord":{"lat":33.445881,"lon":113.678589},"country":"CN","_id":1910117,"name":"Xinan"},{"coord":{"lat":23.064509999999999,"lon":115.546768},"country":"CN","_id":1919852,"name":"Xinan"},{"coord":{"lat":23.550529000000001,"lon":116.810669},"country":"CN","_id":1998143,"name":"Xinan"},{"coord":{"lat":23.154461000000001,"lon":112.89344},"country":"CN","_id":6920719,"name":"Xinan"},{"coord":{"lat":30.533729999999998,"lon":120.21904000000001},"country":"CN","_id":7735123,"name":"Xinan"},{"coord":{"lat":28.267009999999999,"lon":117.59429900000001},"country":"CN","_id":1924204,"name":"Xinanbu"},{"coord":{"lat":34.440280999999999,"lon":119.131111},"country":"CN","_id":1789229,"name":"Xinba"},{"coord":{"lat":30.934669,"lon":121.06147},"country":"CN","_id":1789228,"name":"Xinbang"},{"coord":{"lat":34.574181000000003,"lon":103.615303},"country":"CN","_id":1789227,"name":"Xinbao"},{"coord":{"lat":24.157900000000001,"lon":115.688293},"country":"CN","_id":1919448,"name":"Xinbei"},{"coord":{"lat":25.873830999999999,"lon":115.347572},"country":"CN","_id":1923470,"name":"Xinbei"},{"coord":{"lat":38.604999999999997,"lon":111.93910200000001},"country":"CN","_id":1789219,"name":"Xinbu"},{"coord":{"lat":34.985988999999996,"lon":108.086456},"country":"CN","_id":1789218,"name":"Xinbuzi"},{"coord":{"lat":30.73151,"lon":121.175774},"country":"CN","_id":1789213,"name":"Xincang"},{"coord":{"lat":29.074209,"lon":118.58978999999999},"country":"CN","_id":1916734,"name":"Xinchang"},{"coord":{"lat":29.258101,"lon":109.730453},"country":"CN","_id":1927940,"name":"Xinchang"},{"coord":{"lat":29.505279999999999,"lon":120.90016900000001},"country":"CN","_id":1789201,"name":"Xinchang Chengguanzhen"},{"coord":{"lat":29.445409999999999,"lon":109.647476},"country":"CN","_id":1927927,"name":"Xinchangao"},{"coord":{"lat":25.414439999999999,"lon":111.492783},"country":"CN","_id":6422373,"name":"Xinche"},{"coord":{"lat":24.033339999999999,"lon":121.605988},"country":"TW","_id":6643057,"name":"Xincheng"},{"coord":{"lat":22.700140000000001,"lon":112.224068},"country":"CN","_id":1788567,"name":"Xincheng"},{"coord":{"lat":35.299999,"lon":111.664169},"country":"CN","_id":1789180,"name":"Xincheng"},{"coord":{"lat":34.674309000000001,"lon":103.5868},"country":"CN","_id":1789181,"name":"Xincheng"},{"coord":{"lat":28.01512,"lon":102.842331},"country":"CN","_id":1789186,"name":"Xincheng"},{"coord":{"lat":35.875,"lon":111.43528000000001},"country":"CN","_id":1795437,"name":"Xincheng"},{"coord":{"lat":39.986770999999997,"lon":112.461349},"country":"CN","_id":1804009,"name":"Xincheng"},{"coord":{"lat":29.462070000000001,"lon":109.45826},"country":"CN","_id":1927926,"name":"Xincheng"},{"coord":{"lat":34.263210000000001,"lon":108.949539},"country":"CN","_id":7063962,"name":"Xincheng"},{"coord":{"lat":24.086130000000001,"lon":108.65261099999999},"country":"CN","_id":1789190,"name":"Xincheng Chengguanzhen"},{"coord":{"lat":31.388639000000001,"lon":121.263046},"country":"CN","_id":7845524,"name":"Xinchenglu"},{"coord":{"lat":38.266669999999998,"lon":114.68332700000001},"country":"CN","_id":1789166,"name":"Xinchengpu"},{"coord":{"lat":34.016627999999997,"lon":104.442261},"country":"CN","_id":7326317,"name":"Xinchengzi"},{"coord":{"lat":30.774740000000001,"lon":114.815437},"country":"CN","_id":1789161,"name":"Xinchong"},{"coord":{"lat":18.416121,"lon":109.963959},"country":"CN","_id":1789159,"name":"Xincun"},{"coord":{"lat":30.823029999999999,"lon":121.08242799999999},"country":"CN","_id":1789143,"name":"Xindai"},{"coord":{"lat":29.975280999999999,"lon":119.726669},"country":"CN","_id":1789139,"name":"Xindeng"},{"coord":{"lat":29.816669000000001,"lon":113.466667},"country":"CN","_id":1789137,"name":"Xindi"},{"coord":{"lat":36.797500999999997,"lon":118.29444100000001},"country":"CN","_id":1789118,"name":"Xindian"},{"coord":{"lat":33.413589000000002,"lon":113.37209300000001},"country":"CN","_id":1789124,"name":"Xindian"},{"coord":{"lat":32.268608,"lon":120.916481},"country":"CN","_id":1789127,"name":"Xindian"},{"coord":{"lat":26.130600000000001,"lon":119.30687},"country":"CN","_id":1789132,"name":"Xindian"},{"coord":{"lat":24.593769000000002,"lon":118.241051},"country":"CN","_id":1789134,"name":"Xindian"},{"coord":{"lat":33.618487999999999,"lon":113.85045599999999},"country":"CN","_id":1813303,"name":"Xindian"},{"coord":{"lat":35.352218999999998,"lon":105.518066},"country":"CN","_id":1899301,"name":"Xindian"},{"coord":{"lat":45.917960999999998,"lon":127.825981},"country":"CN","_id":2033781,"name":"Xindian"},{"coord":{"lat":40.092979,"lon":123.123688},"country":"CN","_id":2033782,"name":"Xindian"},{"coord":{"lat":30.306459,"lon":120.17272199999999},"country":"CN","_id":7735235,"name":"Xindong"},{"coord":{"lat":31.395869999999999,"lon":100.67778},"country":"CN","_id":1789098,"name":"Xindou"},{"coord":{"lat":33.341670999999998,"lon":120.133331},"country":"CN","_id":1547621,"name":"Xindu"},{"coord":{"lat":30.822358999999999,"lon":104.157417},"country":"CN","_id":1789095,"name":"Xindu"},{"coord":{"lat":28.830708999999999,"lon":104.32077},"country":"CN","_id":6924979,"name":"Xinfa"},{"coord":{"lat":27.700469999999999,"lon":114.469917},"country":"CN","_id":1789088,"name":"Xinfang"},{"coord":{"lat":41.555160999999998,"lon":127.360382},"country":"CN","_id":2052323,"name":"Xinfangzi"},{"coord":{"lat":30.504190000000001,"lon":118.077782},"country":"CN","_id":1553878,"name":"Xinfeng"},{"coord":{"lat":34.426639999999999,"lon":109.26364100000001},"country":"CN","_id":1789068,"name":"Xinfeng"},{"coord":{"lat":33.268310999999997,"lon":120.45356},"country":"CN","_id":1789075,"name":"Xinfeng"},{"coord":{"lat":30.709,"lon":120.91835},"country":"CN","_id":1789079,"name":"Xinfeng"},{"coord":{"lat":27.108899999999998,"lon":116.21315800000001},"country":"CN","_id":1789081,"name":"Xinfeng"},{"coord":{"lat":27.4268,"lon":116.589333},"country":"CN","_id":1789080,"name":"Xinfengjie"},{"coord":{"lat":25.61964,"lon":110.64247899999999},"country":"CN","_id":1789066,"name":"Xingan"},{"coord":{"lat":29.754200000000001,"lon":116.09721399999999},"country":"CN","_id":1789062,"name":"Xingang"},{"coord":{"lat":23.784300000000002,"lon":114.633011},"country":"CN","_id":1917061,"name":"Xingang"},{"coord":{"lat":31.720479999999998,"lon":120.927116},"country":"CN","_id":7844140,"name":"Xingang"},{"coord":{"lat":29.104859999999999,"lon":117.942978},"country":"CN","_id":7651294,"name":"Xingangshan"},{"coord":{"lat":39.026069999999997,"lon":112.961609},"country":"CN","_id":1789053,"name":"Xingao"},{"coord":{"lat":42.477950999999997,"lon":127.220451},"country":"CN","_id":2033724,"name":"Xingcan"},{"coord":{"lat":40.616669000000002,"lon":120.716667},"country":"CN","_id":2033766,"name":"Xingcheng"},{"coord":{"lat":32.039588999999999,"lon":118.435112},"country":"CN","_id":6957994,"name":"Xingdian"},{"coord":{"lat":32.082649000000004,"lon":120.968277},"country":"CN","_id":1885709,"name":"Xingdong"},{"coord":{"lat":26.11232,"lon":116.73384900000001},"country":"CN","_id":1818032,"name":"Xinggongxia"},{"coord":{"lat":34.858607999999997,"lon":105.66861},"country":"CN","_id":1789030,"name":"Xingguo"},{"coord":{"lat":29.922519999999999,"lon":115.30207799999999},"country":"CN","_id":1789031,"name":"Xingguo"},{"coord":{"lat":29.833749999999998,"lon":115.208656},"country":"CN","_id":7752468,"name":"Xingguo"},{"coord":{"lat":40.861590999999997,"lon":122.728088},"country":"CN","_id":7886729,"name":"Xinghai"},{"coord":{"lat":40.875560999999998,"lon":113.883888},"country":"CN","_id":2033759,"name":"Xinghe Chengguanzhen"},{"coord":{"lat":32.939171000000002,"lon":119.83416699999999},"country":"CN","_id":1784820,"name":"Xinghua"},{"coord":{"lat":34.080261,"lon":104.584023},"country":"CN","_id":7326325,"name":"Xinghua"},{"coord":{"lat":33.861511,"lon":106.361763},"country":"CN","_id":7407787,"name":"Xinghua"},{"coord":{"lat":48.014488,"lon":122.698387},"country":"CN","_id":8054803,"name":"Xinghua"},{"coord":{"lat":26.490950000000002,"lon":115.771767},"country":"CN","_id":7506701,"name":"Xingjiang"},{"coord":{"lat":29.084479999999999,"lon":118.299843},"country":"CN","_id":1789001,"name":"Xingkou"},{"coord":{"lat":34.344180999999999,"lon":107.99041699999999},"country":"CN","_id":1788997,"name":"Xinglin"},{"coord":{"lat":34.49371,"lon":109.760696},"country":"CN","_id":7048263,"name":"Xinglin"},{"coord":{"lat":35.703789,"lon":105.80989099999999},"country":"CN","_id":1788963,"name":"Xinglong"},{"coord":{"lat":31.713650000000001,"lon":113.610641},"country":"CN","_id":1788981,"name":"Xinglong"},{"coord":{"lat":30.356911,"lon":118.34123200000001},"country":"CN","_id":1788985,"name":"Xinglong"},{"coord":{"lat":29.258410000000001,"lon":109.03713999999999},"country":"CN","_id":1788988,"name":"Xinglong"},{"coord":{"lat":34.038212000000001,"lon":105.344223},"country":"CN","_id":1908010,"name":"Xinglong"},{"coord":{"lat":34.648060000000001,"lon":108.69278},"country":"CN","_id":1910263,"name":"Xinglong"},{"coord":{"lat":34.124679999999998,"lon":108.81680299999999},"country":"CN","_id":1998326,"name":"Xinglong"},{"coord":{"lat":45.299999,"lon":126.900002},"country":"CN","_id":2033747,"name":"Xinglong"},{"coord":{"lat":42.261668999999998,"lon":127.38610799999999},"country":"CN","_id":2053105,"name":"Xinglong"},{"coord":{"lat":40.305939000000002,"lon":123.285492},"country":"CN","_id":7404455,"name":"Xinglong"},{"coord":{"lat":29.454981,"lon":109.53016700000001},"country":"CN","_id":1941088,"name":"Xinglongjie"},{"coord":{"lat":43.956108,"lon":125.46611},"country":"CN","_id":2033739,"name":"Xinglongshan"},{"coord":{"lat":32.247849000000002,"lon":106.971329},"country":"CN","_id":7020074,"name":"Xingma"},{"coord":{"lat":49.290309999999998,"lon":120.706093},"country":"CN","_id":8054801,"name":"Xingong"},{"coord":{"lat":30.131789999999999,"lon":112.95291899999999},"country":"CN","_id":1788955,"name":"Xingou"},{"coord":{"lat":35.841251,"lon":105.660309},"country":"CN","_id":1788948,"name":"Xingping"},{"coord":{"lat":34.299999,"lon":108.48693799999999},"country":"CN","_id":1788949,"name":"Xingping"},{"coord":{"lat":27.140169,"lon":114.87426000000001},"country":"CN","_id":7658285,"name":"Xingqiao"},{"coord":{"lat":30.399429000000001,"lon":120.25170900000001},"country":"CN","_id":7735165,"name":"Xingqiao"},{"coord":{"lat":32.066249999999997,"lon":120.93789700000001},"country":"CN","_id":1788941,"name":"Xingren"},{"coord":{"lat":28.239719000000001,"lon":113.087784},"country":"CN","_id":1927332,"name":"Xingsha"},{"coord":{"lat":35.450001,"lon":106.33332799999999},"country":"CN","_id":1788933,"name":"Xingsheng"},{"coord":{"lat":37.063060999999998,"lon":114.49417099999999},"country":"CN","_id":1788927,"name":"Xingtai"},{"coord":{"lat":32.686110999999997,"lon":120.074997},"country":"CN","_id":1548555,"name":"Xingtai"},{"coord":{"lat":27.5,"lon":118.06667299999999},"country":"CN","_id":1788919,"name":"Xingtian"},{"coord":{"lat":39.455269000000001,"lon":111.530006},"country":"CN","_id":1798889,"name":"Xinguan"},{"coord":{"lat":29.619689999999999,"lon":111.307327},"country":"CN","_id":1928145,"name":"Xinguan"},{"coord":{"lat":23.704981,"lon":117.190712},"country":"CN","_id":1917867,"name":"Xingxi"},{"coord":{"lat":39.169269999999997,"lon":113.268837},"country":"CN","_id":7520383,"name":"Xingyuan"},{"coord":{"lat":34.405231000000001,"lon":109.19692999999999},"country":"CN","_id":2001738,"name":"Xingzhe"},{"coord":{"lat":34.932170999999997,"lon":109.44873800000001},"country":"CN","_id":1788932,"name":"Xingzhen"},{"coord":{"lat":25.001380999999999,"lon":112.554001},"country":"CN","_id":1788899,"name":"Xingzi"},{"coord":{"lat":31.073059000000001,"lon":119.556961},"country":"CN","_id":1552510,"name":"Xinhang"},{"coord":{"lat":31.98358,"lon":121.34687},"country":"CN","_id":1788879,"name":"Xinhe"},{"coord":{"lat":34.419041,"lon":109.099739},"country":"CN","_id":1998313,"name":"Xinhe"},{"coord":{"lat":29.61964,"lon":115.769058},"country":"CN","_id":7643671,"name":"Xinhe"},{"coord":{"lat":30.448231,"lon":118.039299},"country":"CN","_id":1553870,"name":"Xinhua"},{"coord":{"lat":26.888380000000002,"lon":102.933243},"country":"CN","_id":1788871,"name":"Xinhua"},{"coord":{"lat":23.643101000000001,"lon":105.65316799999999},"country":"CN","_id":1788875,"name":"Xinhua"},{"coord":{"lat":30.621210000000001,"lon":120.91486399999999},"country":"CN","_id":1788862,"name":"Xinhuang"},{"coord":{"lat":27.37359,"lon":109.133759},"country":"CN","_id":1788863,"name":"Xinhuang"},{"coord":{"lat":28.713539000000001,"lon":117.60137899999999},"country":"CN","_id":7064799,"name":"Xinhuang"},{"coord":{"lat":22.455998999999998,"lon":113.048203},"country":"CN","_id":1806882,"name":"Xinhui"},{"coord":{"lat":42.28389,"lon":119.898331},"country":"CN","_id":2033707,"name":"Xinhui"},{"coord":{"lat":36.616669000000002,"lon":101.76667},"country":"CN","_id":1788852,"name":"Xining"},{"coord":{"lat":24.164190000000001,"lon":113.11077899999999},"country":"CN","_id":1788849,"name":"Xiniu"},{"coord":{"lat":37.902779000000002,"lon":115.203613},"country":"CN","_id":1788816,"name":"Xinji"},{"coord":{"lat":33.789299,"lon":113.000252},"country":"CN","_id":1788830,"name":"Xinji"},{"coord":{"lat":33.00806,"lon":106.82111399999999},"country":"CN","_id":1788836,"name":"Xinji"},{"coord":{"lat":26.338079,"lon":116.555153},"country":"CN","_id":1805912,"name":"Xinji"},{"coord":{"lat":35.876998999999998,"lon":102.839546},"country":"CN","_id":7413516,"name":"Xinjia"},{"coord":{"lat":34.305500000000002,"lon":108.988319},"country":"CN","_id":7063941,"name":"Xinjiamiao"},{"coord":{"lat":29.124980999999998,"lon":117.934853},"country":"CN","_id":1788807,"name":"Xinjian"},{"coord":{"lat":40.850287999999999,"lon":122.359123},"country":"CN","_id":7886741,"name":"Xinjian"},{"coord":{"lat":24.466669,"lon":113.83332799999999},"country":"CN","_id":1788802,"name":"Xinjiang"},{"coord":{"lat":42.569172000000002,"lon":85.456108},"country":"CN","_id":1529047,"name":"Xinjiang Uygur Zizhiqu"},{"coord":{"lat":39.753239000000001,"lon":112.985832},"country":"CN","_id":1788793,"name":"Xinjiayuan"},{"coord":{"lat":32.336551999999998,"lon":120.110168},"country":"CN","_id":1799406,"name":"Xinjie"},{"coord":{"lat":32.679530999999997,"lon":120.773422},"country":"CN","_id":1885912,"name":"Xinjie"},{"coord":{"lat":24.744489999999999,"lon":102.721062},"country":"CN","_id":6824405,"name":"Xinjie"},{"coord":{"lat":31.818541,"lon":113.211761},"country":"CN","_id":7653979,"name":"Xinjie"},{"coord":{"lat":30.19183,"lon":120.33306899999999},"country":"CN","_id":7735241,"name":"Xinjie"},{"coord":{"lat":28.225981000000001,"lon":115.05740400000001},"country":"CN","_id":1805906,"name":"Xinjiebu"},{"coord":{"lat":28.232651000000001,"lon":115.40840900000001},"country":"CN","_id":7328942,"name":"Xinjiezhen"},{"coord":{"lat":24.616879999999998,"lon":102.18203699999999},"country":"CN","_id":6824148,"name":"Xinjiezi"},{"coord":{"lat":33.160919,"lon":106.825058},"country":"CN","_id":7408353,"name":"Xinjiezi"},{"coord":{"lat":23.20252,"lon":106.38207199999999},"country":"CN","_id":1788772,"name":"Xinjing"},{"coord":{"lat":31.909990000000001,"lon":120.939728},"country":"CN","_id":1788763,"name":"Xinkai"},{"coord":{"lat":29.812460000000002,"lon":115.810463},"country":"CN","_id":7644500,"name":"Xinkai"},{"coord":{"lat":39.678890000000003,"lon":117.19027699999999},"country":"CN","_id":1788760,"name":"Xinkaikou"},{"coord":{"lat":39.844169999999998,"lon":108.734718},"country":"CN","_id":1789278,"name":"Xinli"},{"coord":{"lat":39.084721000000002,"lon":117.33556400000001},"country":"CN","_id":1788747,"name":"Xinlicun"},{"coord":{"lat":31.025299,"lon":110.318161},"country":"CN","_id":1788745,"name":"Xinling"},{"coord":{"lat":25.200001,"lon":114.599998},"country":"CN","_id":1788736,"name":"Xinlong"},{"coord":{"lat":25.786670999999998,"lon":112.35083},"country":"CN","_id":6422100,"name":"Xinlong"},{"coord":{"lat":25.145149,"lon":115.326767},"country":"CN","_id":7650840,"name":"Xinlong"},{"coord":{"lat":29.751840999999999,"lon":118.723778},"country":"CN","_id":1805879,"name":"Xinmen"},{"coord":{"lat":29.239920000000001,"lon":102.372078},"country":"CN","_id":1788730,"name":"Xinmian"},{"coord":{"lat":30.387858999999999,"lon":114.926064},"country":"CN","_id":7905356,"name":"Xinmiao"},{"coord":{"lat":29.401070000000001,"lon":104.777428},"country":"CN","_id":6921472,"name":"Xinmin"},{"coord":{"lat":41.990828999999998,"lon":122.82527899999999},"country":"CN","_id":2033675,"name":"Xinmin"},{"coord":{"lat":30.335999999999999,"lon":118.244247},"country":"CN","_id":1553849,"name":"Xinming"},{"coord":{"lat":28.933250000000001,"lon":115.558289},"country":"CN","_id":7328936,"name":"Xinminxiang"},{"coord":{"lat":29.23922,"lon":115.09736599999999},"country":"CN","_id":1788707,"name":"Xinning"},{"coord":{"lat":22.670798999999999,"lon":107.889122},"country":"CN","_id":1788708,"name":"Xinning"},{"coord":{"lat":31.085149999999999,"lon":107.865082},"country":"CN","_id":1804869,"name":"Xinning"},{"coord":{"lat":40.683331000000003,"lon":21.616671},"country":"GR","_id":733827,"name":"Xinon Neron"},{"coord":{"lat":39.617550000000001,"lon":113.52934999999999},"country":"CN","_id":1788701,"name":"Xinpeicun"},{"coord":{"lat":19.771650000000001,"lon":110.36546300000001},"country":"CN","_id":1894017,"name":"Xinpo"},{"coord":{"lat":34.599719999999998,"lon":119.15943900000001},"country":"CN","_id":1788694,"name":"Xinpu"},{"coord":{"lat":30.243670000000002,"lon":121.364189},"country":"CN","_id":1788691,"name":"Xinpu"},{"coord":{"lat":33.099997999999999,"lon":106.449997},"country":"CN","_id":1788696,"name":"Xinpu"},{"coord":{"lat":29.681350999999999,"lon":111.378151},"country":"CN","_id":1788697,"name":"Xinpu"},{"coord":{"lat":31.065000999999999,"lon":121.307503},"country":"CN","_id":1788669,"name":"Xinqiao"},{"coord":{"lat":29.18947,"lon":110.506218},"country":"CN","_id":1788673,"name":"Xinqiao"},{"coord":{"lat":25.880960000000002,"lon":116.45163700000001},"country":"CN","_id":1788680,"name":"Xinqiao"},{"coord":{"lat":29.317779999999999,"lon":121.861671},"country":"CN","_id":1887681,"name":"Xinqiao"},{"coord":{"lat":31.802509000000001,"lon":120.504784},"country":"CN","_id":1898446,"name":"Xinqiao"},{"coord":{"lat":30.250830000000001,"lon":118.931938},"country":"CN","_id":1919031,"name":"Xinqiao"},{"coord":{"lat":32.945701999999997,"lon":120.793358},"country":"CN","_id":7527663,"name":"Xinqiao"},{"coord":{"lat":48.233330000000002,"lon":129.5},"country":"CN","_id":2033667,"name":"Xinqing"},{"coord":{"lat":25.35483,"lon":116.61209100000001},"country":"CN","_id":1788657,"name":"Xinquan"},{"coord":{"lat":27.521730000000002,"lon":114.069267},"country":"CN","_id":7658381,"name":"Xinquan"},{"coord":{"lat":40.266669999999998,"lon":113.150002},"country":"CN","_id":2033665,"name":"Xinrong"},{"coord":{"lat":25.137319999999999,"lon":115.387199},"country":"CN","_id":1788652,"name":"Xinshan"},{"coord":{"lat":36.354869999999998,"lon":106.378593},"country":"CN","_id":7516122,"name":"Xinshan"},{"coord":{"lat":24.808928999999999,"lon":113.606911},"country":"CN","_id":8235911,"name":"Xinshao"},{"coord":{"lat":29.76333,"lon":112.875832},"country":"CN","_id":1927826,"name":"Xinshazhou"},{"coord":{"lat":31.047041,"lon":113.140984},"country":"CN","_id":1788638,"name":"Xinshi"},{"coord":{"lat":34.572578,"lon":109.52469600000001},"country":"CN","_id":1788632,"name":"Xinshi"},{"coord":{"lat":31.576730999999999,"lon":118.732941},"country":"CN","_id":1788636,"name":"Xinshi"},{"coord":{"lat":30.617380000000001,"lon":120.28407300000001},"country":"CN","_id":1788640,"name":"Xinshi"},{"coord":{"lat":34.538342,"lon":109.180054},"country":"CN","_id":1910306,"name":"Xinshi"},{"coord":{"lat":26.24859,"lon":116.51419799999999},"country":"CN","_id":1922338,"name":"Xinshi"},{"coord":{"lat":34.439720000000001,"lon":108.422218},"country":"CN","_id":1998768,"name":"Xinshi"},{"coord":{"lat":28.970908999999999,"lon":102.771263},"country":"CN","_id":1788630,"name":"Xinshiba"},{"coord":{"lat":29.279859999999999,"lon":120.80674},"country":"CN","_id":1806810,"name":"Xinshichang"},{"coord":{"lat":29.323668999999999,"lon":120.83936300000001},"country":"CN","_id":1918793,"name":"Xinshichang"},{"coord":{"lat":36.478389999999997,"lon":110.755219},"country":"CN","_id":1813839,"name":"Xinshui"},{"coord":{"lat":34.649559000000004,"lon":104.62988300000001},"country":"CN","_id":7517296,"name":"Xinsi Zhen"},{"coord":{"lat":35.900557999999997,"lon":117.751938},"country":"CN","_id":1788618,"name":"Xintai"},{"coord":{"lat":40.834640999999998,"lon":120.41780900000001},"country":"CN","_id":2033661,"name":"Xintaimen"},{"coord":{"lat":29.736098999999999,"lon":118.28085299999999},"country":"CN","_id":1553369,"name":"Xintan"},{"coord":{"lat":28.333179000000001,"lon":117.679413},"country":"CN","_id":7064803,"name":"Xintan"},{"coord":{"lat":29.618790000000001,"lon":115.713577},"country":"CN","_id":1788606,"name":"Xintang"},{"coord":{"lat":23.122378999999999,"lon":113.60916899999999},"country":"CN","_id":1788611,"name":"Xintang"},{"coord":{"lat":23.94323,"lon":116.784958},"country":"CN","_id":1919511,"name":"Xintang"},{"coord":{"lat":30.150700000000001,"lon":120.304337},"country":"CN","_id":7735416,"name":"Xintang"},{"coord":{"lat":28.621611000000001,"lon":118.45152299999999},"country":"CN","_id":1918314,"name":"Xintangbian"},{"coord":{"lat":30.755310000000001,"lon":118.76947},"country":"CN","_id":1788593,"name":"Xintian"},{"coord":{"lat":27.824949,"lon":114.258003},"country":"CN","_id":1788600,"name":"Xintian"},{"coord":{"lat":25.361771000000001,"lon":115.24550600000001},"country":"CN","_id":1788602,"name":"Xintian"},{"coord":{"lat":35.613579000000001,"lon":111.35659800000001},"country":"CN","_id":1807818,"name":"Xintian"},{"coord":{"lat":23.188210000000002,"lon":115.548851},"country":"CN","_id":1919816,"name":"Xintian"},{"coord":{"lat":29.906638999999998,"lon":119.81474300000001},"country":"CN","_id":7685749,"name":"Xintong"},{"coord":{"lat":30.278891000000002,"lon":120.538567},"country":"CN","_id":1881852,"name":"Xinwan"},{"coord":{"lat":22.786619000000002,"lon":113.66799899999999},"country":"CN","_id":1913172,"name":"Xinwan"},{"coord":{"lat":29.19331,"lon":114.453529},"country":"CN","_id":7745040,"name":"Xinwan"},{"coord":{"lat":19.649360999999999,"lon":110.187431},"country":"CN","_id":1913863,"name":"Xinwu"},{"coord":{"lat":23.401278999999999,"lon":116.76692199999999},"country":"CN","_id":1919732,"name":"Xinxi"},{"coord":{"lat":27.8687,"lon":115.32666},"country":"CN","_id":7685359,"name":"Xinxi"},{"coord":{"lat":29.904819,"lon":117.81922900000001},"country":"CN","_id":7652402,"name":"Xinxi Wudui"},{"coord":{"lat":35.308891000000003,"lon":113.86721799999999},"country":"CN","_id":1788572,"name":"Xinxiang"},{"coord":{"lat":42.064720000000001,"lon":127.35582700000001},"country":"CN","_id":2053099,"name":"Xinxigang"},{"coord":{"lat":34.775557999999997,"lon":108.885002},"country":"CN","_id":1788563,"name":"Xinxing"},{"coord":{"lat":19.51099,"lon":110.175972},"country":"CN","_id":1788568,"name":"Xinxing"},{"coord":{"lat":28.95722,"lon":111.823318},"country":"CN","_id":1928510,"name":"Xinxing"},{"coord":{"lat":34.666882000000001,"lon":109.274361},"country":"CN","_id":1998292,"name":"Xinxing"},{"coord":{"lat":40.718409999999999,"lon":122.256241},"country":"CN","_id":7885594,"name":"Xinxing"},{"coord":{"lat":26.906361,"lon":115.13436900000001},"country":"CN","_id":1788537,"name":"Xinxu"},{"coord":{"lat":24.054859,"lon":115.86354799999999},"country":"CN","_id":1788548,"name":"Xinxu"},{"coord":{"lat":23.80555,"lon":116.940697},"country":"CN","_id":1919564,"name":"Xinxu"},{"coord":{"lat":25.802779999999998,"lon":112.269722},"country":"CN","_id":6422115,"name":"Xinxu"},{"coord":{"lat":25.421939999999999,"lon":112.37249799999999},"country":"CN","_id":6422308,"name":"Xinxu"},{"coord":{"lat":32.122779999999999,"lon":114.06555899999999},"country":"CN","_id":1788534,"name":"Xinyang"},{"coord":{"lat":34.482940999999997,"lon":108.140518},"country":"CN","_id":1998417,"name":"Xinyang"},{"coord":{"lat":32.518608,"lon":112.35221900000001},"country":"CN","_id":1788522,"name":"Xinye"},{"coord":{"lat":22.37303,"lon":110.947456},"country":"CN","_id":1812057,"name":"Xinyi"},{"coord":{"lat":34.569538000000001,"lon":109.59966300000001},"country":"CN","_id":1788520,"name":"Xinyi"},{"coord":{"lat":19.892949999999999,"lon":109.52533699999999},"country":"CN","_id":1788516,"name":"Xinying"},{"coord":{"lat":23.306940000000001,"lon":120.310562},"country":"TW","_id":1668353,"name":"Xinying"},{"coord":{"lat":27.804290999999999,"lon":114.93335},"country":"CN","_id":1788508,"name":"Xinyu"},{"coord":{"lat":37.299999,"lon":99},"country":"CN","_id":1279694,"name":"Xinyuan"},{"coord":{"lat":31.116658999999999,"lon":113.629349},"country":"CN","_id":7653974,"name":"Xinzha"},{"coord":{"lat":36.94276,"lon":107.947647},"country":"CN","_id":1788491,"name":"Xinzhai"},{"coord":{"lat":33.643870999999997,"lon":104.68386099999999},"country":"CN","_id":1788493,"name":"Xinzhai"},{"coord":{"lat":23.720479999999998,"lon":117.14865899999999},"country":"CN","_id":1917869,"name":"Xinzhai"},{"coord":{"lat":29.1343,"lon":109.8918},"country":"CN","_id":1941102,"name":"Xinzhaiping"},{"coord":{"lat":29.284780999999999,"lon":109.42244700000001},"country":"CN","_id":1927935,"name":"Xinzhaipo"},{"coord":{"lat":28.38833,"lon":106.856667},"country":"CN","_id":1788482,"name":"Xinzhan"},{"coord":{"lat":31.274909999999998,"lon":106.28713999999999},"country":"CN","_id":1788467,"name":"Xinzheng"},{"coord":{"lat":18.54298,"lon":109.62354999999999},"country":"CN","_id":1788468,"name":"Xinzheng"},{"coord":{"lat":36.498890000000003,"lon":111.70471999999999},"country":"CN","_id":1788462,"name":"Xinzhi"},{"coord":{"lat":27.694559000000002,"lon":114.682388},"country":"CN","_id":1788463,"name":"Xinzhi"},{"coord":{"lat":38.409168000000001,"lon":112.73333},"country":"CN","_id":1788450,"name":"Xinzhou"},{"coord":{"lat":30.866671,"lon":114.800003},"country":"CN","_id":1788452,"name":"Xinzhou"},{"coord":{"lat":29.555219999999998,"lon":111.881348},"country":"CN","_id":1788453,"name":"Xinzhou"},{"coord":{"lat":24.872339,"lon":105.351173},"country":"CN","_id":1788457,"name":"Xinzhou"},{"coord":{"lat":19.714459999999999,"lon":109.31146200000001},"country":"CN","_id":1788461,"name":"Xinzhou"},{"coord":{"lat":34.384880000000003,"lon":109.05542800000001},"country":"CN","_id":1788425,"name":"Xinzhu"},{"coord":{"lat":19.621580000000002,"lon":110.206497},"country":"CN","_id":1913862,"name":"Xinzhu"},{"coord":{"lat":31.535219000000001,"lon":120.692047},"country":"CN","_id":1898207,"name":"Xinzhuang"},{"coord":{"lat":39.020279000000002,"lon":117.323891},"country":"CN","_id":1941693,"name":"Xinzhuang"},{"coord":{"lat":34.559089999999998,"lon":109.671043},"country":"CN","_id":7048311,"name":"Xinzhuang"},{"coord":{"lat":28.458611000000001,"lon":115.079689},"country":"CN","_id":7757099,"name":"Xinzhuang"},{"coord":{"lat":42.018977999999997,"lon":-7.7007300000000001},"country":"ES","_id":6359850,"name":"Xinzo de Limia"},{"coord":{"lat":42.063499,"lon":-7.7245900000000001},"country":"ES","_id":3121404,"name":"Xinzo de Limia"},{"coord":{"lat":33.662478999999998,"lon":112.811798},"country":"CN","_id":1908957,"name":"Xiongbei"},{"coord":{"lat":33.405749999999998,"lon":105.33033},"country":"CN","_id":7372848,"name":"Xiongchi"},{"coord":{"lat":24.225451,"lon":102.801193},"country":"CN","_id":6824599,"name":"Xiongguan"},{"coord":{"lat":30.084240000000001,"lon":112.443062},"country":"CN","_id":1788414,"name":"Xionghe"},{"coord":{"lat":31.956389999999999,"lon":112.65471599999999},"country":"CN","_id":1788416,"name":"Xiongji"},{"coord":{"lat":30.306459,"lon":112.77526899999999},"country":"CN","_id":1788409,"name":"Xiongkou"},{"coord":{"lat":27.364388999999999,"lon":118.85710899999999},"country":"CN","_id":1788407,"name":"Xiongshan"},{"coord":{"lat":40.177368000000001,"lon":122.12284099999999},"country":"CN","_id":2033630,"name":"Xiongyue"},{"coord":{"lat":25.116671,"lon":114.300003},"country":"CN","_id":1788402,"name":"Xiongzhou"},{"coord":{"lat":40.039520000000003,"lon":113.604553},"country":"CN","_id":2033628,"name":"Xiping"},{"coord":{"lat":25.597839,"lon":103.79612},"country":"CN","_id":1784969,"name":"Xiping"},{"coord":{"lat":40.448211999999998,"lon":120.171494},"country":"CN","_id":2033627,"name":"Xipingpo"},{"coord":{"lat":33.847721,"lon":106.43038900000001},"country":"CN","_id":1899334,"name":"Xipo"},{"coord":{"lat":32.225760999999999,"lon":120.182182},"country":"CN","_id":7525339,"name":"Xiqiao"},{"coord":{"lat":26.572068999999999,"lon":118.109932},"country":"CN","_id":1788375,"name":"Xiqin"},{"coord":{"lat":26.605658999999999,"lon":101.598282},"country":"CN","_id":2038577,"name":"Xiqu"},{"coord":{"lat":34.407539,"lon":109.13858},"country":"CN","_id":1998312,"name":"Xiquan"},{"coord":{"lat":-10.821669999999999,"lon":-42.731110000000001},"country":"BR","_id":3444823,"name":"Xique Xique"},{"coord":{"lat":43.938889000000003,"lon":116.070213},"country":"CN","_id":8054802,"name":"Xiritala"},{"coord":{"lat":39.466079999999998,"lon":-0.42786999999999997},"country":"ES","_id":6361975,"name":"Xirivella"},{"coord":{"lat":39.465881000000003,"lon":-0.42588999999999999},"country":"ES","_id":2519466,"name":"Xirivella"},{"coord":{"lat":41.200001,"lon":24.100000000000001},"country":"GR","_id":733818,"name":"Xiropotamos"},{"coord":{"lat":23.450001,"lon":104.707748},"country":"CN","_id":1788365,"name":"Xisa"},{"coord":{"lat":40.352958999999998,"lon":120.349739},"country":"CN","_id":7401246,"name":"Xishan"},{"coord":{"lat":28.551660999999999,"lon":115.624786},"country":"CN","_id":1788351,"name":"Xishan"},{"coord":{"lat":25.685279999999999,"lon":108.96389000000001},"country":"CN","_id":1788352,"name":"Xishan"},{"coord":{"lat":24.269629999999999,"lon":114.42083700000001},"country":"CN","_id":1917215,"name":"Xishan"},{"coord":{"lat":40.707500000000003,"lon":108.64389},"country":"CN","_id":2033618,"name":"Xishanzui"},{"coord":{"lat":29.142569999999999,"lon":109.52829699999999},"country":"CN","_id":1927951,"name":"Xishaping"},{"coord":{"lat":32.805118999999998,"lon":106.91990699999999},"country":"CN","_id":1788330,"name":"Xishenba"},{"coord":{"lat":31.868891000000001,"lon":120.08833300000001},"country":"CN","_id":1788328,"name":"Xishiqiao"},{"coord":{"lat":19.211290000000002,"lon":109.55967699999999},"country":"CN","_id":1914700,"name":"Xishui"},{"coord":{"lat":39.663657999999998,"lon":112.233414},"country":"CN","_id":1788316,"name":"Xishuijie"},{"coord":{"lat":40.966282,"lon":122.449089},"country":"CN","_id":2033614,"name":"Xisi"},{"coord":{"lat":35.883780999999999,"lon":105.741608},"country":"CN","_id":1789376,"name":"Xitan"},{"coord":{"lat":30.947289999999999,"lon":120.88784800000001},"country":"CN","_id":1788297,"name":"Xitang"},{"coord":{"lat":30.608681000000001,"lon":120.982857},"country":"CN","_id":1788298,"name":"Xitangqiao"},{"coord":{"lat":39.314720000000001,"lon":117.479439},"country":"CN","_id":1788291,"name":"Xitangtuo"},{"coord":{"lat":30.26577,"lon":119.472229},"country":"CN","_id":7679668,"name":"Xitianmu"},{"coord":{"lat":37.283329000000002,"lon":95.516670000000005},"country":"CN","_id":1279690,"name":"Xitieshan"},{"coord":{"lat":32.124420000000001,"lon":121.003883},"country":"CN","_id":1788286,"name":"Xiting"},{"coord":{"lat":30.010529999999999,"lon":118.467308},"country":"CN","_id":1788280,"name":"Xitou"},{"coord":{"lat":29.454041,"lon":118.07942199999999},"country":"CN","_id":1788282,"name":"Xitou"},{"coord":{"lat":37.983330000000002,"lon":12.550000000000001},"country":"IT","_id":2522700,"name":"Xitta"},{"coord":{"lat":33.109538999999998,"lon":120.418289},"country":"CN","_id":1788274,"name":"Xituan"},{"coord":{"lat":43.195141,"lon":131.07257100000001},"country":"CN","_id":2038054,"name":"Xitumenzi"},{"coord":{"lat":24.264749999999999,"lon":114.850594},"country":"CN","_id":1917213,"name":"Xiuduan"},{"coord":{"lat":27.91132,"lon":116.77636699999999},"country":"CN","_id":1788269,"name":"Xiugu"},{"coord":{"lat":29.716669,"lon":112.400002},"country":"CN","_id":1788268,"name":"Xiulin"},{"coord":{"lat":29.513909999999999,"lon":111.625862},"country":"CN","_id":1798091,"name":"Xiumei"},{"coord":{"lat":24.109988999999999,"lon":102.761528},"country":"CN","_id":1788263,"name":"Xiushan"},{"coord":{"lat":30.189440000000001,"lon":122.168892},"country":"CN","_id":1898581,"name":"Xiushan"},{"coord":{"lat":28.000779999999999,"lon":115.926537},"country":"CN","_id":1788259,"name":"Xiushi"},{"coord":{"lat":38.103789999999996,"lon":113.388649},"country":"CN","_id":1785565,"name":"Xiushui"},{"coord":{"lat":25.172260000000001,"lon":112.998009},"country":"CN","_id":1917457,"name":"Xiushui"},{"coord":{"lat":40.292782000000003,"lon":123.27443700000001},"country":"CN","_id":2033602,"name":"Xiuyan"},{"coord":{"lat":31.216819999999998,"lon":107.47525},"country":"CN","_id":6962690,"name":"Xiwai"},{"coord":{"lat":34.287681999999997,"lon":109.05677},"country":"CN","_id":7048101,"name":"Xiwang"},{"coord":{"lat":27.893789000000002,"lon":115.703323},"country":"CN","_id":7685374,"name":"Xiwang"},{"coord":{"lat":40.97139,"lon":115.272499},"country":"CN","_id":2033595,"name":"Xiwanzi"},{"coord":{"lat":26.189810000000001,"lon":118.37426000000001},"country":"CN","_id":1788237,"name":"Xiwei"},{"coord":{"lat":34.297218000000001,"lon":108.566391},"country":"CN","_id":1788230,"name":"Xiwu"},{"coord":{"lat":29.90626,"lon":117.884567},"country":"CN","_id":1788231,"name":"Xiwu"},{"coord":{"lat":29.683219999999999,"lon":121.483521},"country":"CN","_id":1788232,"name":"Xiwu"},{"coord":{"lat":27.697220000000002,"lon":110.965828},"country":"CN","_id":1788224,"name":"Xixi"},{"coord":{"lat":22.988741000000001,"lon":116.158546},"country":"CN","_id":1916320,"name":"Xixi"},{"coord":{"lat":28.858549,"lon":115.843262},"country":"CN","_id":1925363,"name":"Xixia"},{"coord":{"lat":35.162781000000003,"lon":112.864998},"country":"CN","_id":1788206,"name":"Xixiang"},{"coord":{"lat":30.189109999999999,"lon":120.226692},"country":"CN","_id":1788192,"name":"Xixing"},{"coord":{"lat":26.616389999999999,"lon":110.47360999999999},"country":"CN","_id":1788156,"name":"Xiyan"},{"coord":{"lat":34.660331999999997,"lon":109.00852999999999},"country":"CN","_id":1788170,"name":"Xiyang"},{"coord":{"lat":24.463989000000002,"lon":102.290733},"country":"CN","_id":6824061,"name":"Xiyang"},{"coord":{"lat":27.190280999999999,"lon":110.82888800000001},"country":"CN","_id":1983231,"name":"Xiyangjiang"},{"coord":{"lat":29.216080000000002,"lon":116.423012},"country":"CN","_id":7636880,"name":"Xiyuan"},{"coord":{"lat":42.676029,"lon":122.88619199999999},"country":"CN","_id":7012545,"name":"Xizhahaqi"},{"coord":{"lat":34.684761000000002,"lon":110.050003},"country":"CN","_id":1788123,"name":"Xizhai"},{"coord":{"lat":34.493659999999998,"lon":103.80175},"country":"CN","_id":7343088,"name":"Xizhai"},{"coord":{"lat":34.505279999999999,"lon":108.56555899999999},"country":"CN","_id":1910248,"name":"Xizhangbao"},{"coord":{"lat":33.076729,"lon":105.35639999999999},"country":"CN","_id":7372472,"name":"Xizhi"},{"coord":{"lat":29.478888999999999,"lon":121.672783},"country":"CN","_id":1788102,"name":"Xizhou"},{"coord":{"lat":39.912970999999999,"lon":46.790278999999998},"country":"AZ","_id":147774,"name":"Xocali"},{"coord":{"lat":39.833328000000002,"lon":46.75},"country":"AZ","_id":148449,"name":"Xocalı Rayonu"},{"coord":{"lat":39.666671999999998,"lon":47},"country":"AZ","_id":409423,"name":"Xocavənd Rayonu"},{"coord":{"lat":17.91667,"lon":-98.433327000000006},"country":"MX","_id":3514454,"name":"Xochihuehuetlan"},{"coord":{"lat":19.262219999999999,"lon":-99.107498000000007},"country":"MX","_id":3514450,"name":"Xochimilco"},{"coord":{"lat":16.783331,"lon":-98.25},"country":"MX","_id":3514440,"name":"Xochistlahuaca"},{"coord":{"lat":18.783331,"lon":-99.233329999999995},"country":"MX","_id":3514437,"name":"Xochitepec"},{"coord":{"lat":18.700001,"lon":-97.783332999999999},"country":"MX","_id":3514433,"name":"Xochitlan"},{"coord":{"lat":19.033331,"lon":-97.099997999999999},"country":"MX","_id":3514424,"name":"Xocotla"},{"coord":{"lat":19.524999999999999,"lon":-98.849997999999999},"country":"MX","_id":3817701,"name":"Xocotlán"},{"coord":{"lat":27.902999999999999,"lon":91.903000000000006},"country":"CN","_id":8059273,"name":"Xoixar"},{"coord":{"lat":42.408810000000003,"lon":59.445438000000003},"country":"UZ","_id":829959,"name":"Xojayli Shahri"},{"coord":{"lat":19.649999999999999,"lon":-98.883330999999998},"country":"MX","_id":3514414,"name":"Xometla"},{"coord":{"lat":19.40222,"lon":-99.532500999999996},"country":"MX","_id":3514409,"name":"Xonacatlan"},{"coord":{"lat":48.083328000000002,"lon":6.9166699999999999},"country":"FR","_id":6445811,"name":"Xonrupt-Longemer"},{"coord":{"lat":48.082241000000003,"lon":6.9294399999999996},"country":"FR","_id":2967263,"name":"Xonrupt-Longemer"},{"coord":{"lat":41.5,"lon":60.5},"country":"UZ","_id":1484843,"name":"Xorazm Viloyati"},{"coord":{"lat":43.693747999999999,"lon":-7.5039800000000003},"country":"ES","_id":6359186,"name":"Xove"},{"coord":{"lat":43.686562000000002,"lon":-7.5113000000000003},"country":"ES","_id":3120114,"name":"Xove"},{"coord":{"lat":18.683330999999999,"lon":-99.25},"country":"MX","_id":3514398,"name":"Xoxocotla"},{"coord":{"lat":32.291671999999998,"lon":119.99722300000001},"country":"CN","_id":1788068,"name":"Xuanbao"},{"coord":{"lat":25.409500000000001,"lon":116.384102},"country":"CN","_id":1788082,"name":"Xuancheng"},{"coord":{"lat":27.696238999999998,"lon":114.11988100000001},"country":"CN","_id":1788075,"name":"Xuanfeng"},{"coord":{"lat":25.610469999999999,"lon":116.64093},"country":"CN","_id":1921645,"name":"Xuanhe"},{"coord":{"lat":40.610278999999998,"lon":115.044724},"country":"CN","_id":2033574,"name":"Xuanhua"},{"coord":{"lat":36.076949999999997,"lon":107.891251},"country":"CN","_id":7517945,"name":"Xuanma"},{"coord":{"lat":33.152648999999997,"lon":112.961952},"country":"CN","_id":1908871,"name":"Xuanqiao"},{"coord":{"lat":30.952499,"lon":118.75528},"country":"CN","_id":1788081,"name":"Xuanzhou"},{"coord":{"lat":26.279751000000001,"lon":117.63252300000001},"country":"CN","_id":1922347,"name":"Xubi"},{"coord":{"lat":29.464569000000001,"lon":116.31523900000001},"country":"CN","_id":1787943,"name":"Xubu"},{"coord":{"lat":40.027920000000002,"lon":113.74472799999999},"country":"CN","_id":2033570,"name":"Xubu"},{"coord":{"lat":34.016669999999998,"lon":113.81667299999999},"country":"CN","_id":1788046,"name":"Xuchang"},{"coord":{"lat":20.350000000000001,"lon":110.128838},"country":"CN","_id":1787837,"name":"Xucheng"},{"coord":{"lat":33.011108,"lon":118.488609},"country":"CN","_id":1787831,"name":"Xucheng"},{"coord":{"lat":30.435230000000001,"lon":120.36473100000001},"country":"CN","_id":1788040,"name":"Xucun"},{"coord":{"lat":29.183610999999999,"lon":117.555283},"country":"CN","_id":1788042,"name":"Xucun"},{"coord":{"lat":41.630958999999997,"lon":48.680999999999997},"country":"AZ","_id":584715,"name":"Xudat"},{"coord":{"lat":4.1212900000000001,"lon":43.889449999999997},"country":"SO","_id":49747,"name":"Xuddur"},{"coord":{"lat":32.463889999999999,"lon":120.68332700000001},"country":"CN","_id":1548495,"name":"Xuean"},{"coord":{"lat":31.707609000000001,"lon":119.394272},"country":"CN","_id":6957982,"name":"Xuebu"},{"coord":{"lat":35.469971000000001,"lon":111.199333},"country":"CN","_id":1788020,"name":"Xuedian"},{"coord":{"lat":34.011951000000003,"lon":113.08704400000001},"country":"CN","_id":1788022,"name":"Xuedian"},{"coord":{"lat":26.357220000000002,"lon":117.197777},"country":"CN","_id":1788016,"name":"Xuefeng"},{"coord":{"lat":39.049751000000001,"lon":112.44245100000001},"country":"CN","_id":1787994,"name":"Xuejiawa"},{"coord":{"lat":39.866779000000001,"lon":111.22080200000001},"country":"CN","_id":8051687,"name":"Xuejiawan"},{"coord":{"lat":39.407981999999997,"lon":112.79669199999999},"country":"CN","_id":1787990,"name":"Xuekulue"},{"coord":{"lat":34.409610999999998,"lon":108.340523},"country":"CN","_id":1787989,"name":"Xuelu"},{"coord":{"lat":29.004529999999999,"lon":120.56199599999999},"country":"CN","_id":1813734,"name":"Xuetian"},{"coord":{"lat":34.954749999999997,"lon":109.296516},"country":"CN","_id":1787976,"name":"Xuezhen"},{"coord":{"lat":27.653169999999999,"lon":116.21871899999999},"country":"CN","_id":1925367,"name":"Xufang"},{"coord":{"lat":34.450001,"lon":119.550003},"country":"CN","_id":1550003,"name":"Xufeng"},{"coord":{"lat":28.26829,"lon":117.424583},"country":"CN","_id":7064804,"name":"Xuguang"},{"coord":{"lat":31.412929999999999,"lon":121.270653},"country":"CN","_id":1787960,"name":"Xuhang"},{"coord":{"lat":32.733330000000002,"lon":120.650002},"country":"CN","_id":1787958,"name":"Xuhe"},{"coord":{"lat":31.19594,"lon":121.44709},"country":"CN","_id":1787957,"name":"Xuhui"},{"coord":{"lat":35.664420999999997,"lon":102.951729},"country":"CN","_id":7413795,"name":"Xuhujia"},{"coord":{"lat":27.650048999999999,"lon":116.69046},"country":"CN","_id":1787948,"name":"Xujia"},{"coord":{"lat":34.340000000000003,"lon":108.962502},"country":"CN","_id":7063937,"name":"Xujia"},{"coord":{"lat":32.432011000000003,"lon":121.07885},"country":"CN","_id":7319365,"name":"Xujia Changzhuang"},{"coord":{"lat":27.884720000000002,"lon":108.113609},"country":"CN","_id":1550222,"name":"Xujiaba"},{"coord":{"lat":29.243690000000001,"lon":110.654678},"country":"CN","_id":1928020,"name":"Xujiafang"},{"coord":{"lat":36.343471999999998,"lon":107.59320099999999},"country":"CN","_id":7518374,"name":"Xujiahe"},{"coord":{"lat":26.839438999999999,"lon":116.32010699999999},"country":"CN","_id":1787925,"name":"Xujiang"},{"coord":{"lat":33.405448999999997,"lon":106.057632},"country":"CN","_id":1787923,"name":"Xujiaping"},{"coord":{"lat":28.913651000000002,"lon":111.584763},"country":"CN","_id":1928458,"name":"Xujiaqiao"},{"coord":{"lat":31.176120999999998,"lon":121.27121699999999},"country":"CN","_id":1787913,"name":"Xujing"},{"coord":{"lat":31.230440000000002,"lon":120.474136},"country":"CN","_id":1787912,"name":"Xukou"},{"coord":{"lat":29.987269999999999,"lon":119.665283},"country":"CN","_id":1916824,"name":"Xukou"},{"coord":{"lat":29.892348999999999,"lon":117.72405999999999},"country":"CN","_id":1553475,"name":"Xuling"},{"coord":{"lat":34.694141000000002,"lon":109.115601},"country":"CN","_id":2000018,"name":"Xumu"},{"coord":{"lat":28.454329999999999,"lon":104.71498099999999},"country":"CN","_id":1787901,"name":"Xunchang"},{"coord":{"lat":31.16188,"lon":113.633797},"country":"CN","_id":1787899,"name":"Xundian"},{"coord":{"lat":42.184730999999999,"lon":-7.7194900000000004},"country":"ES","_id":6359854,"name":"Xunqueira de Ambía"},{"coord":{"lat":25.47805,"lon":118.24366000000001},"country":"CN","_id":1921037,"name":"Xunzhong"},{"coord":{"lat":30.176399,"lon":121.24569700000001},"country":"CN","_id":1806602,"name":"Xushan"},{"coord":{"lat":28.22879,"lon":116.546387},"country":"CN","_id":1925368,"name":"Xushangqiao"},{"coord":{"lat":27.227810000000002,"lon":118.089203},"country":"CN","_id":1787856,"name":"Xushi"},{"coord":{"lat":31.380279999999999,"lon":120.49722300000001},"country":"CN","_id":1787854,"name":"Xushuguan"},{"coord":{"lat":40.343800000000002,"lon":122.38858},"country":"CN","_id":2033548,"name":"Xutun"},{"coord":{"lat":40.037739000000002,"lon":122.077187},"country":"CN","_id":2033557,"name":"Xutun"},{"coord":{"lat":34.525981999999999,"lon":119.538033},"country":"CN","_id":1787838,"name":"Xuwei"},{"coord":{"lat":34.618301000000002,"lon":109.14353199999999},"country":"CN","_id":1787833,"name":"Xuyang"},{"coord":{"lat":29.459409999999998,"lon":104.419472},"country":"CN","_id":1787834,"name":"Xuyang"},{"coord":{"lat":28.169920000000001,"lon":105.434517},"country":"CN","_id":1787828,"name":"Xuyong"},{"coord":{"lat":31.063939999999999,"lon":118.406807},"country":"CN","_id":7067319,"name":"Xuzhen"},{"coord":{"lat":34.864552000000003,"lon":109.940468},"country":"CN","_id":1787821,"name":"Xuzhuang"},{"coord":{"lat":38.077621000000001,"lon":22.63166},"country":"GR","_id":251525,"name":"Xylokastron"},{"coord":{"lat":35.019100000000002,"lon":33.740569999999998},"country":"GB","_id":145971,"name":"Xylotymbou"},{"coord":{"lat":39.000808999999997,"lon":-0.54095000000000004},"country":"ES","_id":6362010,"name":"Xàtiva"},{"coord":{"lat":21.033331,"lon":105.849998},"country":"VN","_id":1561096,"name":"Xóm Pho"},{"coord":{"lat":18.733329999999999,"lon":105.66667200000001},"country":"VN","_id":1560678,"name":"Xóm Yân Lạc Hâu"}]