[{"coord":{"lat":39.358539999999998,"lon":-9.1760300000000008},"country":"PT","_id":8010552,"name":"Óbidos"},{"coord":{"lat":40.428668999999999,"lon":-8.4837100000000003},"country":"PT","_id":8014305,"name":"Óis do Bairro"},{"coord":{"lat":40.432079000000002,"lon":-8.4837199999999999},"country":"PT","_id":2737086,"name":"Óis do Bairro"},{"coord":{"lat":64.894524000000004,"lon":-23.714238999999999},"country":"IS","_id":3414079,"name":"Ólafsvík"},{"coord":{"lat":41.791480999999997,"lon":-1.97983},"country":"ES","_id":6361174,"name":"Ólvega"},{"coord":{"lat":36.866427999999999,"lon":-3.3841600000000001},"country":"ES","_id":6357755,"name":"Órgiva"},{"coord":{"lat":47.866669000000002,"lon":21.933330999999999},"country":"HU","_id":716686,"name":"Ószőlőskert"}]