[{"coord":{"lat":50.788738000000002,"lon":15.778779999999999},"country":"PL","_id":3086212,"name":"Ściegny"},{"coord":{"lat":51.410099000000002,"lon":16.4251},"country":"PL","_id":7533214,"name":"Ścinawa"},{"coord":{"lat":52.0867,"lon":17.018699999999999},"country":"PL","_id":7533378,"name":"Śrem"},{"coord":{"lat":52.229900000000001,"lon":17.2803},"country":"PL","_id":7533339,"name":"Środa Wielkopolska"},{"coord":{"lat":50.061779000000001,"lon":19.939581},"country":"PL","_id":3085041,"name":"Śródmieście"},{"coord":{"lat":50.840598999999997,"lon":16.4925},"country":"PL","_id":7532248,"name":"Świdnica"},{"coord":{"lat":51.216709000000002,"lon":22.684940000000001},"country":"PL","_id":7531487,"name":"Świdnik"},{"coord":{"lat":51.256008000000001,"lon":22.680499999999999},"country":"PL","_id":757690,"name":"Świdnik Mały"},{"coord":{"lat":53.7742,"lon":15.7973},"country":"PL","_id":7531696,"name":"Świdwin"},{"coord":{"lat":50.872501,"lon":16.338498999999999},"country":"PL","_id":7531967,"name":"Świebodzice"},{"coord":{"lat":52.244202000000001,"lon":15.5311},"country":"PL","_id":7533428,"name":"Świebodzin"},{"coord":{"lat":53.403098999999997,"lon":18.418699},"country":"PL","_id":7533276,"name":"Świecie"},{"coord":{"lat":50.916901000000003,"lon":15.3231},"country":"PL","_id":7531973,"name":"Świeradów-Zdrój"},{"coord":{"lat":50.442261000000002,"lon":18.936568999999999},"country":"PL","_id":7531935,"name":"Świerklaniec"},{"coord":{"lat":50.02026,"lon":18.580459999999999},"country":"PL","_id":7532592,"name":"Świerklany"},{"coord":{"lat":50.849960000000003,"lon":17.059878999999999},"country":"PL","_id":3083956,"name":"Świnobród"},{"coord":{"lat":53.850200999999998,"lon":14.313129999999999},"country":"PL","_id":7530749,"name":"Świnoujście"},{"coord":{"lat":53.850200999999998,"lon":14.3131},"country":"PL","_id":7532101,"name":"Świnoujście"},{"coord":{"lat":49.932301000000002,"lon":19.954599000000002},"country":"PL","_id":7533033,"name":"Świątniki Górne"},{"coord":{"lat":50.297901000000003,"lon":18.9102},"country":"PL","_id":7532438,"name":"Świętochłowice"},{"coord":{"lat":50.297958000000001,"lon":18.910219000000001},"country":"PL","_id":7530992,"name":"Świętochłowice"}]