[{"coord":{"lat":37.212829999999997,"lon":38.781737999999997},"country":"TR","_id":298332,"name":"Şanlıurfa"},{"coord":{"lat":41.015202000000002,"lon":28.931549},"country":"TR","_id":739887,"name":"Şehremini"},{"coord":{"lat":40.976849000000001,"lon":28.798169999999999},"country":"TR","_id":739812,"name":"Şenlikköy"},{"coord":{"lat":47.020828000000002,"lon":29.349720000000001},"country":"MD","_id":617426,"name":"Şerpeni"},{"coord":{"lat":21.249649000000002,"lon":39.157710999999999},"country":"SA","_id":101752,"name":"Şumaymah"},{"coord":{"lat":39.75,"lon":46.75},"country":"AZ","_id":409419,"name":"Şuşa Şəhəri"},{"coord":{"lat":37.5,"lon":42.5},"country":"TR","_id":443189,"name":"Şırnak"},{"coord":{"lat":35.457298000000002,"lon":53.320202000000002},"country":"IR","_id":113832,"name":"Şūfīābād"},{"coord":{"lat":41.183331000000003,"lon":47.166671999999998},"country":"AZ","_id":828303,"name":"Şəki Şəhəri"}]