[{"coord":{"lat":54.950001,"lon":23.049999},"country":"LT","_id":595043,"name":"Šakiai"},{"coord":{"lat":44.572498000000003,"lon":21.363330999999999},"country":"RS","_id":786100,"name":"Šapine"},{"coord":{"lat":56,"lon":23.33333},"country":"LT","_id":864481,"name":"Šiaulių Apskritis"},{"coord":{"lat":43.833328000000002,"lon":15.91667},"country":"HR","_id":3337525,"name":"Šibensko-Kninska Županija"},{"coord":{"lat":43.745559999999998,"lon":19.72167},"country":"RS","_id":3319247,"name":"Šinovik"},{"coord":{"lat":49.26923,"lon":17.731259999999999},"country":"CZ","_id":3065138,"name":"Štípa"},{"coord":{"lat":44.821387999999999,"lon":21.139999},"country":"RS","_id":785305,"name":"Šumarak"},{"coord":{"lat":49.795650000000002,"lon":18.404619},"country":"CZ","_id":3064681,"name":"Šumbark"}]