[{"coord":{"lat":46.198608,"lon":14.33306},"country":"SI","_id":3186994,"name":"Žabnica"},{"coord":{"lat":50.485649000000002,"lon":15.04312},"country":"CZ","_id":3061864,"name":"Žantov"},{"coord":{"lat":45.003608999999997,"lon":19.934719000000001},"country":"RS","_id":3186764,"name":"Žarkovac"},{"coord":{"lat":49.217360999999997,"lon":17.744769999999999},"country":"CZ","_id":3061603,"name":"Želechovice nad Dřevnicí"},{"coord":{"lat":45.879719000000001,"lon":13.66778},"country":"SI","_id":3216562,"name":"Žigoni"},{"coord":{"lat":49.166671999999998,"lon":19.16667},"country":"SK","_id":3056506,"name":"Žilinský Kraj"},{"coord":{"lat":50.083328000000002,"lon":14.449999999999999},"country":"CZ","_id":3061412,"name":"Žižkov"},{"coord":{"lat":50.433041000000003,"lon":15.95693},"country":"CZ","_id":3061711,"name":"Žďár"}]